[{"category":"anti-social-behaviour","location_type":"Force","location":{"latitude":"51.505781","street":{"id":951926,"name":"On or near Richmond Road"},"longitude":"-0.300244"},"context":"","outcome_status":null,"persistent_id":"","id":74270395,"location_subtype":"","month":"2019-05"},{"category":"anti-social-behaviour","location_type":"Force","location":{"latitude":"51.492796","street":{"id":950665,"name":"On or near Essex Place Square"},"longitude":"-0.264642"},"context":"","outcome_status":null,"persistent_id":"","id":74278698,"location_subtype":"","month":"2019-05"},{"category":"anti-social-behaviour","location_type":"Force","location":{"latitude":"51.492796","street":{"id":950665,"name":"On or near Essex Place Square"},"longitude":"-0.264642"},"context":"","outcome_status":null,"persistent_id":"","id":74278699,"location_subtype":"","month":"2019-05"},{"category":"anti-social-behaviour","location_type":"Force","location":{"latitude":"51.493736","street":{"id":950634,"name":"On or near Parking Area"},"longitude":"-0.266191"},"context":"","outcome_status":null,"persistent_id":"","id":74278701,"location_subtype":"","month":"2019-05"},{"category":"anti-social-behaviour","location_type":"Force","location":{"latitude":"51.493736","street":{"id":950634,"name":"On or near Parking Area"},"longitude":"-0.266191"},"context":"","outcome_status":null,"persistent_id":"","id":74278702,"location_subtype":"","month":"2019-05"},{"category":"anti-social-behaviour","location_type":"Force","location":{"latitude":"51.492821","street":{"id":950670,"name":"On or near Chiswick High Road"},"longitude":"-0.268199"},"context":"","outcome_status":null,"persistent_id":"","id":74278703,"location_subtype":"","month":"2019-05"},{"category":"anti-social-behaviour","location_type":"Force","location":{"latitude":"51.492480","street":{"id":950680,"name":"On or near Bishops Close"},"longitude":"-0.269408"},"context":"","outcome_status":null,"persistent_id":"","id":74278706,"location_subtype":"","month":"2019-05"},{"category":"anti-social-behaviour","location_type":"Force","location":{"latitude":"51.492480","street":{"id":950680,"name":"On or near Bishops Close"},"longitude":"-0.269408"},"context":"","outcome_status":null,"persistent_id":"","id":74278707,"location_subtype":"","month":"2019-05"},{"category":"anti-social-behaviour","location_type":"Force","location":{"latitude":"51.490538","street":{"id":950636,"name":"On or near Wellesley Road"},"longitude":"-0.274321"},"context":"","outcome_status":null,"persistent_id":"","id":74278711,"location_subtype":"","month":"2019-05"},{"category":"anti-social-behaviour","location_type":"Force","location":{"latitude":"51.494733","street":{"id":952253,"name":"On or near Park\/open Space"},"longitude":"-0.274624"},"context":"","outcome_status":null,"persistent_id":"","id":74278712,"location_subtype":"","month":"2019-05"},{"category":"anti-social-behaviour","location_type":"Force","location":{"latitude":"51.492032","street":{"id":950822,"name":"On or near Gunnersbury Mews"},"longitude":"-0.275676"},"context":"","outcome_status":null,"persistent_id":"","id":74278713,"location_subtype":"","month":"2019-05"},{"category":"anti-social-behaviour","location_type":"Force","location":{"latitude":"51.492032","street":{"id":950822,"name":"On or near Gunnersbury Mews"},"longitude":"-0.275676"},"context":"","outcome_status":null,"persistent_id":"","id":74278716,"location_subtype":"","month":"2019-05"},{"category":"anti-social-behaviour","location_type":"Force","location":{"latitude":"51.493589","street":{"id":950815,"name":"On or near Silver Crescent"},"longitude":"-0.276957"},"context":"","outcome_status":null,"persistent_id":"","id":74278718,"location_subtype":"","month":"2019-05"},{"category":"anti-social-behaviour","location_type":"Force","location":{"latitude":"51.490980","street":{"id":950817,"name":"On or near Oxford Road North"},"longitude":"-0.278107"},"context":"","outcome_status":null,"persistent_id":"","id":74278720,"location_subtype":"","month":"2019-05"},{"category":"anti-social-behaviour","location_type":"Force","location":{"latitude":"51.490980","street":{"id":950817,"name":"On or near Oxford Road North"},"longitude":"-0.278107"},"context":"","outcome_status":null,"persistent_id":"","id":74278721,"location_subtype":"","month":"2019-05"},{"category":"anti-social-behaviour","location_type":"Force","location":{"latitude":"51.490980","street":{"id":950817,"name":"On or near Oxford Road North"},"longitude":"-0.278107"},"context":"","outcome_status":null,"persistent_id":"","id":74278722,"location_subtype":"","month":"2019-05"},{"category":"anti-social-behaviour","location_type":"Force","location":{"latitude":"51.490980","street":{"id":950817,"name":"On or near Oxford Road North"},"longitude":"-0.278107"},"context":"","outcome_status":null,"persistent_id":"","id":74278723,"location_subtype":"","month":"2019-05"},{"category":"anti-social-behaviour","location_type":"Force","location":{"latitude":"51.493452","street":{"id":950813,"name":"On or near Thorney Hedge Road"},"longitude":"-0.278043"},"context":"","outcome_status":null,"persistent_id":"","id":74278725,"location_subtype":"","month":"2019-05"},{"category":"anti-social-behaviour","location_type":"Force","location":{"latitude":"51.490377","street":{"id":950830,"name":"On or near M4"},"longitude":"-0.279887"},"context":"","outcome_status":null,"persistent_id":"","id":74278728,"location_subtype":"","month":"2019-05"},{"category":"anti-social-behaviour","location_type":"Force","location":{"latitude":"51.491266","street":{"id":950828,"name":"On or near Cambridge Road North"},"longitude":"-0.279796"},"context":"","outcome_status":null,"persistent_id":"","id":74278729,"location_subtype":"","month":"2019-05"},{"category":"anti-social-behaviour","location_type":"Force","location":{"latitude":"51.491266","street":{"id":950828,"name":"On or near Cambridge Road North"},"longitude":"-0.279796"},"context":"","outcome_status":null,"persistent_id":"","id":74278730,"location_subtype":"","month":"2019-05"},{"category":"anti-social-behaviour","location_type":"Force","location":{"latitude":"51.490352","street":{"id":950804,"name":"On or near Haining Close"},"longitude":"-0.281300"},"context":"","outcome_status":null,"persistent_id":"","id":74278731,"location_subtype":"","month":"2019-05"},{"category":"anti-social-behaviour","location_type":"Force","location":{"latitude":"51.490352","street":{"id":950804,"name":"On or near Haining Close"},"longitude":"-0.281300"},"context":"","outcome_status":null,"persistent_id":"","id":74278732,"location_subtype":"","month":"2019-05"},{"category":"anti-social-behaviour","location_type":"Force","location":{"latitude":"51.490352","street":{"id":950804,"name":"On or near Haining Close"},"longitude":"-0.281300"},"context":"","outcome_status":null,"persistent_id":"","id":74278733,"location_subtype":"","month":"2019-05"},{"category":"anti-social-behaviour","location_type":"Force","location":{"latitude":"51.499975","street":{"id":952046,"name":"On or near Princes Way"},"longitude":"-0.280102"},"context":"","outcome_status":null,"persistent_id":"","id":74278734,"location_subtype":"","month":"2019-05"},{"category":"anti-social-behaviour","location_type":"Force","location":{"latitude":"51.507056","street":{"id":952224,"name":"On or near Mill Hill Grove"},"longitude":"-0.272415"},"context":"","outcome_status":null,"persistent_id":"","id":74270112,"location_subtype":"","month":"2019-05"},{"category":"anti-social-behaviour","location_type":"Force","location":{"latitude":"51.509654","street":{"id":957866,"name":"On or near Granville Gardens"},"longitude":"-0.287750"},"context":"","outcome_status":null,"persistent_id":"","id":74270361,"location_subtype":"","month":"2019-05"},{"category":"anti-social-behaviour","location_type":"Force","location":{"latitude":"51.509654","street":{"id":957866,"name":"On or near Granville Gardens"},"longitude":"-0.287750"},"context":"","outcome_status":null,"persistent_id":"","id":74270362,"location_subtype":"","month":"2019-05"},{"category":"anti-social-behaviour","location_type":"Force","location":{"latitude":"51.509654","street":{"id":957866,"name":"On or near Granville Gardens"},"longitude":"-0.287750"},"context":"","outcome_status":null,"persistent_id":"","id":74270363,"location_subtype":"","month":"2019-05"},{"category":"anti-social-behaviour","location_type":"Force","location":{"latitude":"51.509654","street":{"id":957866,"name":"On or near Granville Gardens"},"longitude":"-0.287750"},"context":"","outcome_status":null,"persistent_id":"","id":74270364,"location_subtype":"","month":"2019-05"},{"category":"anti-social-behaviour","location_type":"Force","location":{"latitude":"51.509654","street":{"id":957866,"name":"On or near Granville Gardens"},"longitude":"-0.287750"},"context":"","outcome_status":null,"persistent_id":"","id":74270365,"location_subtype":"","month":"2019-05"},{"category":"anti-social-behaviour","location_type":"Force","location":{"latitude":"51.509654","street":{"id":957866,"name":"On or near Granville Gardens"},"longitude":"-0.287750"},"context":"","outcome_status":null,"persistent_id":"","id":74270366,"location_subtype":"","month":"2019-05"},{"category":"anti-social-behaviour","location_type":"Force","location":{"latitude":"51.503755","street":{"id":952102,"name":"On or near Sports\/recreation Area"},"longitude":"-0.291444"},"context":"","outcome_status":null,"persistent_id":"","id":74270369,"location_subtype":"","month":"2019-05"},{"category":"anti-social-behaviour","location_type":"Force","location":{"latitude":"51.505898","street":{"id":952091,"name":"On or near Gunnersbury Avenue (north Circular Road)"},"longitude":"-0.290398"},"context":"","outcome_status":null,"persistent_id":"","id":74270374,"location_subtype":"","month":"2019-05"},{"category":"anti-social-behaviour","location_type":"Force","location":{"latitude":"51.512514","street":{"id":957784,"name":"On or near Gatcombe Mews"},"longitude":"-0.291433"},"context":"","outcome_status":null,"persistent_id":"","id":74270376,"location_subtype":"","month":"2019-05"},{"category":"anti-social-behaviour","location_type":"Force","location":{"latitude":"51.512514","street":{"id":957784,"name":"On or near Gatcombe Mews"},"longitude":"-0.291433"},"context":"","outcome_status":null,"persistent_id":"","id":74270377,"location_subtype":"","month":"2019-05"},{"category":"anti-social-behaviour","location_type":"Force","location":{"latitude":"51.503406","street":{"id":952100,"name":"On or near Aspen Close"},"longitude":"-0.293359"},"context":"","outcome_status":null,"persistent_id":"","id":74270381,"location_subtype":"","month":"2019-05"},{"category":"anti-social-behaviour","location_type":"Force","location":{"latitude":"51.512763","street":{"id":957778,"name":"On or near North Common Road"},"longitude":"-0.294969"},"context":"","outcome_status":null,"persistent_id":"","id":74270385,"location_subtype":"","month":"2019-05"},{"category":"anti-social-behaviour","location_type":"Force","location":{"latitude":"51.507304","street":{"id":951933,"name":"On or near Keswick Mews"},"longitude":"-0.300505"},"context":"","outcome_status":null,"persistent_id":"","id":74270394,"location_subtype":"","month":"2019-05"},{"category":"anti-social-behaviour","location_type":"Force","location":{"latitude":"51.500307","street":{"id":951903,"name":"On or near Rose Gardens"},"longitude":"-0.302278"},"context":"","outcome_status":null,"persistent_id":"","id":74270403,"location_subtype":"","month":"2019-05"},{"category":"anti-social-behaviour","location_type":"Force","location":{"latitude":"51.490518","street":{"id":950784,"name":"On or near Chiswick High Road (north Circular Road)"},"longitude":"-0.284650"},"context":"","outcome_status":null,"persistent_id":"","id":74283763,"location_subtype":"","month":"2019-05"},{"category":"anti-social-behaviour","location_type":"Force","location":{"latitude":"51.490518","street":{"id":950784,"name":"On or near Chiswick High Road (north Circular Road)"},"longitude":"-0.284650"},"context":"","outcome_status":null,"persistent_id":"","id":74283762,"location_subtype":"","month":"2019-05"},{"category":"anti-social-behaviour","location_type":"Force","location":{"latitude":"51.490518","street":{"id":950784,"name":"On or near Chiswick High Road (north Circular Road)"},"longitude":"-0.284650"},"context":"","outcome_status":null,"persistent_id":"","id":74283761,"location_subtype":"","month":"2019-05"},{"category":"anti-social-behaviour","location_type":"Force","location":{"latitude":"51.491209","street":{"id":950807,"name":"On or near Chiswick High Road (north Circular Road)"},"longitude":"-0.283328"},"context":"","outcome_status":null,"persistent_id":"","id":74283760,"location_subtype":"","month":"2019-05"},{"category":"anti-social-behaviour","location_type":"Force","location":{"latitude":"51.507639","street":{"id":957752,"name":"On or near Market Place"},"longitude":"-0.271153"},"context":"","outcome_status":null,"persistent_id":"","id":74270098,"location_subtype":"","month":"2019-05"},{"category":"anti-social-behaviour","location_type":"Force","location":{"latitude":"51.503370","street":{"id":952209,"name":"On or near Wilkinson Way"},"longitude":"-0.263966"},"context":"","outcome_status":null,"persistent_id":"","id":74270034,"location_subtype":"","month":"2019-05"},{"category":"anti-social-behaviour","location_type":"Force","location":{"latitude":"51.513945","street":{"id":957646,"name":"On or near Horn Lane"},"longitude":"-0.269473"},"context":"","outcome_status":null,"persistent_id":"","id":74270072,"location_subtype":"","month":"2019-05"},{"category":"anti-social-behaviour","location_type":"Force","location":{"latitude":"51.491486","street":{"id":950768,"name":"On or near Pedestrian Subway"},"longitude":"-0.291802"},"context":"","outcome_status":null,"persistent_id":"","id":74283768,"location_subtype":"","month":"2019-05"},{"category":"anti-social-behaviour","location_type":"Force","location":{"latitude":"51.504383","street":{"id":952217,"name":"On or near Park Road East"},"longitude":"-0.271694"},"context":"","outcome_status":null,"persistent_id":"","id":74270117,"location_subtype":"","month":"2019-05"},{"category":"anti-social-behaviour","location_type":"Force","location":{"latitude":"51.500086","street":{"id":952075,"name":"On or near Parking Area"},"longitude":"-0.290760"},"context":"","outcome_status":null,"persistent_id":"","id":74283766,"location_subtype":"","month":"2019-05"},{"category":"anti-social-behaviour","location_type":"Force","location":{"latitude":"51.504229","street":{"id":952068,"name":"On or near Museum Way"},"longitude":"-0.280807"},"context":"","outcome_status":null,"persistent_id":"","id":74270341,"location_subtype":"","month":"2019-05"},{"category":"anti-social-behaviour","location_type":"Force","location":{"latitude":"51.509785","street":{"id":957849,"name":"On or near Chatsworth Gardens"},"longitude":"-0.276375"},"context":"","outcome_status":null,"persistent_id":"","id":74270325,"location_subtype":"","month":"2019-05"},{"category":"anti-social-behaviour","location_type":"Force","location":{"latitude":"51.504383","street":{"id":952217,"name":"On or near Park Road East"},"longitude":"-0.271694"},"context":"","outcome_status":null,"persistent_id":"","id":74270118,"location_subtype":"","month":"2019-05"},{"category":"anti-social-behaviour","location_type":"Force","location":{"latitude":"51.506226","street":{"id":952240,"name":"On or near Cheltenham Place"},"longitude":"-0.272230"},"context":"","outcome_status":null,"persistent_id":"","id":74270128,"location_subtype":"","month":"2019-05"},{"category":"anti-social-behaviour","location_type":"Force","location":{"latitude":"51.500086","street":{"id":952075,"name":"On or near Parking Area"},"longitude":"-0.290760"},"context":"","outcome_status":null,"persistent_id":"","id":74283765,"location_subtype":"","month":"2019-05"},{"category":"anti-social-behaviour","location_type":"Force","location":{"latitude":"51.491209","street":{"id":950807,"name":"On or near Chiswick High Road (north Circular Road)"},"longitude":"-0.283328"},"context":"","outcome_status":null,"persistent_id":"","id":74278738,"location_subtype":"","month":"2019-05"},{"category":"anti-social-behaviour","location_type":"Force","location":{"latitude":"51.505998","street":{"id":952233,"name":"On or near Gloucester Road"},"longitude":"-0.265351"},"context":"","outcome_status":null,"persistent_id":"","id":74270047,"location_subtype":"","month":"2019-05"},{"category":"anti-social-behaviour","location_type":"Force","location":{"latitude":"51.506516","street":{"id":952137,"name":"On or near The Vale"},"longitude":"-0.257809"},"context":"","outcome_status":null,"persistent_id":"","id":74270002,"location_subtype":"","month":"2019-05"},{"category":"anti-social-behaviour","location_type":"Force","location":{"latitude":"51.490000","street":{"id":950793,"name":"On or near Wellesley Road"},"longitude":"-0.282379"},"context":"","outcome_status":null,"persistent_id":"","id":74278737,"location_subtype":"","month":"2019-05"},{"category":"anti-social-behaviour","location_type":"Force","location":{"latitude":"51.499702","street":{"id":952115,"name":"On or near Vanbrugh Road"},"longitude":"-0.258602"},"context":"","outcome_status":null,"persistent_id":"","id":74270012,"location_subtype":"","month":"2019-05"},{"category":"anti-social-behaviour","location_type":"Force","location":{"latitude":"51.509286","street":{"id":957738,"name":"On or near East Churchfield Road"},"longitude":"-0.260297"},"context":"","outcome_status":null,"persistent_id":"","id":74270013,"location_subtype":"","month":"2019-05"},{"category":"anti-social-behaviour","location_type":"Force","location":{"latitude":"51.509286","street":{"id":957738,"name":"On or near East Churchfield Road"},"longitude":"-0.260297"},"context":"","outcome_status":null,"persistent_id":"","id":74270014,"location_subtype":"","month":"2019-05"},{"category":"anti-social-behaviour","location_type":"Force","location":{"latitude":"51.490000","street":{"id":950793,"name":"On or near Wellesley Road"},"longitude":"-0.282379"},"context":"","outcome_status":null,"persistent_id":"","id":74278736,"location_subtype":"","month":"2019-05"},{"category":"anti-social-behaviour","location_type":"Force","location":{"latitude":"51.489132","street":{"id":950808,"name":"On or near Brooks Road"},"longitude":"-0.280827"},"context":"","outcome_status":null,"persistent_id":"","id":74278735,"location_subtype":"","month":"2019-05"},{"category":"anti-social-behaviour","location_type":"Force","location":{"latitude":"51.500071","street":{"id":952128,"name":"On or near Eridge Road"},"longitude":"-0.261052"},"context":"","outcome_status":null,"persistent_id":"","id":74270016,"location_subtype":"","month":"2019-05"},{"category":"anti-social-behaviour","location_type":"Force","location":{"latitude":"51.496327","street":{"id":952280,"name":"On or near Petrol Station"},"longitude":"-0.263269"},"context":"","outcome_status":null,"persistent_id":"","id":74270020,"location_subtype":"","month":"2019-05"},{"category":"anti-social-behaviour","location_type":"Force","location":{"latitude":"51.506577","street":{"id":952162,"name":"On or near Birkbeck Grove"},"longitude":"-0.262533"},"context":"","outcome_status":null,"persistent_id":"","id":74270025,"location_subtype":"","month":"2019-05"},{"category":"anti-social-behaviour","location_type":"Force","location":{"latitude":"51.504839","street":{"id":952246,"name":"On or near Beardsley Way"},"longitude":"-0.262988"},"context":"","outcome_status":null,"persistent_id":"","id":74270026,"location_subtype":"","month":"2019-05"},{"category":"anti-social-behaviour","location_type":"Force","location":{"latitude":"51.504839","street":{"id":952246,"name":"On or near Beardsley Way"},"longitude":"-0.262988"},"context":"","outcome_status":null,"persistent_id":"","id":74270027,"location_subtype":"","month":"2019-05"},{"category":"anti-social-behaviour","location_type":"Force","location":{"latitude":"51.509680","street":{"id":957757,"name":"On or near Goldsmith Road"},"longitude":"-0.263193"},"context":"","outcome_status":null,"persistent_id":"","id":74270028,"location_subtype":"","month":"2019-05"},{"category":"anti-social-behaviour","location_type":"Force","location":{"latitude":"51.507717","street":{"id":957766,"name":"On or near Birkbeck Road"},"longitude":"-0.264205"},"context":"","outcome_status":null,"persistent_id":"","id":74270029,"location_subtype":"","month":"2019-05"},{"category":"anti-social-behaviour","location_type":"Force","location":{"latitude":"51.503370","street":{"id":952209,"name":"On or near Wilkinson Way"},"longitude":"-0.263966"},"context":"","outcome_status":null,"persistent_id":"","id":74270033,"location_subtype":"","month":"2019-05"},{"category":"anti-social-behaviour","location_type":"Force","location":{"latitude":"51.503370","street":{"id":952209,"name":"On or near Wilkinson Way"},"longitude":"-0.263966"},"context":"","outcome_status":null,"persistent_id":"","id":74270035,"location_subtype":"","month":"2019-05"},{"category":"anti-social-behaviour","location_type":"Force","location":{"latitude":"51.509610","street":{"id":957751,"name":"On or near Milton Road"},"longitude":"-0.263960"},"context":"","outcome_status":null,"persistent_id":"","id":74270036,"location_subtype":"","month":"2019-05"},{"category":"anti-social-behaviour","location_type":"Force","location":{"latitude":"51.501936","street":{"id":952237,"name":"On or near Clovelly Road"},"longitude":"-0.264280"},"context":"","outcome_status":null,"persistent_id":"","id":74270037,"location_subtype":"","month":"2019-05"},{"category":"anti-social-behaviour","location_type":"Force","location":{"latitude":"51.507717","street":{"id":957766,"name":"On or near Birkbeck Road"},"longitude":"-0.264205"},"context":"","outcome_status":null,"persistent_id":"","id":74270038,"location_subtype":"","month":"2019-05"},{"category":"anti-social-behaviour","location_type":"Force","location":{"latitude":"51.507717","street":{"id":957766,"name":"On or near Birkbeck Road"},"longitude":"-0.264205"},"context":"","outcome_status":null,"persistent_id":"","id":74270039,"location_subtype":"","month":"2019-05"},{"category":"anti-social-behaviour","location_type":"Force","location":{"latitude":"51.505998","street":{"id":952233,"name":"On or near Gloucester Road"},"longitude":"-0.265351"},"context":"","outcome_status":null,"persistent_id":"","id":74270043,"location_subtype":"","month":"2019-05"},{"category":"anti-social-behaviour","location_type":"Force","location":{"latitude":"51.506274","street":{"id":952226,"name":"On or near Melville Villas Road"},"longitude":"-0.265124"},"context":"","outcome_status":null,"persistent_id":"","id":74270044,"location_subtype":"","month":"2019-05"},{"category":"anti-social-behaviour","location_type":"Force","location":{"latitude":"51.506274","street":{"id":952226,"name":"On or near Melville Villas Road"},"longitude":"-0.265124"},"context":"","outcome_status":null,"persistent_id":"","id":74270045,"location_subtype":"","month":"2019-05"},{"category":"anti-social-behaviour","location_type":"Force","location":{"latitude":"51.506274","street":{"id":952226,"name":"On or near Melville Villas Road"},"longitude":"-0.265124"},"context":"","outcome_status":null,"persistent_id":"","id":74270046,"location_subtype":"","month":"2019-05"},{"category":"anti-social-behaviour","location_type":"Force","location":{"latitude":"51.505998","street":{"id":952233,"name":"On or near Gloucester Road"},"longitude":"-0.265351"},"context":"","outcome_status":null,"persistent_id":"","id":74270048,"location_subtype":"","month":"2019-05"},{"category":"anti-social-behaviour","location_type":"Force","location":{"latitude":"51.501012","street":{"id":952177,"name":"On or near Reynolds Road"},"longitude":"-0.266260"},"context":"","outcome_status":null,"persistent_id":"","id":74270049,"location_subtype":"","month":"2019-05"},{"category":"anti-social-behaviour","location_type":"Force","location":{"latitude":"51.501012","street":{"id":952177,"name":"On or near Reynolds Road"},"longitude":"-0.266260"},"context":"","outcome_status":null,"persistent_id":"","id":74270050,"location_subtype":"","month":"2019-05"},{"category":"anti-social-behaviour","location_type":"Force","location":{"latitude":"51.512991","street":{"id":957661,"name":"On or near Crane Avenue"},"longitude":"-0.265157"},"context":"","outcome_status":null,"persistent_id":"","id":74270051,"location_subtype":"","month":"2019-05"},{"category":"anti-social-behaviour","location_type":"Force","location":{"latitude":"51.503996","street":{"id":952248,"name":"On or near Acton Lane"},"longitude":"-0.266796"},"context":"","outcome_status":null,"persistent_id":"","id":74270052,"location_subtype":"","month":"2019-05"},{"category":"anti-social-behaviour","location_type":"Force","location":{"latitude":"51.507578","street":{"id":957755,"name":"On or near Grove Road"},"longitude":"-0.267020"},"context":"","outcome_status":null,"persistent_id":"","id":74270053,"location_subtype":"","month":"2019-05"},{"category":"anti-social-behaviour","location_type":"Force","location":{"latitude":"51.512062","street":{"id":957643,"name":"On or near Maldon Road"},"longitude":"-0.266792"},"context":"","outcome_status":null,"persistent_id":"","id":74270054,"location_subtype":"","month":"2019-05"},{"category":"anti-social-behaviour","location_type":"Force","location":{"latitude":"51.512062","street":{"id":957643,"name":"On or near Maldon Road"},"longitude":"-0.266792"},"context":"","outcome_status":null,"persistent_id":"","id":74270055,"location_subtype":"","month":"2019-05"},{"category":"anti-social-behaviour","location_type":"Force","location":{"latitude":"51.505998","street":{"id":952212,"name":"On or near Salisbury Street"},"longitude":"-0.267152"},"context":"","outcome_status":null,"persistent_id":"","id":74270056,"location_subtype":"","month":"2019-05"},{"category":"anti-social-behaviour","location_type":"Force","location":{"latitude":"51.508524","street":{"id":957762,"name":"On or near Churchfield Road"},"longitude":"-0.267128"},"context":"","outcome_status":null,"persistent_id":"","id":74270057,"location_subtype":"","month":"2019-05"},{"category":"anti-social-behaviour","location_type":"Force","location":{"latitude":"51.508524","street":{"id":957762,"name":"On or near Churchfield Road"},"longitude":"-0.267128"},"context":"","outcome_status":null,"persistent_id":"","id":74270058,"location_subtype":"","month":"2019-05"},{"category":"anti-social-behaviour","location_type":"Force","location":{"latitude":"51.508524","street":{"id":957762,"name":"On or near Churchfield Road"},"longitude":"-0.267128"},"context":"","outcome_status":null,"persistent_id":"","id":74270059,"location_subtype":"","month":"2019-05"},{"category":"anti-social-behaviour","location_type":"Force","location":{"latitude":"51.508524","street":{"id":957762,"name":"On or near Churchfield Road"},"longitude":"-0.267128"},"context":"","outcome_status":null,"persistent_id":"","id":74270060,"location_subtype":"","month":"2019-05"},{"category":"anti-social-behaviour","location_type":"Force","location":{"latitude":"51.509415","street":{"id":957763,"name":"On or near Chaucer Road"},"longitude":"-0.267152"},"context":"","outcome_status":null,"persistent_id":"","id":74270061,"location_subtype":"","month":"2019-05"},{"category":"anti-social-behaviour","location_type":"Force","location":{"latitude":"51.505757","street":{"id":952208,"name":"On or near Winchester Street"},"longitude":"-0.267867"},"context":"","outcome_status":null,"persistent_id":"","id":74270062,"location_subtype":"","month":"2019-05"},{"category":"anti-social-behaviour","location_type":"Force","location":{"latitude":"51.509597","street":{"id":957746,"name":"On or near Spencer Road"},"longitude":"-0.267894"},"context":"","outcome_status":null,"persistent_id":"","id":74270064,"location_subtype":"","month":"2019-05"},{"category":"anti-social-behaviour","location_type":"Force","location":{"latitude":"51.507892","street":{"id":957756,"name":"On or near Grove Place"},"longitude":"-0.268132"},"context":"","outcome_status":null,"persistent_id":"","id":74270066,"location_subtype":"","month":"2019-05"},{"category":"anti-social-behaviour","location_type":"Force","location":{"latitude":"51.498879","street":{"id":952185,"name":"On or near Kent Road"},"longitude":"-0.268560"},"context":"","outcome_status":null,"persistent_id":"","id":74270067,"location_subtype":"","month":"2019-05"},{"category":"anti-social-behaviour","location_type":"Force","location":{"latitude":"51.498409","street":{"id":952184,"name":"On or near Kingswood Road"},"longitude":"-0.269658"},"context":"","outcome_status":null,"persistent_id":"","id":74270070,"location_subtype":"","month":"2019-05"},{"category":"anti-social-behaviour","location_type":"Force","location":{"latitude":"51.498409","street":{"id":952184,"name":"On or near Kingswood Road"},"longitude":"-0.269658"},"context":"","outcome_status":null,"persistent_id":"","id":74270071,"location_subtype":"","month":"2019-05"},{"category":"anti-social-behaviour","location_type":"Force","location":{"latitude":"51.506334","street":{"id":952218,"name":"On or near Oldham Terrace"},"longitude":"-0.269848"},"context":"","outcome_status":null,"persistent_id":"","id":74270073,"location_subtype":"","month":"2019-05"},{"category":"anti-social-behaviour","location_type":"Force","location":{"latitude":"51.500317","street":{"id":952168,"name":"On or near Parking Area"},"longitude":"-0.270364"},"context":"","outcome_status":null,"persistent_id":"","id":74270074,"location_subtype":"","month":"2019-05"},{"category":"anti-social-behaviour","location_type":"Force","location":{"latitude":"51.494489","street":{"id":952266,"name":"On or near Colonial Drive"},"longitude":"-0.269663"},"context":"","outcome_status":null,"persistent_id":"","id":74270075,"location_subtype":"","month":"2019-05"},{"category":"anti-social-behaviour","location_type":"Force","location":{"latitude":"51.494489","street":{"id":952266,"name":"On or near Colonial Drive"},"longitude":"-0.269663"},"context":"","outcome_status":null,"persistent_id":"","id":74270076,"location_subtype":"","month":"2019-05"},{"category":"anti-social-behaviour","location_type":"Force","location":{"latitude":"51.494489","street":{"id":952266,"name":"On or near Colonial Drive"},"longitude":"-0.269663"},"context":"","outcome_status":null,"persistent_id":"","id":74270077,"location_subtype":"","month":"2019-05"},{"category":"anti-social-behaviour","location_type":"Force","location":{"latitude":"51.494489","street":{"id":952266,"name":"On or near Colonial Drive"},"longitude":"-0.269663"},"context":"","outcome_status":null,"persistent_id":"","id":74270078,"location_subtype":"","month":"2019-05"},{"category":"anti-social-behaviour","location_type":"Force","location":{"latitude":"51.502836","street":{"id":952242,"name":"On or near Brouncker Road"},"longitude":"-0.269851"},"context":"","outcome_status":null,"persistent_id":"","id":74270079,"location_subtype":"","month":"2019-05"},{"category":"anti-social-behaviour","location_type":"Force","location":{"latitude":"51.507147","street":{"id":952251,"name":"On or near Shopping Area"},"longitude":"-0.270106"},"context":"","outcome_status":null,"persistent_id":"","id":74270080,"location_subtype":"","month":"2019-05"},{"category":"anti-social-behaviour","location_type":"Force","location":{"latitude":"51.507147","street":{"id":952251,"name":"On or near Shopping Area"},"longitude":"-0.270106"},"context":"","outcome_status":null,"persistent_id":"","id":74270081,"location_subtype":"","month":"2019-05"},{"category":"anti-social-behaviour","location_type":"Force","location":{"latitude":"51.507147","street":{"id":952251,"name":"On or near Shopping Area"},"longitude":"-0.270106"},"context":"","outcome_status":null,"persistent_id":"","id":74270082,"location_subtype":"","month":"2019-05"},{"category":"anti-social-behaviour","location_type":"Force","location":{"latitude":"51.507147","street":{"id":952251,"name":"On or near Shopping Area"},"longitude":"-0.270106"},"context":"","outcome_status":null,"persistent_id":"","id":74270083,"location_subtype":"","month":"2019-05"},{"category":"anti-social-behaviour","location_type":"Force","location":{"latitude":"51.507147","street":{"id":952251,"name":"On or near Shopping Area"},"longitude":"-0.270106"},"context":"","outcome_status":null,"persistent_id":"","id":74270084,"location_subtype":"","month":"2019-05"},{"category":"anti-social-behaviour","location_type":"Force","location":{"latitude":"51.507147","street":{"id":952251,"name":"On or near Shopping Area"},"longitude":"-0.270106"},"context":"","outcome_status":null,"persistent_id":"","id":74270085,"location_subtype":"","month":"2019-05"},{"category":"anti-social-behaviour","location_type":"Force","location":{"latitude":"51.507147","street":{"id":952251,"name":"On or near Shopping Area"},"longitude":"-0.270106"},"context":"","outcome_status":null,"persistent_id":"","id":74270086,"location_subtype":"","month":"2019-05"},{"category":"anti-social-behaviour","location_type":"Force","location":{"latitude":"51.500317","street":{"id":952168,"name":"On or near Parking Area"},"longitude":"-0.270364"},"context":"","outcome_status":null,"persistent_id":"","id":74270087,"location_subtype":"","month":"2019-05"},{"category":"anti-social-behaviour","location_type":"Force","location":{"latitude":"51.500970","street":{"id":952203,"name":"On or near All Saints' Road"},"longitude":"-0.270152"},"context":"","outcome_status":null,"persistent_id":"","id":74270088,"location_subtype":"","month":"2019-05"},{"category":"anti-social-behaviour","location_type":"Force","location":{"latitude":"51.502836","street":{"id":952242,"name":"On or near Brouncker Road"},"longitude":"-0.269851"},"context":"","outcome_status":null,"persistent_id":"","id":74270089,"location_subtype":"","month":"2019-05"},{"category":"anti-social-behaviour","location_type":"Force","location":{"latitude":"51.500552","street":{"id":952179,"name":"On or near Palmerston Road"},"longitude":"-0.271047"},"context":"","outcome_status":null,"persistent_id":"","id":74270090,"location_subtype":"","month":"2019-05"},{"category":"anti-social-behaviour","location_type":"Force","location":{"latitude":"51.514857","street":{"id":957656,"name":"On or near Essex Road"},"longitude":"-0.270318"},"context":"","outcome_status":null,"persistent_id":"","id":74270092,"location_subtype":"","month":"2019-05"},{"category":"anti-social-behaviour","location_type":"Force","location":{"latitude":"51.514857","street":{"id":957656,"name":"On or near Essex Road"},"longitude":"-0.270318"},"context":"","outcome_status":null,"persistent_id":"","id":74270093,"location_subtype":"","month":"2019-05"},{"category":"anti-social-behaviour","location_type":"Force","location":{"latitude":"51.514857","street":{"id":957656,"name":"On or near Essex Road"},"longitude":"-0.270318"},"context":"","outcome_status":null,"persistent_id":"","id":74270094,"location_subtype":"","month":"2019-05"},{"category":"anti-social-behaviour","location_type":"Force","location":{"latitude":"51.509149","street":{"id":957759,"name":"On or near Derwentwater Road"},"longitude":"-0.270462"},"context":"","outcome_status":null,"persistent_id":"","id":74270095,"location_subtype":"","month":"2019-05"},{"category":"anti-social-behaviour","location_type":"Force","location":{"latitude":"51.502133","street":{"id":952211,"name":"On or near Strafford Road"},"longitude":"-0.270929"},"context":"","outcome_status":null,"persistent_id":"","id":74270096,"location_subtype":"","month":"2019-05"},{"category":"anti-social-behaviour","location_type":"Force","location":{"latitude":"51.507639","street":{"id":957752,"name":"On or near Market Place"},"longitude":"-0.271153"},"context":"","outcome_status":null,"persistent_id":"","id":74270097,"location_subtype":"","month":"2019-05"},{"category":"anti-social-behaviour","location_type":"Force","location":{"latitude":"51.504383","street":{"id":952217,"name":"On or near Park Road East"},"longitude":"-0.271694"},"context":"","outcome_status":null,"persistent_id":"","id":74270099,"location_subtype":"","month":"2019-05"},{"category":"anti-social-behaviour","location_type":"Force","location":{"latitude":"51.504383","street":{"id":952217,"name":"On or near Park Road East"},"longitude":"-0.271694"},"context":"","outcome_status":null,"persistent_id":"","id":74270100,"location_subtype":"","month":"2019-05"},{"category":"anti-social-behaviour","location_type":"Force","location":{"latitude":"51.504383","street":{"id":952217,"name":"On or near Park Road East"},"longitude":"-0.271694"},"context":"","outcome_status":null,"persistent_id":"","id":74270101,"location_subtype":"","month":"2019-05"},{"category":"anti-social-behaviour","location_type":"Force","location":{"latitude":"51.504383","street":{"id":952217,"name":"On or near Park Road East"},"longitude":"-0.271694"},"context":"","outcome_status":null,"persistent_id":"","id":74270102,"location_subtype":"","month":"2019-05"},{"category":"anti-social-behaviour","location_type":"Force","location":{"latitude":"51.504383","street":{"id":952217,"name":"On or near Park Road East"},"longitude":"-0.271694"},"context":"","outcome_status":null,"persistent_id":"","id":74270103,"location_subtype":"","month":"2019-05"},{"category":"anti-social-behaviour","location_type":"Force","location":{"latitude":"51.504383","street":{"id":952217,"name":"On or near Park Road East"},"longitude":"-0.271694"},"context":"","outcome_status":null,"persistent_id":"","id":74270104,"location_subtype":"","month":"2019-05"},{"category":"anti-social-behaviour","location_type":"Force","location":{"latitude":"51.504383","street":{"id":952217,"name":"On or near Park Road East"},"longitude":"-0.271694"},"context":"","outcome_status":null,"persistent_id":"","id":74270105,"location_subtype":"","month":"2019-05"},{"category":"anti-social-behaviour","location_type":"Force","location":{"latitude":"51.504383","street":{"id":952217,"name":"On or near Park Road East"},"longitude":"-0.271694"},"context":"","outcome_status":null,"persistent_id":"","id":74270106,"location_subtype":"","month":"2019-05"},{"category":"anti-social-behaviour","location_type":"Force","location":{"latitude":"51.507639","street":{"id":957752,"name":"On or near Market Place"},"longitude":"-0.271153"},"context":"","outcome_status":null,"persistent_id":"","id":74270107,"location_subtype":"","month":"2019-05"},{"category":"anti-social-behaviour","location_type":"Force","location":{"latitude":"51.507639","street":{"id":957752,"name":"On or near Market Place"},"longitude":"-0.271153"},"context":"","outcome_status":null,"persistent_id":"","id":74270108,"location_subtype":"","month":"2019-05"},{"category":"anti-social-behaviour","location_type":"Force","location":{"latitude":"51.508907","street":{"id":957747,"name":"On or near Rectory Road"},"longitude":"-0.272316"},"context":"","outcome_status":null,"persistent_id":"","id":74270109,"location_subtype":"","month":"2019-05"},{"category":"anti-social-behaviour","location_type":"Force","location":{"latitude":"51.514369","street":{"id":957648,"name":"On or near Hereford Road"},"longitude":"-0.271360"},"context":"","outcome_status":null,"persistent_id":"","id":74270110,"location_subtype":"","month":"2019-05"},{"category":"anti-social-behaviour","location_type":"Force","location":{"latitude":"51.503283","street":{"id":952220,"name":"On or near Newport Road"},"longitude":"-0.272111"},"context":"","outcome_status":null,"persistent_id":"","id":74270111,"location_subtype":"","month":"2019-05"},{"category":"anti-social-behaviour","location_type":"Force","location":{"latitude":"51.500333","street":{"id":952173,"name":"On or near Stanley Road"},"longitude":"-0.272078"},"context":"","outcome_status":null,"persistent_id":"","id":74270113,"location_subtype":"","month":"2019-05"},{"category":"anti-social-behaviour","location_type":"Force","location":{"latitude":"51.505324","street":{"id":952245,"name":"On or near Belgrave Close"},"longitude":"-0.272048"},"context":"","outcome_status":null,"persistent_id":"","id":74270114,"location_subtype":"","month":"2019-05"},{"category":"anti-social-behaviour","location_type":"Force","location":{"latitude":"51.504383","street":{"id":952217,"name":"On or near Park Road East"},"longitude":"-0.271694"},"context":"","outcome_status":null,"persistent_id":"","id":74270115,"location_subtype":"","month":"2019-05"},{"category":"anti-social-behaviour","location_type":"Force","location":{"latitude":"51.504383","street":{"id":952217,"name":"On or near Park Road East"},"longitude":"-0.271694"},"context":"","outcome_status":null,"persistent_id":"","id":74270116,"location_subtype":"","month":"2019-05"},{"category":"anti-social-behaviour","location_type":"Force","location":{"latitude":"51.501616","street":{"id":952198,"name":"On or near Bollo Bridge Road"},"longitude":"-0.271828"},"context":"","outcome_status":null,"persistent_id":"","id":74270119,"location_subtype":"","month":"2019-05"},{"category":"anti-social-behaviour","location_type":"Force","location":{"latitude":"51.501616","street":{"id":952198,"name":"On or near Bollo Bridge Road"},"longitude":"-0.271828"},"context":"","outcome_status":null,"persistent_id":"","id":74270120,"location_subtype":"","month":"2019-05"},{"category":"anti-social-behaviour","location_type":"Force","location":{"latitude":"51.501616","street":{"id":952198,"name":"On or near Bollo Bridge Road"},"longitude":"-0.271828"},"context":"","outcome_status":null,"persistent_id":"","id":74270121,"location_subtype":"","month":"2019-05"},{"category":"anti-social-behaviour","location_type":"Force","location":{"latitude":"51.501616","street":{"id":952198,"name":"On or near Bollo Bridge Road"},"longitude":"-0.271828"},"context":"","outcome_status":null,"persistent_id":"","id":74270122,"location_subtype":"","month":"2019-05"},{"category":"anti-social-behaviour","location_type":"Force","location":{"latitude":"51.501616","street":{"id":952198,"name":"On or near Bollo Bridge Road"},"longitude":"-0.271828"},"context":"","outcome_status":null,"persistent_id":"","id":74270123,"location_subtype":"","month":"2019-05"},{"category":"anti-social-behaviour","location_type":"Force","location":{"latitude":"51.501616","street":{"id":952198,"name":"On or near Bollo Bridge Road"},"longitude":"-0.271828"},"context":"","outcome_status":null,"persistent_id":"","id":74270124,"location_subtype":"","month":"2019-05"},{"category":"anti-social-behaviour","location_type":"Force","location":{"latitude":"51.507552","street":{"id":952231,"name":"On or near High Street"},"longitude":"-0.272554"},"context":"","outcome_status":null,"persistent_id":"","id":74270125,"location_subtype":"","month":"2019-05"},{"category":"anti-social-behaviour","location_type":"Force","location":{"latitude":"51.507552","street":{"id":952231,"name":"On or near High Street"},"longitude":"-0.272554"},"context":"","outcome_status":null,"persistent_id":"","id":74270126,"location_subtype":"","month":"2019-05"},{"category":"anti-social-behaviour","location_type":"Force","location":{"latitude":"51.503481","street":{"id":952241,"name":"On or near Castle Close"},"longitude":"-0.272708"},"context":"","outcome_status":null,"persistent_id":"","id":74270127,"location_subtype":"","month":"2019-05"},{"category":"anti-social-behaviour","location_type":"Force","location":{"latitude":"51.506226","street":{"id":952240,"name":"On or near Cheltenham Place"},"longitude":"-0.272230"},"context":"","outcome_status":null,"persistent_id":"","id":74270129,"location_subtype":"","month":"2019-05"},{"category":"anti-social-behaviour","location_type":"Force","location":{"latitude":"51.506226","street":{"id":952240,"name":"On or near Cheltenham Place"},"longitude":"-0.272230"},"context":"","outcome_status":null,"persistent_id":"","id":74270130,"location_subtype":"","month":"2019-05"},{"category":"anti-social-behaviour","location_type":"Force","location":{"latitude":"51.503481","street":{"id":952241,"name":"On or near Castle Close"},"longitude":"-0.272708"},"context":"","outcome_status":null,"persistent_id":"","id":74270131,"location_subtype":"","month":"2019-05"},{"category":"anti-social-behaviour","location_type":"Force","location":{"latitude":"51.504694","street":{"id":952230,"name":"On or near Hope Gardens"},"longitude":"-0.272662"},"context":"","outcome_status":null,"persistent_id":"","id":74270132,"location_subtype":"","month":"2019-05"},{"category":"anti-social-behaviour","location_type":"Force","location":{"latitude":"51.505549","street":{"id":952238,"name":"On or near Clandon Close"},"longitude":"-0.273279"},"context":"","outcome_status":null,"persistent_id":"","id":74270133,"location_subtype":"","month":"2019-05"},{"category":"anti-social-behaviour","location_type":"Force","location":{"latitude":"51.505549","street":{"id":952238,"name":"On or near Clandon Close"},"longitude":"-0.273279"},"context":"","outcome_status":null,"persistent_id":"","id":74270134,"location_subtype":"","month":"2019-05"},{"category":"anti-social-behaviour","location_type":"Force","location":{"latitude":"51.505549","street":{"id":952238,"name":"On or near Clandon Close"},"longitude":"-0.273279"},"context":"","outcome_status":null,"persistent_id":"","id":74270135,"location_subtype":"","month":"2019-05"},{"category":"anti-social-behaviour","location_type":"Force","location":{"latitude":"51.505342","street":{"id":952247,"name":"On or near Avenue Road"},"longitude":"-0.273286"},"context":"","outcome_status":null,"persistent_id":"","id":74270136,"location_subtype":"","month":"2019-05"},{"category":"anti-social-behaviour","location_type":"Force","location":{"latitude":"51.509288","street":{"id":957745,"name":"On or near Steyne Road"},"longitude":"-0.273152"},"context":"","outcome_status":null,"persistent_id":"","id":74270137,"location_subtype":"","month":"2019-05"},{"category":"anti-social-behaviour","location_type":"Force","location":{"latitude":"51.509288","street":{"id":957745,"name":"On or near Steyne Road"},"longitude":"-0.273152"},"context":"","outcome_status":null,"persistent_id":"","id":74270138,"location_subtype":"","month":"2019-05"},{"category":"anti-social-behaviour","location_type":"Force","location":{"latitude":"51.509288","street":{"id":957745,"name":"On or near Steyne Road"},"longitude":"-0.273152"},"context":"","outcome_status":null,"persistent_id":"","id":74270139,"location_subtype":"","month":"2019-05"},{"category":"anti-social-behaviour","location_type":"Force","location":{"latitude":"51.509288","street":{"id":957745,"name":"On or near Steyne Road"},"longitude":"-0.273152"},"context":"","outcome_status":null,"persistent_id":"","id":74270140,"location_subtype":"","month":"2019-05"},{"category":"anti-social-behaviour","location_type":"Force","location":{"latitude":"51.509288","street":{"id":957745,"name":"On or near Steyne Road"},"longitude":"-0.273152"},"context":"","outcome_status":null,"persistent_id":"","id":74270141,"location_subtype":"","month":"2019-05"},{"category":"anti-social-behaviour","location_type":"Force","location":{"latitude":"51.509288","street":{"id":957745,"name":"On or near Steyne Road"},"longitude":"-0.273152"},"context":"","outcome_status":null,"persistent_id":"","id":74270142,"location_subtype":"","month":"2019-05"},{"category":"anti-social-behaviour","location_type":"Force","location":{"latitude":"51.509288","street":{"id":957745,"name":"On or near Steyne Road"},"longitude":"-0.273152"},"context":"","outcome_status":null,"persistent_id":"","id":74270143,"location_subtype":"","month":"2019-05"},{"category":"anti-social-behaviour","location_type":"Force","location":{"latitude":"51.504570","street":{"id":952283,"name":"On or near Park Road North"},"longitude":"-0.273416"},"context":"","outcome_status":null,"persistent_id":"","id":74270303,"location_subtype":"","month":"2019-05"},{"category":"anti-social-behaviour","location_type":"Force","location":{"latitude":"51.504570","street":{"id":952283,"name":"On or near Park Road North"},"longitude":"-0.273416"},"context":"","outcome_status":null,"persistent_id":"","id":74270304,"location_subtype":"","month":"2019-05"},{"category":"anti-social-behaviour","location_type":"Force","location":{"latitude":"51.507121","street":{"id":952235,"name":"On or near Crown Street"},"longitude":"-0.273810"},"context":"","outcome_status":null,"persistent_id":"","id":74270305,"location_subtype":"","month":"2019-05"},{"category":"anti-social-behaviour","location_type":"Force","location":{"latitude":"51.510087","street":{"id":957845,"name":"On or near Lexden Road"},"longitude":"-0.274937"},"context":"","outcome_status":null,"persistent_id":"","id":74270306,"location_subtype":"","month":"2019-05"},{"category":"anti-social-behaviour","location_type":"Force","location":{"latitude":"51.505878","street":{"id":952229,"name":"On or near Langley Drive"},"longitude":"-0.274289"},"context":"","outcome_status":null,"persistent_id":"","id":74270308,"location_subtype":"","month":"2019-05"},{"category":"anti-social-behaviour","location_type":"Force","location":{"latitude":"51.505878","street":{"id":952229,"name":"On or near Langley Drive"},"longitude":"-0.274289"},"context":"","outcome_status":null,"persistent_id":"","id":74270309,"location_subtype":"","month":"2019-05"},{"category":"anti-social-behaviour","location_type":"Force","location":{"latitude":"51.504215","street":{"id":952064,"name":"On or near Avenue Gardens"},"longitude":"-0.274928"},"context":"","outcome_status":null,"persistent_id":"","id":74270310,"location_subtype":"","month":"2019-05"},{"category":"anti-social-behaviour","location_type":"Force","location":{"latitude":"51.504215","street":{"id":952064,"name":"On or near Avenue Gardens"},"longitude":"-0.274928"},"context":"","outcome_status":null,"persistent_id":"","id":74270311,"location_subtype":"","month":"2019-05"},{"category":"anti-social-behaviour","location_type":"Force","location":{"latitude":"51.508525","street":{"id":957844,"name":"On or near Steyne Road"},"longitude":"-0.274477"},"context":"","outcome_status":null,"persistent_id":"","id":74270315,"location_subtype":"","month":"2019-05"},{"category":"anti-social-behaviour","location_type":"Force","location":{"latitude":"51.508525","street":{"id":957844,"name":"On or near Steyne Road"},"longitude":"-0.274477"},"context":"","outcome_status":null,"persistent_id":"","id":74270316,"location_subtype":"","month":"2019-05"},{"category":"anti-social-behaviour","location_type":"Force","location":{"latitude":"51.508525","street":{"id":957844,"name":"On or near Steyne Road"},"longitude":"-0.274477"},"context":"","outcome_status":null,"persistent_id":"","id":74270317,"location_subtype":"","month":"2019-05"},{"category":"anti-social-behaviour","location_type":"Force","location":{"latitude":"51.508525","street":{"id":957844,"name":"On or near Steyne Road"},"longitude":"-0.274477"},"context":"","outcome_status":null,"persistent_id":"","id":74270318,"location_subtype":"","month":"2019-05"},{"category":"anti-social-behaviour","location_type":"Force","location":{"latitude":"51.500470","street":{"id":952054,"name":"On or near Roslin Road"},"longitude":"-0.275286"},"context":"","outcome_status":null,"persistent_id":"","id":74270319,"location_subtype":"","month":"2019-05"},{"category":"anti-social-behaviour","location_type":"Force","location":{"latitude":"51.501955","street":{"id":952057,"name":"On or near Osborne Road"},"longitude":"-0.275965"},"context":"","outcome_status":null,"persistent_id":"","id":74270322,"location_subtype":"","month":"2019-05"},{"category":"anti-social-behaviour","location_type":"Force","location":{"latitude":"51.501955","street":{"id":952057,"name":"On or near Osborne Road"},"longitude":"-0.275965"},"context":"","outcome_status":null,"persistent_id":"","id":74270323,"location_subtype":"","month":"2019-05"},{"category":"anti-social-behaviour","location_type":"Force","location":{"latitude":"51.501898","street":{"id":952061,"name":"On or near Hanbury Road"},"longitude":"-0.276341"},"context":"","outcome_status":null,"persistent_id":"","id":74270324,"location_subtype":"","month":"2019-05"},{"category":"anti-social-behaviour","location_type":"Force","location":{"latitude":"51.509785","street":{"id":957849,"name":"On or near Chatsworth Gardens"},"longitude":"-0.276375"},"context":"","outcome_status":null,"persistent_id":"","id":74270326,"location_subtype":"","month":"2019-05"},{"category":"anti-social-behaviour","location_type":"Force","location":{"latitude":"51.509785","street":{"id":957849,"name":"On or near Chatsworth Gardens"},"longitude":"-0.276375"},"context":"","outcome_status":null,"persistent_id":"","id":74270327,"location_subtype":"","month":"2019-05"},{"category":"anti-social-behaviour","location_type":"Force","location":{"latitude":"51.507691","street":{"id":957848,"name":"On or near Denehurst Gardens"},"longitude":"-0.277737"},"context":"","outcome_status":null,"persistent_id":"","id":74270329,"location_subtype":"","month":"2019-05"},{"category":"anti-social-behaviour","location_type":"Force","location":{"latitude":"51.507691","street":{"id":957848,"name":"On or near Denehurst Gardens"},"longitude":"-0.277737"},"context":"","outcome_status":null,"persistent_id":"","id":74270330,"location_subtype":"","month":"2019-05"},{"category":"anti-social-behaviour","location_type":"Force","location":{"latitude":"51.505727","street":{"id":952062,"name":"On or near Gunnersbury Lane"},"longitude":"-0.278675"},"context":"","outcome_status":null,"persistent_id":"","id":74270331,"location_subtype":"","month":"2019-05"},{"category":"anti-social-behaviour","location_type":"Force","location":{"latitude":"51.504229","street":{"id":952068,"name":"On or near Museum Way"},"longitude":"-0.280807"},"context":"","outcome_status":null,"persistent_id":"","id":74270343,"location_subtype":"","month":"2019-05"},{"category":"anti-social-behaviour","location_type":"Force","location":{"latitude":"51.502050","street":{"id":952067,"name":"On or near Princes Avenue"},"longitude":"-0.282445"},"context":"","outcome_status":null,"persistent_id":"","id":74270346,"location_subtype":"","month":"2019-05"},{"category":"anti-social-behaviour","location_type":"Force","location":{"latitude":"51.516765","street":{"id":957785,"name":"On or near Garage Road"},"longitude":"-0.284514"},"context":"","outcome_status":null,"persistent_id":"","id":74270348,"location_subtype":"","month":"2019-05"},{"category":"anti-social-behaviour","location_type":"Force","location":{"latitude":"51.516765","street":{"id":957785,"name":"On or near Garage Road"},"longitude":"-0.284514"},"context":"","outcome_status":null,"persistent_id":"","id":74270349,"location_subtype":"","month":"2019-05"},{"category":"anti-social-behaviour","location_type":"Force","location":{"latitude":"51.514144","street":{"id":957823,"name":"On or near Twyford Avenue"},"longitude":"-0.282365"},"context":"","outcome_status":null,"persistent_id":"","id":74270350,"location_subtype":"","month":"2019-05"},{"category":"anti-social-behaviour","location_type":"Force","location":{"latitude":"51.508403","street":{"id":957871,"name":"On or near Brook Close"},"longitude":"-0.283935"},"context":"","outcome_status":null,"persistent_id":"","id":74270351,"location_subtype":"","month":"2019-05"},{"category":"anti-social-behaviour","location_type":"Force","location":{"latitude":"51.508403","street":{"id":957871,"name":"On or near Brook Close"},"longitude":"-0.283935"},"context":"","outcome_status":null,"persistent_id":"","id":74270352,"location_subtype":"","month":"2019-05"},{"category":"anti-social-behaviour","location_type":"Force","location":{"latitude":"51.503785","street":{"id":952098,"name":"On or near Boddington Gardens"},"longitude":"-0.284224"},"context":"","outcome_status":null,"persistent_id":"","id":74270356,"location_subtype":"","month":"2019-05"},{"category":"anti-social-behaviour","location_type":"Force","location":{"latitude":"51.509654","street":{"id":957866,"name":"On or near Granville Gardens"},"longitude":"-0.287750"},"context":"","outcome_status":null,"persistent_id":"","id":74270359,"location_subtype":"","month":"2019-05"},{"category":"anti-social-behaviour","location_type":"Force","location":{"latitude":"51.509654","street":{"id":957866,"name":"On or near Granville Gardens"},"longitude":"-0.287750"},"context":"","outcome_status":null,"persistent_id":"","id":74270360,"location_subtype":"","month":"2019-05"},{"category":"bicycle-theft","location_type":"Force","location":{"latitude":"51.513636","street":{"id":957639,"name":"On or near Shalimar Gardens"},"longitude":"-0.271070"},"context":"","outcome_status":{"category":"Status update unavailable","date":"2019-09"},"persistent_id":"ec542072bf188f85e226bfa2760d02f85a9d9da37f957e0760e1b6c457ba389d","id":74302611,"location_subtype":"","month":"2019-05"},{"category":"bicycle-theft","location_type":"Force","location":{"latitude":"51.491486","street":{"id":950768,"name":"On or near Pedestrian Subway"},"longitude":"-0.291802"},"context":"","outcome_status":{"category":"Status update unavailable","date":"2019-09"},"persistent_id":"6b2b92afca74f03506eda4bf94f551572d2f7b8fab052e014ffa3856a89e02f5","id":74295453,"location_subtype":"","month":"2019-05"},{"category":"bicycle-theft","location_type":"Force","location":{"latitude":"51.502836","street":{"id":952242,"name":"On or near Brouncker Road"},"longitude":"-0.269851"},"context":"","outcome_status":{"category":"Status update unavailable","date":"2019-09"},"persistent_id":"b538d64e9db570793dca6116f5bdc5bcfe4174d5208318b0c10a15684e617a6f","id":74343942,"location_subtype":"","month":"2019-05"},{"category":"bicycle-theft","location_type":"Force","location":{"latitude":"51.508396","street":{"id":957764,"name":"On or near Burlington Mews"},"longitude":"-0.265764"},"context":"","outcome_status":{"category":"Status update unavailable","date":"2019-09"},"persistent_id":"2aeca832f6f30f8828cf33f639e0f6420ef579754ac70408a4e1991ba57ffc74","id":74295452,"location_subtype":"","month":"2019-05"},{"category":"bicycle-theft","location_type":"Force","location":{"latitude":"51.495018","street":{"id":952261,"name":"On or near Hardwicke Road"},"longitude":"-0.265321"},"context":"","outcome_status":{"category":"Status update unavailable","date":"2019-09"},"persistent_id":"3d8cdafa15680ce222855cf7df967094f0dd60661b705b7758fc8f11352528dc","id":74328430,"location_subtype":"","month":"2019-05"},{"category":"bicycle-theft","location_type":"Force","location":{"latitude":"51.505998","street":{"id":952212,"name":"On or near Salisbury Street"},"longitude":"-0.267152"},"context":"","outcome_status":{"category":"Status update unavailable","date":"2019-09"},"persistent_id":"50c45c5dc2d8fa072e6531724d5b3c8f7c36a76851b3ca92a5d107add22863f0","id":74370305,"location_subtype":"","month":"2019-05"},{"category":"bicycle-theft","location_type":"Force","location":{"latitude":"51.507639","street":{"id":957752,"name":"On or near Market Place"},"longitude":"-0.271153"},"context":"","outcome_status":{"category":"Status update unavailable","date":"2019-09"},"persistent_id":"a170a4d9e5ce24c41d6bab34ea5348190664fa4b6aaf6341716dec99df968bb6","id":74349915,"location_subtype":"","month":"2019-05"},{"category":"bicycle-theft","location_type":"Force","location":{"latitude":"51.496327","street":{"id":952280,"name":"On or near Petrol Station"},"longitude":"-0.263269"},"context":"","outcome_status":{"category":"Status update unavailable","date":"2019-09"},"persistent_id":"a622194cd9816829a94a0b765db5a6a5ff0f5e30e0cbe9eff2601283e2a1df89","id":74366582,"location_subtype":"","month":"2019-05"},{"category":"bicycle-theft","location_type":"BTP","location":{"latitude":"51.489700","street":{"id":1487978,"name":"Kew Bridge (station)"},"longitude":"-0.287791"},"context":"","outcome_status":{"category":"Status update unavailable","date":"2019-09"},"persistent_id":"","id":88718905,"location_subtype":"STATION","month":"2019-05"},{"category":"bicycle-theft","location_type":"Force","location":{"latitude":"51.490518","street":{"id":950784,"name":"On or near Chiswick High Road (north Circular Road)"},"longitude":"-0.284650"},"context":"","outcome_status":{"category":"Status update unavailable","date":"2019-09"},"persistent_id":"127ed2009dca0dc85bc501b93b9d6c4b0c7b8c070a8ca1762390ff6391bb49c6","id":74306252,"location_subtype":"","month":"2019-05"},{"category":"bicycle-theft","location_type":"Force","location":{"latitude":"51.506631","street":{"id":952234,"name":"On or near Edgecote Close"},"longitude":"-0.272287"},"context":"","outcome_status":{"category":"Status update unavailable","date":"2019-09"},"persistent_id":"e5c0fac8a522c3d95cde8b107e802670809095591bb604f1ce200d2115bde1e5","id":74313422,"location_subtype":"","month":"2019-05"},{"category":"bicycle-theft","location_type":"Force","location":{"latitude":"51.514899","street":{"id":957667,"name":"On or near Petrol Station"},"longitude":"-0.268255"},"context":"","outcome_status":{"category":"Status update unavailable","date":"2019-09"},"persistent_id":"20e464c393832d561c83726e073ec667360c3cbf731eedf723552221996005d5","id":74296498,"location_subtype":"","month":"2019-05"},{"category":"bicycle-theft","location_type":"Force","location":{"latitude":"51.495495","street":{"id":952252,"name":"On or near Park\/open Space"},"longitude":"-0.274508"},"context":"","outcome_status":{"category":"Status update unavailable","date":"2019-09"},"persistent_id":"a6d2ec7fd03ba51c4aed473da64896058156c82aae8a44d6d80d03ca3da7b379","id":74305535,"location_subtype":"","month":"2019-05"},{"category":"bicycle-theft","location_type":"Force","location":{"latitude":"51.501695","street":{"id":952159,"name":"On or near Brookfield Road"},"longitude":"-0.258987"},"context":"","outcome_status":{"category":"Status update unavailable","date":"2019-09"},"persistent_id":"9cec6fb76a3285f6a648248820a8d0a6b4bbf90129086aac623a8e02f54c2d80","id":74336200,"location_subtype":"","month":"2019-05"},{"category":"burglary","location_type":"Force","location":{"latitude":"51.512148","street":{"id":957790,"name":"On or near Creffield Road"},"longitude":"-0.289761"},"context":"","outcome_status":{"category":"Status update unavailable","date":"2019-09"},"persistent_id":"0dfa15e53a104f4e64070b744dec53453d7d8423745003483a47252433ed2bef","id":74294092,"location_subtype":"","month":"2019-05"},{"category":"burglary","location_type":"Force","location":{"latitude":"51.502861","street":{"id":952072,"name":"On or near Gunnersbury Crescent"},"longitude":"-0.282515"},"context":"","outcome_status":{"category":"Status update unavailable","date":"2019-09"},"persistent_id":"e53d8afd4fd42b572378562538465d86917087f93da5b6fe390933f7b4b875d3","id":74368739,"location_subtype":"","month":"2019-05"},{"category":"burglary","location_type":"Force","location":{"latitude":"51.505659","street":{"id":952243,"name":"On or near Birkbeck Grove"},"longitude":"-0.263116"},"context":"","outcome_status":{"category":"Status update unavailable","date":"2019-09"},"persistent_id":"585d51600ab18a548c25971bb3bf19fd5c22764319309953b1a490bea7f53bee","id":74306578,"location_subtype":"","month":"2019-05"},{"category":"burglary","location_type":"Force","location":{"latitude":"51.502404","street":{"id":952063,"name":"On or near Enfield Road"},"longitude":"-0.277763"},"context":"","outcome_status":{"category":"Status update unavailable","date":"2019-09"},"persistent_id":"f9d30a8fdc021a3fa669b6022e0596c52bcd489b774a20570fcf0438579e35a4","id":74372173,"location_subtype":"","month":"2019-05"},{"category":"burglary","location_type":"Force","location":{"latitude":"51.512936","street":{"id":957781,"name":"On or near Inglis Road"},"longitude":"-0.288953"},"context":"","outcome_status":{"category":"Court result unavailable","date":"2019-11"},"persistent_id":"fb09a77f48182a216135282653783567463d68efa8ba103707fe61c297e2fa4d","id":74302767,"location_subtype":"","month":"2019-05"},{"category":"burglary","location_type":"Force","location":{"latitude":"51.507639","street":{"id":957752,"name":"On or near Market Place"},"longitude":"-0.271153"},"context":"","outcome_status":{"category":"Status update unavailable","date":"2019-09"},"persistent_id":"c8dd742d475f5fb2831049c6dee85b5324262a98ae1c18fff4da67887391a661","id":74350824,"location_subtype":"","month":"2019-05"},{"category":"burglary","location_type":"Force","location":{"latitude":"51.508512","street":{"id":957987,"name":"On or near Kenilworth Road"},"longitude":"-0.300056"},"context":"","outcome_status":{"category":"Court result unavailable","date":"2019-12"},"persistent_id":"5de860c02ebfd631fb659c0fecc5db0a2551e2ef595a5d02865c6ad6c9c5d6a3","id":74328254,"location_subtype":"","month":"2019-05"},{"category":"burglary","location_type":"Force","location":{"latitude":"51.503256","street":{"id":952228,"name":"On or near Leythe Road"},"longitude":"-0.267789"},"context":"","outcome_status":{"category":"Status update unavailable","date":"2019-09"},"persistent_id":"710349c560caeeb7b989c6ef8eaec9c05148c0d51757934c63d5dfb2804d494b","id":74342729,"location_subtype":"","month":"2019-05"},{"category":"burglary","location_type":"Force","location":{"latitude":"51.515406","street":{"id":957774,"name":"On or near Waldegrave Road"},"longitude":"-0.290575"},"context":"","outcome_status":{"category":"Status update unavailable","date":"2019-09"},"persistent_id":"c777172fb82caf1566747177af2e878557978d75e82500407e9890524a843634","id":74329040,"location_subtype":"","month":"2019-05"},{"category":"burglary","location_type":"Force","location":{"latitude":"51.497917","street":{"id":952114,"name":"On or near Wadhurst Road"},"longitude":"-0.262546"},"context":"","outcome_status":{"category":"Status update unavailable","date":"2019-09"},"persistent_id":"00cf7b9a96d762543f94948198788e789fdf8495ba19ea6a4237207d161a3a59","id":74348976,"location_subtype":"","month":"2019-05"},{"category":"burglary","location_type":"Force","location":{"latitude":"51.497800","street":{"id":952188,"name":"On or near Gladstone Road"},"longitude":"-0.264942"},"context":"","outcome_status":{"category":"Status update unavailable","date":"2019-09"},"persistent_id":"89113253c4c450a2b9e409488ffeead58b62e6d168989cbc482bb8e4cf564c72","id":74328196,"location_subtype":"","month":"2019-05"},{"category":"burglary","location_type":"Force","location":{"latitude":"51.506921","street":{"id":952232,"name":"On or near High Street"},"longitude":"-0.269999"},"context":"","outcome_status":{"category":"Status update unavailable","date":"2019-09"},"persistent_id":"2206df406b13636e0cc60047ef0075a1fdc5c281e0ca557cc95fd7455f017b9d","id":74327578,"location_subtype":"","month":"2019-05"},{"category":"burglary","location_type":"Force","location":{"latitude":"51.513446","street":{"id":957664,"name":"On or near Baldwyn Gardens"},"longitude":"-0.264866"},"context":"","outcome_status":{"category":"Status update unavailable","date":"2019-09"},"persistent_id":"2844b6500756fbcaee91aa9b5fc5dd3aa03881fbac4482820df7041b60355067","id":74337990,"location_subtype":"","month":"2019-05"},{"category":"burglary","location_type":"Force","location":{"latitude":"51.507823","street":{"id":957754,"name":"On or near Hooper's Mews"},"longitude":"-0.270786"},"context":"","outcome_status":{"category":"Status update unavailable","date":"2019-09"},"persistent_id":"6dcd259235b4fa9ef331c848bc39a0da913791934aa08e278843e712c3732d1e","id":74338057,"location_subtype":"","month":"2019-05"},{"category":"burglary","location_type":"Force","location":{"latitude":"51.508403","street":{"id":957871,"name":"On or near Brook Close"},"longitude":"-0.283935"},"context":"","outcome_status":{"category":"Status update unavailable","date":"2019-09"},"persistent_id":"c206a6eee95dae91b888692d8a26ae9f9325c7b73d8755f8047e5e0ea3b0718f","id":74338149,"location_subtype":"","month":"2019-05"},{"category":"burglary","location_type":"Force","location":{"latitude":"51.505727","street":{"id":952062,"name":"On or near Gunnersbury Lane"},"longitude":"-0.278675"},"context":"","outcome_status":{"category":"Status update unavailable","date":"2019-09"},"persistent_id":"016e61902810d688026a093fbd7bf8ca25d024e74625e6f338e5647553c5ff5e","id":74338207,"location_subtype":"","month":"2019-05"},{"category":"burglary","location_type":"Force","location":{"latitude":"51.508130","street":{"id":957865,"name":"On or near Hart Grove"},"longitude":"-0.284968"},"context":"","outcome_status":{"category":"Status update unavailable","date":"2019-09"},"persistent_id":"da06ce749f4c6a00d08d4ecc7ad88a993cd00fc0bb8b6215f21ad1fec02f9b13","id":74343212,"location_subtype":"","month":"2019-05"},{"category":"burglary","location_type":"Force","location":{"latitude":"51.499977","street":{"id":952076,"name":"On or near Parking Area"},"longitude":"-0.285764"},"context":"","outcome_status":{"category":"Status update unavailable","date":"2019-09"},"persistent_id":"2e2151b68b07fe8e8c8727910ed0f12963f5e00ed525aab7340d267f67626da9","id":74339708,"location_subtype":"","month":"2019-05"},{"category":"burglary","location_type":"Force","location":{"latitude":"51.501598","street":{"id":952077,"name":"On or near Pope's Lane"},"longitude":"-0.292749"},"context":"","outcome_status":{"category":"Status update unavailable","date":"2019-09"},"persistent_id":"3d534745693bfc1a83f6d1fdc4be749097a9a009646988d3080ce86dce4403b9","id":74326917,"location_subtype":"","month":"2019-05"},{"category":"burglary","location_type":"Force","location":{"latitude":"51.507516","street":{"id":952056,"name":"On or near Willcott Road"},"longitude":"-0.278622"},"context":"","outcome_status":{"category":"Status update unavailable","date":"2019-09"},"persistent_id":"afa6549ded811fcf195d0acfba341395e60303ffdf263f7d0d01625b9f734cc2","id":74364074,"location_subtype":"","month":"2019-05"},{"category":"burglary","location_type":"Force","location":{"latitude":"51.489682","street":{"id":950656,"name":"On or near Grosvenor Road"},"longitude":"-0.272394"},"context":"","outcome_status":{"category":"Status update unavailable","date":"2019-09"},"persistent_id":"cc8838ce25c996c61d6688c06509b8c13bffb80a4e33dd52354e3ef0a8b73180","id":74332751,"location_subtype":"","month":"2019-05"},{"category":"burglary","location_type":"Force","location":{"latitude":"51.501741","street":{"id":951906,"name":"On or near Palm Grove"},"longitude":"-0.300726"},"context":"","outcome_status":{"category":"Status update unavailable","date":"2019-09"},"persistent_id":"69269dc9b20dd6712ceb6126ce1ca66ee743d688ac253600f4854691183623b5","id":74364873,"location_subtype":"","month":"2019-05"},{"category":"burglary","location_type":"Force","location":{"latitude":"51.502922","street":{"id":952145,"name":"On or near Rugby Road"},"longitude":"-0.257442"},"context":"","outcome_status":{"category":"Status update unavailable","date":"2019-09"},"persistent_id":"6253e1ee0079e4b1588b579ea07a5f1022f03ec201795a71319c62754366c067","id":74365027,"location_subtype":"","month":"2019-05"},{"category":"burglary","location_type":"Force","location":{"latitude":"51.493302","street":{"id":950685,"name":"On or near Acton Lane"},"longitude":"-0.267273"},"context":"","outcome_status":{"category":"Status update unavailable","date":"2019-09"},"persistent_id":"f8c8ba5bb8a136bcb9b5e4881c4ac4301ef8c3e98ed4ee14c13772053c1d6fae","id":74306717,"location_subtype":"","month":"2019-05"},{"category":"burglary","location_type":"Force","location":{"latitude":"51.511250","street":{"id":957935,"name":"On or near The Grove"},"longitude":"-0.297893"},"context":"","outcome_status":{"category":"Status update unavailable","date":"2019-09"},"persistent_id":"8e371c7c2f816a570e8fb8038a165f55df16dc6cf8bb62e95436f8900277b5f3","id":74365672,"location_subtype":"","month":"2019-05"},{"category":"burglary","location_type":"Force","location":{"latitude":"51.505781","street":{"id":951926,"name":"On or near Richmond Road"},"longitude":"-0.300244"},"context":"","outcome_status":{"category":"Status update unavailable","date":"2019-09"},"persistent_id":"890c653cbc804e18eecc0d11a768d9e0f94e2af933f7ff01dec562e92bb16c02","id":74341787,"location_subtype":"","month":"2019-05"},{"category":"burglary","location_type":"Force","location":{"latitude":"51.502922","street":{"id":952145,"name":"On or near Rugby Road"},"longitude":"-0.257442"},"context":"","outcome_status":{"category":"Status update unavailable","date":"2019-09"},"persistent_id":"8ccca3d2426433f351147203b2ecd8bd4edfbb194acb2b8d66dac18ef30f8c50","id":74365789,"location_subtype":"","month":"2019-05"},{"category":"burglary","location_type":"Force","location":{"latitude":"51.504215","street":{"id":952064,"name":"On or near Avenue Gardens"},"longitude":"-0.274928"},"context":"","outcome_status":{"category":"Status update unavailable","date":"2019-09"},"persistent_id":"b5949cc5548938b352b166ba42a3b09131bc32ff012bc97d33347a0b60d4fff7","id":74310399,"location_subtype":"","month":"2019-05"},{"category":"burglary","location_type":"Force","location":{"latitude":"51.492796","street":{"id":950665,"name":"On or near Essex Place Square"},"longitude":"-0.264642"},"context":"","outcome_status":{"category":"Status update unavailable","date":"2019-09"},"persistent_id":"c7c98ce29eba21f009473a8a178e5c33c25e4e5a1fc1370334bbb4c6b82b7d12","id":74309965,"location_subtype":"","month":"2019-05"},{"category":"burglary","location_type":"Force","location":{"latitude":"51.507912","street":{"id":957765,"name":"On or near Burlington Gardens"},"longitude":"-0.265235"},"context":"","outcome_status":{"category":"Status update unavailable","date":"2019-09"},"persistent_id":"cee31f8f5c2535167ddb3628e30c25b695f365d71e4af811b413e1f0a038a5f9","id":74323240,"location_subtype":"","month":"2019-05"},{"category":"burglary","location_type":"Force","location":{"latitude":"51.514321","street":{"id":957791,"name":"On or near Bloomsbury Close"},"longitude":"-0.286509"},"context":"","outcome_status":{"category":"Status update unavailable","date":"2019-09"},"persistent_id":"024df7a154f51e0a7123fd9303f65ca6ea9729804445214d3bf5b1f0838eef07","id":74290079,"location_subtype":"","month":"2019-05"},{"category":"burglary","location_type":"Force","location":{"latitude":"51.515406","street":{"id":957774,"name":"On or near Waldegrave Road"},"longitude":"-0.290575"},"context":"","outcome_status":{"category":"Status update unavailable","date":"2019-09"},"persistent_id":"645a5bd89d02f13a3fcc8750014b34df6b21d07cd6a0cc230f8f04ecbfbedff9","id":74290081,"location_subtype":"","month":"2019-05"},{"category":"burglary","location_type":"Force","location":{"latitude":"51.505785","street":{"id":952249,"name":"On or near Acton Lane"},"longitude":"-0.266166"},"context":"","outcome_status":{"category":"Status update unavailable","date":"2019-09"},"persistent_id":"8b76f91f92292f7cb61eab5fe13d8e463e12c651d9e27046035b928fc7838d01","id":74300204,"location_subtype":"","month":"2019-05"},{"category":"burglary","location_type":"Force","location":{"latitude":"51.490556","street":{"id":950640,"name":"On or near Sutton Lane North"},"longitude":"-0.269452"},"context":"","outcome_status":{"category":"Status update unavailable","date":"2019-09"},"persistent_id":"2b06992bc35aa218ebca777cc1ccb97ef3aa19dd46e3d009cada0d27a807d193","id":74353487,"location_subtype":"","month":"2019-05"},{"category":"burglary","location_type":"Force","location":{"latitude":"51.514857","street":{"id":957656,"name":"On or near Essex Road"},"longitude":"-0.270318"},"context":"","outcome_status":{"category":"Status update unavailable","date":"2019-09"},"persistent_id":"d249cf2b1fc7f753127fa0f60974aa3306f09dfb9a477a822878eea74bf9b100","id":74295061,"location_subtype":"","month":"2019-05"},{"category":"burglary","location_type":"Force","location":{"latitude":"51.512340","street":{"id":957789,"name":"On or near Daniel Road"},"longitude":"-0.286886"},"context":"","outcome_status":{"category":"Status update unavailable","date":"2019-09"},"persistent_id":"69eaf0c22e44a4befc19d88518d3d85a84152517fc849e7029b1d691e16e8a35","id":74303343,"location_subtype":"","month":"2019-05"},{"category":"burglary","location_type":"Force","location":{"latitude":"51.507691","street":{"id":957848,"name":"On or near Denehurst Gardens"},"longitude":"-0.277737"},"context":"","outcome_status":{"category":"Status update unavailable","date":"2019-09"},"persistent_id":"fa59b804b68b4542a57e6d4d7de539621a2f32b9e5f72383c1e1c79b5b1173d6","id":74294988,"location_subtype":"","month":"2019-05"},{"category":"burglary","location_type":"Force","location":{"latitude":"51.513721","street":{"id":957783,"name":"On or near Hamilton Court"},"longitude":"-0.292800"},"context":"","outcome_status":{"category":"Status update unavailable","date":"2019-09"},"persistent_id":"740dd47e707fda0f140385b6a1b3b461c563e87250cfc4290937c110d5d6aae4","id":74294906,"location_subtype":"","month":"2019-05"},{"category":"burglary","location_type":"Force","location":{"latitude":"51.514246","street":{"id":957814,"name":"On or near Mayfield Road"},"longitude":"-0.277677"},"context":"","outcome_status":{"category":"Status update unavailable","date":"2019-09"},"persistent_id":"c8baaa3b03a9ad30b25466b0390a8f7c5710519b59d1fc1a0f02a97423868024","id":74294219,"location_subtype":"","month":"2019-05"},{"category":"burglary","location_type":"Force","location":{"latitude":"51.512148","street":{"id":957790,"name":"On or near Creffield Road"},"longitude":"-0.289761"},"context":"","outcome_status":{"category":"Status update unavailable","date":"2019-09"},"persistent_id":"0dfa15e53a104f4e64070b744dec53453d7d8423745003483a47252433ed2bef","id":74294093,"location_subtype":"","month":"2019-05"},{"category":"burglary","location_type":"Force","location":{"latitude":"51.512148","street":{"id":957790,"name":"On or near Creffield Road"},"longitude":"-0.289761"},"context":"","outcome_status":{"category":"Status update unavailable","date":"2019-09"},"persistent_id":"bd4659c1c55b334c8df6fd9af6d2626544331ec1cc865d2576367a948103fa98","id":74368714,"location_subtype":"","month":"2019-05"},{"category":"criminal-damage-arson","location_type":"Force","location":{"latitude":"51.493302","street":{"id":950685,"name":"On or near Acton Lane"},"longitude":"-0.267273"},"context":"","outcome_status":{"category":"Status update unavailable","date":"2019-09"},"persistent_id":"7ac1239e05c671b0f0f955a8d836e670234972ddeb46117d73506dc40225cff2","id":74336804,"location_subtype":"","month":"2019-05"},{"category":"criminal-damage-arson","location_type":"Force","location":{"latitude":"51.513441","street":{"id":957640,"name":"On or near Pierrepoint Road"},"longitude":"-0.273701"},"context":"","outcome_status":{"category":"Status update unavailable","date":"2019-09"},"persistent_id":"eb45a5b1e511db7bbd19b7f7eb7badc0e18bbbef839399dba7ee742069b1843b","id":74292674,"location_subtype":"","month":"2019-05"},{"category":"criminal-damage-arson","location_type":"Force","location":{"latitude":"51.502216","street":{"id":952139,"name":"On or near Strauss Road"},"longitude":"-0.260711"},"context":"","outcome_status":{"category":"Investigation complete; no suspect identified","date":"2020-06"},"persistent_id":"da83a609c146d61e6016e3471495faabe79f0d384727eb9db5be0474b0fe3f49","id":74303634,"location_subtype":"","month":"2019-05"},{"category":"criminal-damage-arson","location_type":"Force","location":{"latitude":"51.510608","street":{"id":957870,"name":"On or near Byron Road"},"longitude":"-0.286561"},"context":"","outcome_status":{"category":"Status update unavailable","date":"2019-09"},"persistent_id":"aec56e76d1c0f468396413c64f562a9e1e9e19283dc64565c14d76503a72b9f0","id":74298964,"location_subtype":"","month":"2019-05"},{"category":"criminal-damage-arson","location_type":"Force","location":{"latitude":"51.507691","street":{"id":957848,"name":"On or near Denehurst Gardens"},"longitude":"-0.277737"},"context":"","outcome_status":{"category":"Status update unavailable","date":"2019-09"},"persistent_id":"1644ab04cd6ccc7baff12171934c87882a43baa84092b1d7fd6ff476a7825491","id":74325305,"location_subtype":"","month":"2019-05"},{"category":"criminal-damage-arson","location_type":"Force","location":{"latitude":"51.495018","street":{"id":952261,"name":"On or near Hardwicke Road"},"longitude":"-0.265321"},"context":"","outcome_status":{"category":"Local resolution","date":"2020-05"},"persistent_id":"013edbaf9b1effb1ddf4e6d5f54b8b98565dcccb9e61b028954c29afd8b0daed","id":74324982,"location_subtype":"","month":"2019-05"},{"category":"criminal-damage-arson","location_type":"Force","location":{"latitude":"51.507312","street":{"id":952222,"name":"On or near Mount Place"},"longitude":"-0.272722"},"context":"","outcome_status":{"category":"Status update unavailable","date":"2019-09"},"persistent_id":"553cad6e721f6b5d502adb66bbe5a4ee6d51b2b8aa3076e6cd5d4258712b1ede","id":74322801,"location_subtype":"","month":"2019-05"},{"category":"criminal-damage-arson","location_type":"Force","location":{"latitude":"51.492032","street":{"id":950822,"name":"On or near Gunnersbury Mews"},"longitude":"-0.275676"},"context":"","outcome_status":{"category":"Status update unavailable","date":"2019-09"},"persistent_id":"5528a979f0e5213a3073ba66636f2e574c111d7dab1d482ac37c7a91a9a033a5","id":74322758,"location_subtype":"","month":"2019-05"},{"category":"criminal-damage-arson","location_type":"Force","location":{"latitude":"51.514857","street":{"id":957656,"name":"On or near Essex Road"},"longitude":"-0.270318"},"context":"","outcome_status":{"category":"Status update unavailable","date":"2019-09"},"persistent_id":"5d7c3029cfc72e49dc3108eaa5f4aeb7156ebb8d21c31aacdd0d25e090319d09","id":74347854,"location_subtype":"","month":"2019-05"},{"category":"criminal-damage-arson","location_type":"Force","location":{"latitude":"51.508348","street":{"id":957847,"name":"On or near High Street"},"longitude":"-0.275305"},"context":"","outcome_status":{"category":"Status update unavailable","date":"2019-09"},"persistent_id":"56ac6c378e767b593448e2fb5cdbfc6fed303172d2ceaa95a3abb8e1d20edf5f","id":74360190,"location_subtype":"","month":"2019-05"},{"category":"criminal-damage-arson","location_type":"Force","location":{"latitude":"51.489132","street":{"id":950808,"name":"On or near Brooks Road"},"longitude":"-0.280827"},"context":"","outcome_status":{"category":"Status update unavailable","date":"2019-09"},"persistent_id":"32918a6c645b9453dfd0e1fc889e5dce35f46bb22f7f6eebaabc091cf1590200","id":74327548,"location_subtype":"","month":"2019-05"},{"category":"criminal-damage-arson","location_type":"Force","location":{"latitude":"51.510087","street":{"id":957845,"name":"On or near Lexden Road"},"longitude":"-0.274937"},"context":"","outcome_status":{"category":"Status update unavailable","date":"2019-09"},"persistent_id":"b639b6354bc97c5c10f8e1b6dcb32b87a59047b31dcbb89afbd242036560a8c2","id":74348172,"location_subtype":"","month":"2019-05"},{"category":"criminal-damage-arson","location_type":"Force","location":{"latitude":"51.508396","street":{"id":957764,"name":"On or near Burlington Mews"},"longitude":"-0.265764"},"context":"","outcome_status":{"category":"Status update unavailable","date":"2019-09"},"persistent_id":"245ca9e0e41e07f5b75c6b3b6bf4bddc0b30d15e74952d8a659d83c79abe20dd","id":74343805,"location_subtype":"","month":"2019-05"},{"category":"criminal-damage-arson","location_type":"Force","location":{"latitude":"51.509148","street":{"id":957989,"name":"On or near Grange Park"},"longitude":"-0.297410"},"context":"","outcome_status":{"category":"Status update unavailable","date":"2019-09"},"persistent_id":"ffa37edfbfe2811e7b7ed8bdcb212dd7ec237fad94ef4e62c5b73c30e16eb9cb","id":74291409,"location_subtype":"","month":"2019-05"},{"category":"criminal-damage-arson","location_type":"Force","location":{"latitude":"51.501863","street":{"id":952214,"name":"On or near Ramsay Road"},"longitude":"-0.267899"},"context":"","outcome_status":{"category":"Status update unavailable","date":"2019-09"},"persistent_id":"4860e547407dc3aab89ec914623a9a9562a615794149dd977150657a5f97471d","id":74368241,"location_subtype":"","month":"2019-05"},{"category":"criminal-damage-arson","location_type":"Force","location":{"latitude":"51.505781","street":{"id":951926,"name":"On or near Richmond Road"},"longitude":"-0.300244"},"context":"","outcome_status":{"category":"Court result unavailable","date":"2019-11"},"persistent_id":"6acf3d548ef03573105eb1c5588bac6d761fdf9e6b4e681ccfd93deab4673525","id":74345928,"location_subtype":"","month":"2019-05"},{"category":"criminal-damage-arson","location_type":"Force","location":{"latitude":"51.510584","street":{"id":957982,"name":"On or near The Common"},"longitude":"-0.296002"},"context":"","outcome_status":{"category":"Status update unavailable","date":"2019-09"},"persistent_id":"9ccb06e8db3b8c7fec596323f8abc097987ba1230c326e2235cbc7b275bc345e","id":74369931,"location_subtype":"","month":"2019-05"},{"category":"criminal-damage-arson","location_type":"Force","location":{"latitude":"51.510574","street":{"id":957868,"name":"On or near Fordhook Avenue"},"longitude":"-0.285453"},"context":"","outcome_status":{"category":"Status update unavailable","date":"2019-09"},"persistent_id":"4dc435218d48a5d4ff2c286461f0779a819d907c19a9406ed6209b7800187cfc","id":74308987,"location_subtype":"","month":"2019-05"},{"category":"criminal-damage-arson","location_type":"Force","location":{"latitude":"51.501623","street":{"id":952080,"name":"On or near Gunnersbury Avenue (north Circular Road)"},"longitude":"-0.285847"},"context":"","outcome_status":{"category":"Status update unavailable","date":"2019-09"},"persistent_id":"516c83b146834f4139f8e65494aa409dffacd61f89d095b70c5b90904ab314a2","id":74301329,"location_subtype":"","month":"2019-05"},{"category":"criminal-damage-arson","location_type":"Force","location":{"latitude":"51.488975","street":{"id":950816,"name":"On or near Oxford Road South"},"longitude":"-0.279378"},"context":"","outcome_status":{"category":"Court result unavailable","date":"2019-11"},"persistent_id":"40aa06ebcdebc729679a1507b648281c76a8740db6b980bb4c77c3afd86a7318","id":74333815,"location_subtype":"","month":"2019-05"},{"category":"criminal-damage-arson","location_type":"Force","location":{"latitude":"51.502802","street":{"id":952084,"name":"On or near Tudor Way"},"longitude":"-0.286494"},"context":"","outcome_status":{"category":"Status update unavailable","date":"2019-09"},"persistent_id":"57aa572e875bd6d015c9c7dfe3b4c6db177ecdc7ef7aa0d8de930443b4e1ebe0","id":74368428,"location_subtype":"","month":"2019-05"},{"category":"criminal-damage-arson","location_type":"Force","location":{"latitude":"51.497372","street":{"id":952270,"name":"On or near Antrobus Road"},"longitude":"-0.267594"},"context":"","outcome_status":{"category":"Status update unavailable","date":"2019-09"},"persistent_id":"609eeb94cf7f8bd94848c2dbdc76cbb94dee08c16db6aa55c782644e4a31a1a6","id":74349012,"location_subtype":"","month":"2019-05"},{"category":"criminal-damage-arson","location_type":"Force","location":{"latitude":"51.514144","street":{"id":957823,"name":"On or near Twyford Avenue"},"longitude":"-0.282365"},"context":"","outcome_status":{"category":"Status update unavailable","date":"2019-09"},"persistent_id":"2af6aab9ffd56390dfcab42b2847670eae96408a91e2c1e37cf2067be72fe188","id":74342322,"location_subtype":"","month":"2019-05"},{"category":"criminal-damage-arson","location_type":"Force","location":{"latitude":"51.508646","street":{"id":957852,"name":"On or near Police Station"},"longitude":"-0.274804"},"context":"","outcome_status":{"category":"Status update unavailable","date":"2019-09"},"persistent_id":"8552acd9b81b5e843581f34b71ea524503402666be8300a1525a150fb15f4e93","id":74370779,"location_subtype":"","month":"2019-05"},{"category":"criminal-damage-arson","location_type":"Force","location":{"latitude":"51.509785","street":{"id":957849,"name":"On or near Chatsworth Gardens"},"longitude":"-0.276375"},"context":"","outcome_status":{"category":"Status update unavailable","date":"2019-09"},"persistent_id":"ab3bd523694f25106634331630700d12a3906265cb92b42955fe9edd0bda1f92","id":74321782,"location_subtype":"","month":"2019-05"},{"category":"criminal-damage-arson","location_type":"Force","location":{"latitude":"51.507312","street":{"id":952222,"name":"On or near Mount Place"},"longitude":"-0.272722"},"context":"","outcome_status":{"category":"Status update unavailable","date":"2019-09"},"persistent_id":"c9a45bc0f90bcb742394495889e772efe31c13dea2bc65a6d00e22f5af07c90a","id":74326415,"location_subtype":"","month":"2019-05"},{"category":"criminal-damage-arson","location_type":"Force","location":{"latitude":"51.495790","street":{"id":952107,"name":"On or near Manor Gardens"},"longitude":"-0.281744"},"context":"","outcome_status":{"category":"Status update unavailable","date":"2019-09"},"persistent_id":"9a3a88eb64176b3f770c1d086da8377be13059cd8b9d57fce2ab9065d38a8484","id":74305883,"location_subtype":"","month":"2019-05"},{"category":"criminal-damage-arson","location_type":"BTP","location":{"latitude":"51.502800","street":{"id":1489120,"name":"Acton Town (lu Station)"},"longitude":"-0.280208"},"context":"","outcome_status":{"category":"Status update unavailable","date":"2019-09"},"persistent_id":"","id":88718686,"location_subtype":"LU STATION","month":"2019-05"},{"category":"criminal-damage-arson","location_type":"Force","location":{"latitude":"51.491486","street":{"id":950768,"name":"On or near Pedestrian Subway"},"longitude":"-0.291802"},"context":"","outcome_status":{"category":"Status update unavailable","date":"2019-09"},"persistent_id":"3f7e26b3f201e91f67fe51ee2c58f3d92b54bcb145ee39b81f7ec8d2a7a58db8","id":74333168,"location_subtype":"","month":"2019-05"},{"category":"criminal-damage-arson","location_type":"Force","location":{"latitude":"51.503996","street":{"id":952248,"name":"On or near Acton Lane"},"longitude":"-0.266796"},"context":"","outcome_status":{"category":"Status update unavailable","date":"2019-09"},"persistent_id":"1623264c3fbd2307024a20f0e91162bbf3126137ae21ffae82a22b5e63c02b2e","id":74362133,"location_subtype":"","month":"2019-05"},{"category":"criminal-damage-arson","location_type":"Force","location":{"latitude":"51.516472","street":{"id":957828,"name":"On or near Churchill Gardens"},"longitude":"-0.279856"},"context":"","outcome_status":{"category":"Status update unavailable","date":"2019-09"},"persistent_id":"5cdf8406f8048406c3d8e7ed6150a755d0ca3a81ffbcf4c46712a5902d18d4c2","id":74295818,"location_subtype":"","month":"2019-05"},{"category":"criminal-damage-arson","location_type":"Force","location":{"latitude":"51.505878","street":{"id":952229,"name":"On or near Langley Drive"},"longitude":"-0.274289"},"context":"","outcome_status":{"category":"Status update unavailable","date":"2019-09"},"persistent_id":"a63c337ee7cd47022be4fb472faa60495214469daea06fc2fe12b63ff11221a0","id":74333561,"location_subtype":"","month":"2019-05"},{"category":"criminal-damage-arson","location_type":"Force","location":{"latitude":"51.517321","street":{"id":957819,"name":"On or near Sports\/recreation Area"},"longitude":"-0.277028"},"context":"","outcome_status":{"category":"Status update unavailable","date":"2019-09"},"persistent_id":"8af03d909758be888f53dfeac5aa7c665d662960bcb70a9c2e604595d2e91813","id":74360754,"location_subtype":"","month":"2019-05"},{"category":"criminal-damage-arson","location_type":"Force","location":{"latitude":"51.507147","street":{"id":952251,"name":"On or near Shopping Area"},"longitude":"-0.270106"},"context":"","outcome_status":{"category":"Status update unavailable","date":"2019-09"},"persistent_id":"63e7e64e6c9ce35fe36d000fa64065ca1e30d439985dadf019e242506293b5e8","id":74342029,"location_subtype":"","month":"2019-05"},{"category":"criminal-damage-arson","location_type":"Force","location":{"latitude":"51.508646","street":{"id":957852,"name":"On or near Police Station"},"longitude":"-0.274804"},"context":"","outcome_status":{"category":"Status update unavailable","date":"2019-09"},"persistent_id":"2a35894147f2572eecc4b21d40f0d612e292cb708786cd1d36b7bc06a73bd472","id":74370759,"location_subtype":"","month":"2019-05"},{"category":"criminal-damage-arson","location_type":"Force","location":{"latitude":"51.505998","street":{"id":952212,"name":"On or near Salisbury Street"},"longitude":"-0.267152"},"context":"","outcome_status":{"category":"Status update unavailable","date":"2019-09"},"persistent_id":"e9610a1ec19e2572aaee28c025d8b40449509d94aa784675b910816a86575b19","id":74339302,"location_subtype":"","month":"2019-05"},{"category":"criminal-damage-arson","location_type":"Force","location":{"latitude":"51.506274","street":{"id":952226,"name":"On or near Melville Villas Road"},"longitude":"-0.265124"},"context":"","outcome_status":{"category":"Status update unavailable","date":"2019-09"},"persistent_id":"4b59d1b070b5c67bed0881a9a3e2eefddf4a3e2aedf55f9b7238918cf45c4e39","id":74327362,"location_subtype":"","month":"2019-05"},{"category":"criminal-damage-arson","location_type":"Force","location":{"latitude":"51.507121","street":{"id":952235,"name":"On or near Crown Street"},"longitude":"-0.273810"},"context":"","outcome_status":{"category":"Status update unavailable","date":"2019-09"},"persistent_id":"bdf51206657102490316ea22e5f53304e4d1f7f05698eded529f32e7f4cdab47","id":74312949,"location_subtype":"","month":"2019-05"},{"category":"criminal-damage-arson","location_type":"Force","location":{"latitude":"51.490352","street":{"id":950804,"name":"On or near Haining Close"},"longitude":"-0.281300"},"context":"","outcome_status":{"category":"Status update unavailable","date":"2019-09"},"persistent_id":"8fd9bd40d011c0a0ebb29bec0e90692e770254940b2e366ec139bde09c7cfe85","id":74311419,"location_subtype":"","month":"2019-05"},{"category":"criminal-damage-arson","location_type":"Force","location":{"latitude":"51.505878","street":{"id":952229,"name":"On or near Langley Drive"},"longitude":"-0.274289"},"context":"","outcome_status":{"category":"Status update unavailable","date":"2019-09"},"persistent_id":"98b342c1c05a6e162705911b8bdf461074adfb565b1e9bd26059aefef4e8c0ae","id":74311415,"location_subtype":"","month":"2019-05"},{"category":"drugs","location_type":"Force","location":{"latitude":"51.508646","street":{"id":957852,"name":"On or near Police Station"},"longitude":"-0.274804"},"context":"","outcome_status":{"category":"Local resolution","date":"2019-06"},"persistent_id":"5f39ea3538a2507c3989cbd430defe590308e24f20f6bb446e64246dfe79037d","id":74310525,"location_subtype":"","month":"2019-05"},{"category":"drugs","location_type":"Force","location":{"latitude":"51.508646","street":{"id":957852,"name":"On or near Police Station"},"longitude":"-0.274804"},"context":"","outcome_status":{"category":"Court result unavailable","date":"2020-10"},"persistent_id":"e10eb357b08a299e4146722f45ce28cb8e0bcd85b2522bb3b61c48fbd92224f3","id":74350500,"location_subtype":"","month":"2019-05"},{"category":"drugs","location_type":"Force","location":{"latitude":"51.500307","street":{"id":951903,"name":"On or near Rose Gardens"},"longitude":"-0.302278"},"context":"","outcome_status":{"category":"Investigation complete; no suspect identified","date":"2020-04"},"persistent_id":"53d18ea003815b37ddf0a03b1a0b27876fc968cd7bc7f6f8838f1db92f49a1eb","id":74335125,"location_subtype":"","month":"2019-05"},{"category":"drugs","location_type":"Force","location":{"latitude":"51.503924","street":{"id":952225,"name":"On or near Meon Road"},"longitude":"-0.267980"},"context":"","outcome_status":{"category":"Court result unavailable","date":"2020-01"},"persistent_id":"112c0c4bb027e6cb8535440b7eb2629f6465b62c831733164fdb370bd1c84479","id":74367106,"location_subtype":"","month":"2019-05"},{"category":"drugs","location_type":"Force","location":{"latitude":"51.499677","street":{"id":952191,"name":"On or near Colville Road"},"longitude":"-0.272722"},"context":"","outcome_status":{"category":"Local resolution","date":"2019-05"},"persistent_id":"7b9d02be685e6e9b21b9bb4aacf43fc3e3406dfcc57437ceaaff5e7805b5cb9f","id":74365246,"location_subtype":"","month":"2019-05"},{"category":"drugs","location_type":"Force","location":{"latitude":"51.502861","street":{"id":952072,"name":"On or near Gunnersbury Crescent"},"longitude":"-0.282515"},"context":"","outcome_status":{"category":"Local resolution","date":"2019-06"},"persistent_id":"0eec9d7adb355f5a93e172dbff053aa6060ad145250cb4bafd5d82dd2426fcc4","id":74323831,"location_subtype":"","month":"2019-05"},{"category":"drugs","location_type":"Force","location":{"latitude":"51.495399","street":{"id":952038,"name":"On or near Lionel Road North"},"longitude":"-0.296870"},"context":"","outcome_status":{"category":"Local resolution","date":"2019-05"},"persistent_id":"103151b3427eb71b3d66969f943bca650a187129443583670d7f272a66b60bf1","id":74301849,"location_subtype":"","month":"2019-05"},{"category":"drugs","location_type":"Force","location":{"latitude":"51.508646","street":{"id":957852,"name":"On or near Police Station"},"longitude":"-0.274804"},"context":"","outcome_status":{"category":"Offender given a caution","date":"2019-05"},"persistent_id":"57ce914d083c9cac376ebff127df6f6f0ea2cd9e163ca2f440b6991de05c4b1a","id":74327193,"location_subtype":"","month":"2019-05"},{"category":"drugs","location_type":"Force","location":{"latitude":"51.508649","street":{"id":957856,"name":"On or near Uxbridge Road"},"longitude":"-0.282312"},"context":"","outcome_status":{"category":"Local resolution","date":"2019-05"},"persistent_id":"31b559d810f4bf6d5ef51beba8025712837fe0d5c4b0df6a43003326b61239d7","id":74344941,"location_subtype":"","month":"2019-05"},{"category":"drugs","location_type":"Force","location":{"latitude":"51.504383","street":{"id":952217,"name":"On or near Park Road East"},"longitude":"-0.271694"},"context":"","outcome_status":{"category":"Offender given a caution","date":"2019-05"},"persistent_id":"42d9771f862b69671e525eb7c5b230e5f8adf9574381b2d0091a06979ff6541c","id":74295464,"location_subtype":"","month":"2019-05"},{"category":"drugs","location_type":"Force","location":{"latitude":"51.490980","street":{"id":950817,"name":"On or near Oxford Road North"},"longitude":"-0.278107"},"context":"","outcome_status":{"category":"Local resolution","date":"2019-05"},"persistent_id":"08219dfa0e589610f3aad219948f095092da1c009908da04a4fe1e6de82eba0f","id":74332879,"location_subtype":"","month":"2019-05"},{"category":"drugs","location_type":"Force","location":{"latitude":"51.505060","street":{"id":952095,"name":"On or near Elgar Avenue"},"longitude":"-0.295185"},"context":"","outcome_status":{"category":"Offender given penalty notice","date":"2019-05"},"persistent_id":"b5b1f5ce1f7d19ae903fcf23993e8093c0c3d2bf3c3f995f04b8ccab62953301","id":74306456,"location_subtype":"","month":"2019-05"},{"category":"drugs","location_type":"Force","location":{"latitude":"51.509654","street":{"id":957866,"name":"On or near Granville Gardens"},"longitude":"-0.287750"},"context":"","outcome_status":{"category":"Offender given a caution","date":"2019-06"},"persistent_id":"379f5e2bb79b2701e543de9daa8d0241d8a3f7593ab1c3b1c3d00c5bfab0909a","id":74293067,"location_subtype":"","month":"2019-05"},{"category":"other-theft","location_type":"Force","location":{"latitude":"51.505549","street":{"id":952238,"name":"On or near Clandon Close"},"longitude":"-0.273279"},"context":"","outcome_status":{"category":"Status update unavailable","date":"2019-09"},"persistent_id":"e07024af58d6e6ff0f925df6b1a817c644542c862e007f86b335585ff46638b8","id":74292884,"location_subtype":"","month":"2019-05"},{"category":"other-theft","location_type":"Force","location":{"latitude":"51.493542","street":{"id":950686,"name":"On or near Supermarket"},"longitude":"-0.265204"},"context":"","outcome_status":{"category":"Status update unavailable","date":"2019-09"},