[{"category":"anti-social-behaviour","location_type":"Force","location":{"latitude":"51.606904","street":{"id":981647,"name":"On or near Roebuck Close"},"longitude":"-0.067513"},"context":"","outcome_status":null,"persistent_id":"","id":74288464,"location_subtype":"","month":"2019-05"},{"category":"anti-social-behaviour","location_type":"Force","location":{"latitude":"51.606180","street":{"id":981648,"name":"On or near Percival Court"},"longitude":"-0.068309"},"context":"","outcome_status":null,"persistent_id":"","id":74288477,"location_subtype":"","month":"2019-05"},{"category":"anti-social-behaviour","location_type":"Force","location":{"latitude":"51.605686","street":{"id":981686,"name":"On or near Chapel Place"},"longitude":"-0.068893"},"context":"","outcome_status":null,"persistent_id":"","id":74288479,"location_subtype":"","month":"2019-05"},{"category":"anti-social-behaviour","location_type":"Force","location":{"latitude":"51.605686","street":{"id":981686,"name":"On or near Chapel Place"},"longitude":"-0.068893"},"context":"","outcome_status":null,"persistent_id":"","id":74288481,"location_subtype":"","month":"2019-05"},{"category":"anti-social-behaviour","location_type":"Force","location":{"latitude":"51.605686","street":{"id":981686,"name":"On or near Chapel Place"},"longitude":"-0.068893"},"context":"","outcome_status":null,"persistent_id":"","id":74288482,"location_subtype":"","month":"2019-05"},{"category":"anti-social-behaviour","location_type":"Force","location":{"latitude":"51.605686","street":{"id":981686,"name":"On or near Chapel Place"},"longitude":"-0.068893"},"context":"","outcome_status":null,"persistent_id":"","id":74288483,"location_subtype":"","month":"2019-05"},{"category":"anti-social-behaviour","location_type":"Force","location":{"latitude":"51.605686","street":{"id":981686,"name":"On or near Chapel Place"},"longitude":"-0.068893"},"context":"","outcome_status":null,"persistent_id":"","id":74288484,"location_subtype":"","month":"2019-05"},{"category":"anti-social-behaviour","location_type":"Force","location":{"latitude":"51.605686","street":{"id":981686,"name":"On or near Chapel Place"},"longitude":"-0.068893"},"context":"","outcome_status":null,"persistent_id":"","id":74288485,"location_subtype":"","month":"2019-05"},{"category":"anti-social-behaviour","location_type":"Force","location":{"latitude":"51.607837","street":{"id":981704,"name":"On or near Supermarket"},"longitude":"-0.070102"},"context":"","outcome_status":null,"persistent_id":"","id":74288497,"location_subtype":"","month":"2019-05"},{"category":"anti-social-behaviour","location_type":"Force","location":{"latitude":"51.623945","street":{"id":985650,"name":"On or near Wellington Avenue"},"longitude":"-0.053396"},"context":"","outcome_status":null,"persistent_id":"","id":74283605,"location_subtype":"","month":"2019-05"},{"category":"anti-social-behaviour","location_type":"Force","location":{"latitude":"51.623945","street":{"id":985650,"name":"On or near Wellington Avenue"},"longitude":"-0.053396"},"context":"","outcome_status":null,"persistent_id":"","id":74283604,"location_subtype":"","month":"2019-05"},{"category":"anti-social-behaviour","location_type":"Force","location":{"latitude":"51.605159","street":{"id":981629,"name":"On or near Worcester Avenue"},"longitude":"-0.064742"},"context":"","outcome_status":null,"persistent_id":"","id":74288436,"location_subtype":"","month":"2019-05"},{"category":"anti-social-behaviour","location_type":"Force","location":{"latitude":"51.606504","street":{"id":981690,"name":"On or near Bennetts Close"},"longitude":"-0.066735"},"context":"","outcome_status":null,"persistent_id":"","id":74288460,"location_subtype":"","month":"2019-05"},{"category":"anti-social-behaviour","location_type":"Force","location":{"latitude":"51.608680","street":{"id":981679,"name":"On or near Fore Street"},"longitude":"-0.067250"},"context":"","outcome_status":null,"persistent_id":"","id":74288461,"location_subtype":"","month":"2019-05"},{"category":"anti-social-behaviour","location_type":"Force","location":{"latitude":"51.607481","street":{"id":981682,"name":"On or near Cooperage Close"},"longitude":"-0.067069"},"context":"","outcome_status":null,"persistent_id":"","id":74288462,"location_subtype":"","month":"2019-05"},{"category":"anti-social-behaviour","location_type":"Force","location":{"latitude":"51.606180","street":{"id":981648,"name":"On or near Percival Court"},"longitude":"-0.068309"},"context":"","outcome_status":null,"persistent_id":"","id":74288476,"location_subtype":"","month":"2019-05"},{"category":"anti-social-behaviour","location_type":"Force","location":{"latitude":"51.615857","street":{"id":983653,"name":"On or near Morley Avenue"},"longitude":"-0.061326"},"context":"","outcome_status":null,"persistent_id":"","id":74283716,"location_subtype":"","month":"2019-05"},{"category":"anti-social-behaviour","location_type":"Force","location":{"latitude":"51.612821","street":{"id":983635,"name":"On or near Wakefield Street"},"longitude":"-0.062611"},"context":"","outcome_status":null,"persistent_id":"","id":74283725,"location_subtype":"","month":"2019-05"},{"category":"anti-social-behaviour","location_type":"Force","location":{"latitude":"51.618671","street":{"id":983697,"name":"On or near Station House Mews"},"longitude":"-0.062376"},"context":"","outcome_status":null,"persistent_id":"","id":74283729,"location_subtype":"","month":"2019-05"},{"category":"anti-social-behaviour","location_type":"Force","location":{"latitude":"51.616219","street":{"id":983668,"name":"On or near Fore Street"},"longitude":"-0.064156"},"context":"","outcome_status":null,"persistent_id":"","id":74283743,"location_subtype":"","month":"2019-05"},{"category":"anti-social-behaviour","location_type":"Force","location":{"latitude":"51.616219","street":{"id":983668,"name":"On or near Fore Street"},"longitude":"-0.064156"},"context":"","outcome_status":null,"persistent_id":"","id":74283747,"location_subtype":"","month":"2019-05"},{"category":"anti-social-behaviour","location_type":"Force","location":{"latitude":"51.616219","street":{"id":983668,"name":"On or near Fore Street"},"longitude":"-0.064156"},"context":"","outcome_status":null,"persistent_id":"","id":74283748,"location_subtype":"","month":"2019-05"},{"category":"anti-social-behaviour","location_type":"Force","location":{"latitude":"51.611955","street":{"id":983563,"name":"On or near Argon Road"},"longitude":"-0.042383"},"context":"","outcome_status":null,"persistent_id":"","id":74282383,"location_subtype":"","month":"2019-05"},{"category":"anti-social-behaviour","location_type":"Force","location":{"latitude":"51.616414","street":{"id":983559,"name":"On or near First Avenue"},"longitude":"-0.048807"},"context":"","outcome_status":null,"persistent_id":"","id":74282454,"location_subtype":"","month":"2019-05"},{"category":"anti-social-behaviour","location_type":"Force","location":{"latitude":"51.611674","street":{"id":983667,"name":"On or near Fore Street"},"longitude":"-0.065057"},"context":"","outcome_status":null,"persistent_id":"","id":74284546,"location_subtype":"","month":"2019-05"},{"category":"anti-social-behaviour","location_type":"Force","location":{"latitude":"51.609508","street":{"id":981666,"name":"On or near Langhedge Close"},"longitude":"-0.068933"},"context":"","outcome_status":null,"persistent_id":"","id":74284582,"location_subtype":"","month":"2019-05"},{"category":"anti-social-behaviour","location_type":"Force","location":{"latitude":"51.613167","street":{"id":983438,"name":"On or near Cork Tree Way"},"longitude":"-0.030964"},"context":"","outcome_status":null,"persistent_id":"","id":74285523,"location_subtype":"","month":"2019-05"},{"category":"anti-social-behaviour","location_type":"Force","location":{"latitude":"51.601394","street":{"id":981783,"name":"On or near Sandpiper Close"},"longitude":"-0.038924"},"context":"","outcome_status":null,"persistent_id":"","id":74286165,"location_subtype":"","month":"2019-05"},{"category":"anti-social-behaviour","location_type":"Force","location":{"latitude":"51.602264","street":{"id":981659,"name":"On or near Maple Place"},"longitude":"-0.059898"},"context":"","outcome_status":null,"persistent_id":"","id":74288394,"location_subtype":"","month":"2019-05"},{"category":"anti-social-behaviour","location_type":"Force","location":{"latitude":"51.604743","street":{"id":981635,"name":"On or near Trulock Road"},"longitude":"-0.062435"},"context":"","outcome_status":null,"persistent_id":"","id":74288405,"location_subtype":"","month":"2019-05"},{"category":"anti-social-behaviour","location_type":"Force","location":{"latitude":"51.601570","street":{"id":981641,"name":"On or near Sutherland Road"},"longitude":"-0.062555"},"context":"","outcome_status":null,"persistent_id":"","id":74288410,"location_subtype":"","month":"2019-05"},{"category":"anti-social-behaviour","location_type":"Force","location":{"latitude":"51.601570","street":{"id":981641,"name":"On or near Sutherland Road"},"longitude":"-0.062555"},"context":"","outcome_status":null,"persistent_id":"","id":74288411,"location_subtype":"","month":"2019-05"},{"category":"anti-social-behaviour","location_type":"Force","location":{"latitude":"51.605686","street":{"id":981686,"name":"On or near Chapel Place"},"longitude":"-0.068893"},"context":"","outcome_status":null,"persistent_id":"","id":74288478,"location_subtype":"","month":"2019-05"},{"category":"anti-social-behaviour","location_type":"Force","location":{"latitude":"51.605686","street":{"id":981686,"name":"On or near Chapel Place"},"longitude":"-0.068893"},"context":"","outcome_status":null,"persistent_id":"","id":74288480,"location_subtype":"","month":"2019-05"},{"category":"anti-social-behaviour","location_type":"Force","location":{"latitude":"51.601178","street":{"id":981811,"name":"On or near Manor Road"},"longitude":"-0.055684"},"context":"","outcome_status":null,"persistent_id":"","id":74287719,"location_subtype":"","month":"2019-05"},{"category":"anti-social-behaviour","location_type":"Force","location":{"latitude":"51.602527","street":{"id":981823,"name":"On or near Anglia Close"},"longitude":"-0.055684"},"context":"","outcome_status":null,"persistent_id":"","id":74287718,"location_subtype":"","month":"2019-05"},{"category":"anti-social-behaviour","location_type":"Force","location":{"latitude":"51.602527","street":{"id":981823,"name":"On or near Anglia Close"},"longitude":"-0.055684"},"context":"","outcome_status":null,"persistent_id":"","id":74287717,"location_subtype":"","month":"2019-05"},{"category":"anti-social-behaviour","location_type":"Force","location":{"latitude":"51.605079","street":{"id":981799,"name":"On or near Willoughby Park Road"},"longitude":"-0.055590"},"context":"","outcome_status":null,"persistent_id":"","id":74287716,"location_subtype":"","month":"2019-05"},{"category":"anti-social-behaviour","location_type":"Force","location":{"latitude":"51.601394","street":{"id":981783,"name":"On or near Sandpiper Close"},"longitude":"-0.038924"},"context":"","outcome_status":null,"persistent_id":"","id":74286168,"location_subtype":"","month":"2019-05"},{"category":"anti-social-behaviour","location_type":"Force","location":{"latitude":"51.626263","street":{"id":985615,"name":"On or near Exeter Road"},"longitude":"-0.049468"},"context":"","outcome_status":null,"persistent_id":"","id":74282465,"location_subtype":"","month":"2019-05"},{"category":"anti-social-behaviour","location_type":"Force","location":{"latitude":"51.601394","street":{"id":981783,"name":"On or near Sandpiper Close"},"longitude":"-0.038924"},"context":"","outcome_status":null,"persistent_id":"","id":74286167,"location_subtype":"","month":"2019-05"},{"category":"anti-social-behaviour","location_type":"Force","location":{"latitude":"51.601394","street":{"id":981783,"name":"On or near Sandpiper Close"},"longitude":"-0.038924"},"context":"","outcome_status":null,"persistent_id":"","id":74286166,"location_subtype":"","month":"2019-05"},{"category":"anti-social-behaviour","location_type":"Force","location":{"latitude":"51.615017","street":{"id":983435,"name":"On or near Mandeville Court"},"longitude":"-0.031404"},"context":"","outcome_status":null,"persistent_id":"","id":74285538,"location_subtype":"","month":"2019-05"},{"category":"anti-social-behaviour","location_type":"Force","location":{"latitude":"51.614194","street":{"id":983431,"name":"On or near Hollywood Road"},"longitude":"-0.030053"},"context":"","outcome_status":null,"persistent_id":"","id":74285518,"location_subtype":"","month":"2019-05"},{"category":"anti-social-behaviour","location_type":"Force","location":{"latitude":"51.614194","street":{"id":983431,"name":"On or near Hollywood Road"},"longitude":"-0.030053"},"context":"","outcome_status":null,"persistent_id":"","id":74285516,"location_subtype":"","month":"2019-05"},{"category":"anti-social-behaviour","location_type":"Force","location":{"latitude":"51.617134","street":{"id":983439,"name":"On or near Russell Road"},"longitude":"-0.028900"},"context":"","outcome_status":null,"persistent_id":"","id":74285514,"location_subtype":"","month":"2019-05"},{"category":"anti-social-behaviour","location_type":"Force","location":{"latitude":"51.609318","street":{"id":981877,"name":"On or near Hazel Way"},"longitude":"-0.028285"},"context":"","outcome_status":null,"persistent_id":"","id":74285512,"location_subtype":"","month":"2019-05"},{"category":"anti-social-behaviour","location_type":"Force","location":{"latitude":"51.612721","street":{"id":983463,"name":"On or near Burnham Road"},"longitude":"-0.026376"},"context":"","outcome_status":null,"persistent_id":"","id":74285487,"location_subtype":"","month":"2019-05"},{"category":"anti-social-behaviour","location_type":"Force","location":{"latitude":"51.612721","street":{"id":983463,"name":"On or near Burnham Road"},"longitude":"-0.026376"},"context":"","outcome_status":null,"persistent_id":"","id":74285486,"location_subtype":"","month":"2019-05"},{"category":"anti-social-behaviour","location_type":"Force","location":{"latitude":"51.609831","street":{"id":983503,"name":"On or near Laburnum Close"},"longitude":"-0.026198"},"context":"","outcome_status":null,"persistent_id":"","id":74285481,"location_subtype":"","month":"2019-05"},{"category":"anti-social-behaviour","location_type":"Force","location":{"latitude":"51.618506","street":{"id":983699,"name":"On or near Solomon Avenue"},"longitude":"-0.064333"},"context":"","outcome_status":null,"persistent_id":"","id":74283754,"location_subtype":"","month":"2019-05"},{"category":"anti-social-behaviour","location_type":"Force","location":{"latitude":"51.616219","street":{"id":983668,"name":"On or near Fore Street"},"longitude":"-0.064156"},"context":"","outcome_status":null,"persistent_id":"","id":74283753,"location_subtype":"","month":"2019-05"},{"category":"anti-social-behaviour","location_type":"Force","location":{"latitude":"51.616219","street":{"id":983668,"name":"On or near Fore Street"},"longitude":"-0.064156"},"context":"","outcome_status":null,"persistent_id":"","id":74283752,"location_subtype":"","month":"2019-05"},{"category":"anti-social-behaviour","location_type":"Force","location":{"latitude":"51.616219","street":{"id":983668,"name":"On or near Fore Street"},"longitude":"-0.064156"},"context":"","outcome_status":null,"persistent_id":"","id":74283751,"location_subtype":"","month":"2019-05"},{"category":"anti-social-behaviour","location_type":"Force","location":{"latitude":"51.616219","street":{"id":983668,"name":"On or near Fore Street"},"longitude":"-0.064156"},"context":"","outcome_status":null,"persistent_id":"","id":74283750,"location_subtype":"","month":"2019-05"},{"category":"anti-social-behaviour","location_type":"Force","location":{"latitude":"51.616219","street":{"id":983668,"name":"On or near Fore Street"},"longitude":"-0.064156"},"context":"","outcome_status":null,"persistent_id":"","id":74283749,"location_subtype":"","month":"2019-05"},{"category":"anti-social-behaviour","location_type":"Force","location":{"latitude":"51.616219","street":{"id":983668,"name":"On or near Fore Street"},"longitude":"-0.064156"},"context":"","outcome_status":null,"persistent_id":"","id":74283746,"location_subtype":"","month":"2019-05"},{"category":"anti-social-behaviour","location_type":"Force","location":{"latitude":"51.616219","street":{"id":983668,"name":"On or near Fore Street"},"longitude":"-0.064156"},"context":"","outcome_status":null,"persistent_id":"","id":74283745,"location_subtype":"","month":"2019-05"},{"category":"anti-social-behaviour","location_type":"Force","location":{"latitude":"51.616219","street":{"id":983668,"name":"On or near Fore Street"},"longitude":"-0.064156"},"context":"","outcome_status":null,"persistent_id":"","id":74283744,"location_subtype":"","month":"2019-05"},{"category":"anti-social-behaviour","location_type":"Force","location":{"latitude":"51.616219","street":{"id":983668,"name":"On or near Fore Street"},"longitude":"-0.064156"},"context":"","outcome_status":null,"persistent_id":"","id":74283742,"location_subtype":"","month":"2019-05"},{"category":"anti-social-behaviour","location_type":"Force","location":{"latitude":"51.611536","street":{"id":983673,"name":"On or near Cowper Road"},"longitude":"-0.064283"},"context":"","outcome_status":null,"persistent_id":"","id":74283741,"location_subtype":"","month":"2019-05"},{"category":"anti-social-behaviour","location_type":"Force","location":{"latitude":"51.621770","street":{"id":983727,"name":"On or near Barbot Close"},"longitude":"-0.063804"},"context":"","outcome_status":null,"persistent_id":"","id":74283740,"location_subtype":"","month":"2019-05"},{"category":"anti-social-behaviour","location_type":"Force","location":{"latitude":"51.621770","street":{"id":983727,"name":"On or near Barbot Close"},"longitude":"-0.063804"},"context":"","outcome_status":null,"persistent_id":"","id":74283739,"location_subtype":"","month":"2019-05"},{"category":"anti-social-behaviour","location_type":"Force","location":{"latitude":"51.621770","street":{"id":983727,"name":"On or near Barbot Close"},"longitude":"-0.063804"},"context":"","outcome_status":null,"persistent_id":"","id":74283738,"location_subtype":"","month":"2019-05"},{"category":"anti-social-behaviour","location_type":"Force","location":{"latitude":"51.621770","street":{"id":983727,"name":"On or near Barbot Close"},"longitude":"-0.063804"},"context":"","outcome_status":null,"persistent_id":"","id":74283737,"location_subtype":"","month":"2019-05"},{"category":"anti-social-behaviour","location_type":"Force","location":{"latitude":"51.610634","street":{"id":983743,"name":"On or near Alpha Road"},"longitude":"-0.064148"},"context":"","outcome_status":null,"persistent_id":"","id":74283736,"location_subtype":"","month":"2019-05"},{"category":"anti-social-behaviour","location_type":"Force","location":{"latitude":"51.616618","street":{"id":983678,"name":"On or near Brockenhurst Mews"},"longitude":"-0.062767"},"context":"","outcome_status":null,"persistent_id":"","id":74283730,"location_subtype":"","month":"2019-05"},{"category":"anti-social-behaviour","location_type":"Force","location":{"latitude":"51.618671","street":{"id":983697,"name":"On or near Station House Mews"},"longitude":"-0.062376"},"context":"","outcome_status":null,"persistent_id":"","id":74283728,"location_subtype":"","month":"2019-05"},{"category":"anti-social-behaviour","location_type":"Force","location":{"latitude":"51.618671","street":{"id":983697,"name":"On or near Station House Mews"},"longitude":"-0.062376"},"context":"","outcome_status":null,"persistent_id":"","id":74283727,"location_subtype":"","month":"2019-05"},{"category":"anti-social-behaviour","location_type":"Force","location":{"latitude":"51.610074","street":{"id":983741,"name":"On or near Claremont Street"},"longitude":"-0.063464"},"context":"","outcome_status":null,"persistent_id":"","id":74283720,"location_subtype":"","month":"2019-05"},{"category":"anti-social-behaviour","location_type":"Force","location":{"latitude":"51.622133","street":{"id":983690,"name":"On or near Warriner Drive"},"longitude":"-0.062330"},"context":"","outcome_status":null,"persistent_id":"","id":74283715,"location_subtype":"","month":"2019-05"},{"category":"anti-social-behaviour","location_type":"Force","location":{"latitude":"51.620409","street":{"id":983726,"name":"On or near Beaconsfield Road"},"longitude":"-0.060857"},"context":"","outcome_status":null,"persistent_id":"","id":74283714,"location_subtype":"","month":"2019-05"},{"category":"anti-social-behaviour","location_type":"Force","location":{"latitude":"51.620409","street":{"id":983726,"name":"On or near Beaconsfield Road"},"longitude":"-0.060857"},"context":"","outcome_status":null,"persistent_id":"","id":74283708,"location_subtype":"","month":"2019-05"},{"category":"anti-social-behaviour","location_type":"Force","location":{"latitude":"51.622238","street":{"id":983731,"name":"On or near Police Station"},"longitude":"-0.061068"},"context":"","outcome_status":null,"persistent_id":"","id":74283707,"location_subtype":"","month":"2019-05"},{"category":"anti-social-behaviour","location_type":"Force","location":{"latitude":"51.622238","street":{"id":983731,"name":"On or near Police Station"},"longitude":"-0.061068"},"context":"","outcome_status":null,"persistent_id":"","id":74283706,"location_subtype":"","month":"2019-05"},{"category":"anti-social-behaviour","location_type":"Force","location":{"latitude":"51.624814","street":{"id":985584,"name":"On or near Town Road"},"longitude":"-0.051567"},"context":"","outcome_status":null,"persistent_id":"","id":74282498,"location_subtype":"","month":"2019-05"},{"category":"anti-social-behaviour","location_type":"Force","location":{"latitude":"51.624202","street":{"id":985502,"name":"On or near The Broadway"},"longitude":"-0.060753"},"context":"","outcome_status":null,"persistent_id":"","id":74283705,"location_subtype":"","month":"2019-05"},{"category":"anti-social-behaviour","location_type":"Force","location":{"latitude":"51.609474","street":{"id":981663,"name":"On or near Leyburn Grove"},"longitude":"-0.061973"},"context":"","outcome_status":null,"persistent_id":"","id":74283704,"location_subtype":"","month":"2019-05"},{"category":"anti-social-behaviour","location_type":"Force","location":{"latitude":"51.624202","street":{"id":985502,"name":"On or near The Broadway"},"longitude":"-0.060753"},"context":"","outcome_status":null,"persistent_id":"","id":74283703,"location_subtype":"","month":"2019-05"},{"category":"anti-social-behaviour","location_type":"Force","location":{"latitude":"51.620409","street":{"id":983726,"name":"On or near Beaconsfield Road"},"longitude":"-0.060857"},"context":"","outcome_status":null,"persistent_id":"","id":74283699,"location_subtype":"","month":"2019-05"},{"category":"anti-social-behaviour","location_type":"Force","location":{"latitude":"51.618522","street":{"id":983541,"name":"On or near Parr Close"},"longitude":"-0.055001"},"context":"","outcome_status":null,"persistent_id":"","id":74283617,"location_subtype":"","month":"2019-05"},{"category":"anti-social-behaviour","location_type":"Force","location":{"latitude":"51.623027","street":{"id":983548,"name":"On or near Euesdon Close"},"longitude":"-0.057148"},"context":"","outcome_status":null,"persistent_id":"","id":74283642,"location_subtype":"","month":"2019-05"},{"category":"anti-social-behaviour","location_type":"Force","location":{"latitude":"51.623578","street":{"id":985512,"name":"On or near Further\/higher Educational Building"},"longitude":"-0.058916"},"context":"","outcome_status":null,"persistent_id":"","id":74283697,"location_subtype":"","month":"2019-05"},{"category":"anti-social-behaviour","location_type":"Force","location":{"latitude":"51.611936","street":{"id":983645,"name":"On or near Sayesbury Lane"},"longitude":"-0.059644"},"context":"","outcome_status":null,"persistent_id":"","id":74283683,"location_subtype":"","month":"2019-05"},{"category":"anti-social-behaviour","location_type":"Force","location":{"latitude":"51.616553","street":{"id":983641,"name":"On or near St Peter's Avenue"},"longitude":"-0.059924"},"context":"","outcome_status":null,"persistent_id":"","id":74283681,"location_subtype":"","month":"2019-05"},{"category":"anti-social-behaviour","location_type":"Force","location":{"latitude":"51.624037","street":{"id":985510,"name":"On or near Shopping Area"},"longitude":"-0.058926"},"context":"","outcome_status":null,"persistent_id":"","id":74283676,"location_subtype":"","month":"2019-05"},{"category":"anti-social-behaviour","location_type":"Force","location":{"latitude":"51.619925","street":{"id":983718,"name":"On or near Felixstowe Road"},"longitude":"-0.058812"},"context":"","outcome_status":null,"persistent_id":"","id":74283669,"location_subtype":"","month":"2019-05"},{"category":"anti-social-behaviour","location_type":"Force","location":{"latitude":"51.624037","street":{"id":985510,"name":"On or near Shopping Area"},"longitude":"-0.058926"},"context":"","outcome_status":null,"persistent_id":"","id":74283667,"location_subtype":"","month":"2019-05"},{"category":"anti-social-behaviour","location_type":"Force","location":{"latitude":"51.615796","street":{"id":983538,"name":"On or near Sports\/recreation Area"},"longitude":"-0.057616"},"context":"","outcome_status":null,"persistent_id":"","id":74283657,"location_subtype":"","month":"2019-05"},{"category":"anti-social-behaviour","location_type":"Force","location":{"latitude":"51.611936","street":{"id":983645,"name":"On or near Sayesbury Lane"},"longitude":"-0.059644"},"context":"","outcome_status":null,"persistent_id":"","id":74283666,"location_subtype":"","month":"2019-05"},{"category":"anti-social-behaviour","location_type":"Force","location":{"latitude":"51.623362","street":{"id":985503,"name":"On or near Plevna Road"},"longitude":"-0.057842"},"context":"","outcome_status":null,"persistent_id":"","id":74283663,"location_subtype":"","month":"2019-05"},{"category":"anti-social-behaviour","location_type":"Force","location":{"latitude":"51.624028","street":{"id":985509,"name":"On or near Shopping Area"},"longitude":"-0.057842"},"context":"","outcome_status":null,"persistent_id":"","id":74283662,"location_subtype":"","month":"2019-05"},{"category":"anti-social-behaviour","location_type":"Force","location":{"latitude":"51.624050","street":{"id":985511,"name":"On or near Shopping Area"},"longitude":"-0.057538"},"context":"","outcome_status":null,"persistent_id":"","id":74283660,"location_subtype":"","month":"2019-05"},{"category":"anti-social-behaviour","location_type":"Force","location":{"latitude":"51.624050","street":{"id":985511,"name":"On or near Shopping Area"},"longitude":"-0.057538"},"context":"","outcome_status":null,"persistent_id":"","id":74283659,"location_subtype":"","month":"2019-05"},{"category":"anti-social-behaviour","location_type":"Force","location":{"latitude":"51.613318","street":{"id":983638,"name":"On or near Upton Road"},"longitude":"-0.058386"},"context":"","outcome_status":null,"persistent_id":"","id":74283656,"location_subtype":"","month":"2019-05"},{"category":"anti-social-behaviour","location_type":"Force","location":{"latitude":"51.624274","street":{"id":985651,"name":"On or near Summerskille Close"},"longitude":"-0.056416"},"context":"","outcome_status":null,"persistent_id":"","id":74283655,"location_subtype":"","month":"2019-05"},{"category":"anti-social-behaviour","location_type":"Force","location":{"latitude":"51.617041","street":{"id":983714,"name":"On or near Lansfield Avenue"},"longitude":"-0.059513"},"context":"","outcome_status":null,"persistent_id":"","id":74283680,"location_subtype":"","month":"2019-05"},{"category":"anti-social-behaviour","location_type":"Force","location":{"latitude":"51.613965","street":{"id":983537,"name":"On or near Aberdeen Road"},"longitude":"-0.057319"},"context":"","outcome_status":null,"persistent_id":"","id":74283651,"location_subtype":"","month":"2019-05"},{"category":"anti-social-behaviour","location_type":"Force","location":{"latitude":"51.623027","street":{"id":983548,"name":"On or near Euesdon Close"},"longitude":"-0.057148"},"context":"","outcome_status":null,"persistent_id":"","id":74283650,"location_subtype":"","month":"2019-05"},{"category":"anti-social-behaviour","location_type":"Force","location":{"latitude":"51.623027","street":{"id":983548,"name":"On or near Euesdon Close"},"longitude":"-0.057148"},"context":"","outcome_status":null,"persistent_id":"","id":74283649,"location_subtype":"","month":"2019-05"},{"category":"anti-social-behaviour","location_type":"Force","location":{"latitude":"51.611805","street":{"id":983513,"name":"On or near York Road"},"longitude":"-0.057209"},"context":"","outcome_status":null,"persistent_id":"","id":74283647,"location_subtype":"","month":"2019-05"},{"category":"anti-social-behaviour","location_type":"Force","location":{"latitude":"51.623027","street":{"id":983548,"name":"On or near Euesdon Close"},"longitude":"-0.057148"},"context":"","outcome_status":null,"persistent_id":"","id":74283646,"location_subtype":"","month":"2019-05"},{"category":"anti-social-behaviour","location_type":"Force","location":{"latitude":"51.623027","street":{"id":983548,"name":"On or near Euesdon Close"},"longitude":"-0.057148"},"context":"","outcome_status":null,"persistent_id":"","id":74283645,"location_subtype":"","month":"2019-05"},{"category":"anti-social-behaviour","location_type":"Force","location":{"latitude":"51.623027","street":{"id":983548,"name":"On or near Euesdon Close"},"longitude":"-0.057148"},"context":"","outcome_status":null,"persistent_id":"","id":74283644,"location_subtype":"","month":"2019-05"},{"category":"anti-social-behaviour","location_type":"Force","location":{"latitude":"51.623027","street":{"id":983548,"name":"On or near Euesdon Close"},"longitude":"-0.057148"},"context":"","outcome_status":null,"persistent_id":"","id":74283643,"location_subtype":"","month":"2019-05"},{"category":"anti-social-behaviour","location_type":"Force","location":{"latitude":"51.623690","street":{"id":985653,"name":"On or near Menon Drive"},"longitude":"-0.056470"},"context":"","outcome_status":null,"persistent_id":"","id":74283637,"location_subtype":"","month":"2019-05"},{"category":"anti-social-behaviour","location_type":"Force","location":{"latitude":"51.609665","street":{"id":981814,"name":"On or near Hawes Road"},"longitude":"-0.057762"},"context":"","outcome_status":null,"persistent_id":"","id":74283635,"location_subtype":"","month":"2019-05"},{"category":"anti-social-behaviour","location_type":"Force","location":{"latitude":"51.622894","street":{"id":983545,"name":"On or near Haynes Drive"},"longitude":"-0.056172"},"context":"","outcome_status":null,"persistent_id":"","id":74283634,"location_subtype":"","month":"2019-05"},{"category":"anti-social-behaviour","location_type":"Force","location":{"latitude":"51.622894","street":{"id":983545,"name":"On or near Haynes Drive"},"longitude":"-0.056172"},"context":"","outcome_status":null,"persistent_id":"","id":74283633,"location_subtype":"","month":"2019-05"},{"category":"anti-social-behaviour","location_type":"Force","location":{"latitude":"51.611955","street":{"id":983563,"name":"On or near Argon Road"},"longitude":"-0.042383"},"context":"","outcome_status":null,"persistent_id":"","id":74282382,"location_subtype":"","month":"2019-05"},{"category":"anti-social-behaviour","location_type":"Force","location":{"latitude":"51.611955","street":{"id":983563,"name":"On or near Argon Road"},"longitude":"-0.042383"},"context":"","outcome_status":null,"persistent_id":"","id":74282384,"location_subtype":"","month":"2019-05"},{"category":"anti-social-behaviour","location_type":"Force","location":{"latitude":"51.611955","street":{"id":983563,"name":"On or near Argon Road"},"longitude":"-0.042383"},"context":"","outcome_status":null,"persistent_id":"","id":74282385,"location_subtype":"","month":"2019-05"},{"category":"anti-social-behaviour","location_type":"Force","location":{"latitude":"51.611955","street":{"id":983563,"name":"On or near Argon Road"},"longitude":"-0.042383"},"context":"","outcome_status":null,"persistent_id":"","id":74282386,"location_subtype":"","month":"2019-05"},{"category":"anti-social-behaviour","location_type":"Force","location":{"latitude":"51.625891","street":{"id":985543,"name":"On or near Hennessy Road"},"longitude":"-0.044933"},"context":"","outcome_status":null,"persistent_id":"","id":74282428,"location_subtype":"","month":"2019-05"},{"category":"anti-social-behaviour","location_type":"Force","location":{"latitude":"51.625397","street":{"id":985537,"name":"On or near Montagu Road"},"longitude":"-0.046616"},"context":"","outcome_status":null,"persistent_id":"","id":74282434,"location_subtype":"","month":"2019-05"},{"category":"anti-social-behaviour","location_type":"Force","location":{"latitude":"51.624208","street":{"id":985532,"name":"On or near Nile Drive"},"longitude":"-0.045959"},"context":"","outcome_status":null,"persistent_id":"","id":74282442,"location_subtype":"","month":"2019-05"},{"category":"anti-social-behaviour","location_type":"Force","location":{"latitude":"51.616414","street":{"id":983559,"name":"On or near First Avenue"},"longitude":"-0.048807"},"context":"","outcome_status":null,"persistent_id":"","id":74282455,"location_subtype":"","month":"2019-05"},{"category":"anti-social-behaviour","location_type":"Force","location":{"latitude":"51.616414","street":{"id":983559,"name":"On or near First Avenue"},"longitude":"-0.048807"},"context":"","outcome_status":null,"persistent_id":"","id":74282456,"location_subtype":"","month":"2019-05"},{"category":"anti-social-behaviour","location_type":"Force","location":{"latitude":"51.616414","street":{"id":983559,"name":"On or near First Avenue"},"longitude":"-0.048807"},"context":"","outcome_status":null,"persistent_id":"","id":74282457,"location_subtype":"","month":"2019-05"},{"category":"anti-social-behaviour","location_type":"Force","location":{"latitude":"51.623150","street":{"id":985654,"name":"On or near Granville Avenue"},"longitude":"-0.049399"},"context":"","outcome_status":null,"persistent_id":"","id":74282479,"location_subtype":"","month":"2019-05"},{"category":"anti-social-behaviour","location_type":"Force","location":{"latitude":"51.617207","street":{"id":983550,"name":"On or near Daniel Close"},"longitude":"-0.050521"},"context":"","outcome_status":null,"persistent_id":"","id":74282496,"location_subtype":"","month":"2019-05"},{"category":"anti-social-behaviour","location_type":"Force","location":{"latitude":"51.616160","street":{"id":983515,"name":"On or near Rays Avenue"},"longitude":"-0.050840"},"context":"","outcome_status":null,"persistent_id":"","id":74282505,"location_subtype":"","month":"2019-05"},{"category":"anti-social-behaviour","location_type":"Force","location":{"latitude":"51.616160","street":{"id":983515,"name":"On or near Rays Avenue"},"longitude":"-0.050840"},"context":"","outcome_status":null,"persistent_id":"","id":74282506,"location_subtype":"","month":"2019-05"},{"category":"anti-social-behaviour","location_type":"Force","location":{"latitude":"51.618723","street":{"id":983544,"name":"On or near Jeremy's Green"},"longitude":"-0.051930"},"context":"","outcome_status":null,"persistent_id":"","id":74282511,"location_subtype":"","month":"2019-05"},{"category":"anti-social-behaviour","location_type":"Force","location":{"latitude":"51.618723","street":{"id":983544,"name":"On or near Jeremy's Green"},"longitude":"-0.051930"},"context":"","outcome_status":null,"persistent_id":"","id":74282512,"location_subtype":"","month":"2019-05"},{"category":"anti-social-behaviour","location_type":"Force","location":{"latitude":"51.613965","street":{"id":983537,"name":"On or near Aberdeen Road"},"longitude":"-0.057319"},"context":"","outcome_status":null,"persistent_id":"","id":74283652,"location_subtype":"","month":"2019-05"},{"category":"anti-social-behaviour","location_type":"Force","location":{"latitude":"51.623690","street":{"id":985653,"name":"On or near Menon Drive"},"longitude":"-0.056470"},"context":"","outcome_status":null,"persistent_id":"","id":74283632,"location_subtype":"","month":"2019-05"},{"category":"anti-social-behaviour","location_type":"Force","location":{"latitude":"51.615617","street":{"id":983527,"name":"On or near Craig Park Road"},"longitude":"-0.056064"},"context":"","outcome_status":null,"persistent_id":"","id":74283629,"location_subtype":"","month":"2019-05"},{"category":"anti-social-behaviour","location_type":"Force","location":{"latitude":"51.625359","street":{"id":985596,"name":"On or near Plevna Road"},"longitude":"-0.055705"},"context":"","outcome_status":null,"persistent_id":"","id":74283628,"location_subtype":"","month":"2019-05"},{"category":"anti-social-behaviour","location_type":"Force","location":{"latitude":"51.625359","street":{"id":985596,"name":"On or near Plevna Road"},"longitude":"-0.055705"},"context":"","outcome_status":null,"persistent_id":"","id":74283624,"location_subtype":"","month":"2019-05"},{"category":"anti-social-behaviour","location_type":"Force","location":{"latitude":"51.613318","street":{"id":983638,"name":"On or near Upton Road"},"longitude":"-0.058386"},"context":"","outcome_status":null,"persistent_id":"","id":74283684,"location_subtype":"","month":"2019-05"},{"category":"anti-social-behaviour","location_type":"Force","location":{"latitude":"51.618522","street":{"id":983541,"name":"On or near Parr Close"},"longitude":"-0.055001"},"context":"","outcome_status":null,"persistent_id":"","id":74283618,"location_subtype":"","month":"2019-05"},{"category":"anti-social-behaviour","location_type":"Force","location":{"latitude":"51.618021","street":{"id":983753,"name":"On or near Brettenham Road"},"longitude":"-0.059514"},"context":"","outcome_status":null,"persistent_id":"","id":74283698,"location_subtype":"","month":"2019-05"},{"category":"anti-social-behaviour","location_type":"Force","location":{"latitude":"51.618522","street":{"id":983541,"name":"On or near Parr Close"},"longitude":"-0.055001"},"context":"","outcome_status":null,"persistent_id":"","id":74283616,"location_subtype":"","month":"2019-05"},{"category":"anti-social-behaviour","location_type":"Force","location":{"latitude":"51.614249","street":{"id":983681,"name":"On or near Supermarket"},"longitude":"-0.065236"},"context":"","outcome_status":null,"persistent_id":"","id":74284530,"location_subtype":"","month":"2019-05"},{"category":"anti-social-behaviour","location_type":"Force","location":{"latitude":"51.618506","street":{"id":983699,"name":"On or near Solomon Avenue"},"longitude":"-0.064333"},"context":"","outcome_status":null,"persistent_id":"","id":74284529,"location_subtype":"","month":"2019-05"},{"category":"anti-social-behaviour","location_type":"Force","location":{"latitude":"51.611536","street":{"id":983673,"name":"On or near Cowper Road"},"longitude":"-0.064283"},"context":"","outcome_status":null,"persistent_id":"","id":74284531,"location_subtype":"","month":"2019-05"},{"category":"anti-social-behaviour","location_type":"Force","location":{"latitude":"51.611536","street":{"id":983673,"name":"On or near Cowper Road"},"longitude":"-0.064283"},"context":"","outcome_status":null,"persistent_id":"","id":74284532,"location_subtype":"","month":"2019-05"},{"category":"anti-social-behaviour","location_type":"Force","location":{"latitude":"51.609392","street":{"id":981671,"name":"On or near Ingleton Road"},"longitude":"-0.064591"},"context":"","outcome_status":null,"persistent_id":"","id":74284533,"location_subtype":"","month":"2019-05"},{"category":"anti-social-behaviour","location_type":"Force","location":{"latitude":"51.618506","street":{"id":983699,"name":"On or near Solomon Avenue"},"longitude":"-0.064333"},"context":"","outcome_status":null,"persistent_id":"","id":74284535,"location_subtype":"","month":"2019-05"},{"category":"anti-social-behaviour","location_type":"Force","location":{"latitude":"51.611674","street":{"id":983667,"name":"On or near Fore Street"},"longitude":"-0.065057"},"context":"","outcome_status":null,"persistent_id":"","id":74284536,"location_subtype":"","month":"2019-05"},{"category":"anti-social-behaviour","location_type":"Force","location":{"latitude":"51.611674","street":{"id":983667,"name":"On or near Fore Street"},"longitude":"-0.065057"},"context":"","outcome_status":null,"persistent_id":"","id":74284537,"location_subtype":"","month":"2019-05"},{"category":"anti-social-behaviour","location_type":"Force","location":{"latitude":"51.611674","street":{"id":983667,"name":"On or near Fore Street"},"longitude":"-0.065057"},"context":"","outcome_status":null,"persistent_id":"","id":74284538,"location_subtype":"","month":"2019-05"},{"category":"anti-social-behaviour","location_type":"Force","location":{"latitude":"51.611674","street":{"id":983667,"name":"On or near Fore Street"},"longitude":"-0.065057"},"context":"","outcome_status":null,"persistent_id":"","id":74284539,"location_subtype":"","month":"2019-05"},{"category":"anti-social-behaviour","location_type":"Force","location":{"latitude":"51.611674","street":{"id":983667,"name":"On or near Fore Street"},"longitude":"-0.065057"},"context":"","outcome_status":null,"persistent_id":"","id":74284541,"location_subtype":"","month":"2019-05"},{"category":"anti-social-behaviour","location_type":"Force","location":{"latitude":"51.611674","street":{"id":983667,"name":"On or near Fore Street"},"longitude":"-0.065057"},"context":"","outcome_status":null,"persistent_id":"","id":74284540,"location_subtype":"","month":"2019-05"},{"category":"anti-social-behaviour","location_type":"Force","location":{"latitude":"51.611674","street":{"id":983667,"name":"On or near Fore Street"},"longitude":"-0.065057"},"context":"","outcome_status":null,"persistent_id":"","id":74284542,"location_subtype":"","month":"2019-05"},{"category":"anti-social-behaviour","location_type":"Force","location":{"latitude":"51.611674","street":{"id":983667,"name":"On or near Fore Street"},"longitude":"-0.065057"},"context":"","outcome_status":null,"persistent_id":"","id":74284543,"location_subtype":"","month":"2019-05"},{"category":"anti-social-behaviour","location_type":"Force","location":{"latitude":"51.611674","street":{"id":983667,"name":"On or near Fore Street"},"longitude":"-0.065057"},"context":"","outcome_status":null,"persistent_id":"","id":74284544,"location_subtype":"","month":"2019-05"},{"category":"anti-social-behaviour","location_type":"Force","location":{"latitude":"51.611674","street":{"id":983667,"name":"On or near Fore Street"},"longitude":"-0.065057"},"context":"","outcome_status":null,"persistent_id":"","id":74284545,"location_subtype":"","month":"2019-05"},{"category":"anti-social-behaviour","location_type":"Force","location":{"latitude":"51.611674","street":{"id":983667,"name":"On or near Fore Street"},"longitude":"-0.065057"},"context":"","outcome_status":null,"persistent_id":"","id":74284547,"location_subtype":"","month":"2019-05"},{"category":"anti-social-behaviour","location_type":"Force","location":{"latitude":"51.611674","street":{"id":983667,"name":"On or near Fore Street"},"longitude":"-0.065057"},"context":"","outcome_status":null,"persistent_id":"","id":74284548,"location_subtype":"","month":"2019-05"},{"category":"anti-social-behaviour","location_type":"Force","location":{"latitude":"51.611674","street":{"id":983667,"name":"On or near Fore Street"},"longitude":"-0.065057"},"context":"","outcome_status":null,"persistent_id":"","id":74284550,"location_subtype":"","month":"2019-05"},{"category":"anti-social-behaviour","location_type":"Force","location":{"latitude":"51.611674","street":{"id":983667,"name":"On or near Fore Street"},"longitude":"-0.065057"},"context":"","outcome_status":null,"persistent_id":"","id":74284549,"location_subtype":"","month":"2019-05"},{"category":"anti-social-behaviour","location_type":"Force","location":{"latitude":"51.617701","street":{"id":983706,"name":"On or near Park Road"},"longitude":"-0.065133"},"context":"","outcome_status":null,"persistent_id":"","id":74284551,"location_subtype":"","month":"2019-05"},{"category":"anti-social-behaviour","location_type":"Force","location":{"latitude":"51.617701","street":{"id":983706,"name":"On or near Park Road"},"longitude":"-0.065133"},"context":"","outcome_status":null,"persistent_id":"","id":74284552,"location_subtype":"","month":"2019-05"},{"category":"anti-social-behaviour","location_type":"Force","location":{"latitude":"51.617701","street":{"id":983706,"name":"On or near Park Road"},"longitude":"-0.065133"},"context":"","outcome_status":null,"persistent_id":"","id":74284553,"location_subtype":"","month":"2019-05"},{"category":"anti-social-behaviour","location_type":"Force","location":{"latitude":"51.612618","street":{"id":983675,"name":"On or near Colyton Way"},"longitude":"-0.065595"},"context":"","outcome_status":null,"persistent_id":"","id":74284554,"location_subtype":"","month":"2019-05"},{"category":"anti-social-behaviour","location_type":"Force","location":{"latitude":"51.609530","street":{"id":981653,"name":"On or near Nutfield Close"},"longitude":"-0.065899"},"context":"","outcome_status":null,"persistent_id":"","id":74284555,"location_subtype":"","month":"2019-05"},{"category":"anti-social-behaviour","location_type":"Force","location":{"latitude":"51.619753","street":{"id":983704,"name":"On or near Pycroft Way"},"longitude":"-0.065277"},"context":"","outcome_status":null,"persistent_id":"","id":74284556,"location_subtype":"","month":"2019-05"},{"category":"anti-social-behaviour","location_type":"Force","location":{"latitude":"51.622533","street":{"id":983722,"name":"On or near Chauncey Close"},"longitude":"-0.064826"},"context":"","outcome_status":null,"persistent_id":"","id":74284560,"location_subtype":"","month":"2019-05"},{"category":"anti-social-behaviour","location_type":"Force","location":{"latitude":"51.618825","street":{"id":983693,"name":"On or near Sycamore Close"},"longitude":"-0.065692"},"context":"","outcome_status":null,"persistent_id":"","id":74284561,"location_subtype":"","month":"2019-05"},{"category":"anti-social-behaviour","location_type":"Force","location":{"latitude":"51.615392","street":{"id":983680,"name":"On or near Angel Close"},"longitude":"-0.065274"},"context":"","outcome_status":null,"persistent_id":"","id":74284563,"location_subtype":"","month":"2019-05"},{"category":"anti-social-behaviour","location_type":"Force","location":{"latitude":"51.615392","street":{"id":983680,"name":"On or near Angel Close"},"longitude":"-0.065274"},"context":"","outcome_status":null,"persistent_id":"","id":74284562,"location_subtype":"","month":"2019-05"},{"category":"anti-social-behaviour","location_type":"Force","location":{"latitude":"51.615392","street":{"id":983680,"name":"On or near Angel Close"},"longitude":"-0.065274"},"context":"","outcome_status":null,"persistent_id":"","id":74284564,"location_subtype":"","month":"2019-05"},{"category":"anti-social-behaviour","location_type":"Force","location":{"latitude":"51.612641","street":{"id":983666,"name":"On or near Gilpin Crescent"},"longitude":"-0.066417"},"context":"","outcome_status":null,"persistent_id":"","id":74284565,"location_subtype":"","month":"2019-05"},{"category":"anti-social-behaviour","location_type":"Force","location":{"latitude":"51.610005","street":{"id":981644,"name":"On or near Snell's Park"},"longitude":"-0.067468"},"context":"","outcome_status":null,"persistent_id":"","id":74284566,"location_subtype":"","month":"2019-05"},{"category":"anti-social-behaviour","location_type":"Force","location":{"latitude":"51.612131","street":{"id":983660,"name":"On or near Joyce Avenue"},"longitude":"-0.067117"},"context":"","outcome_status":null,"persistent_id":"","id":74284570,"location_subtype":"","month":"2019-05"},{"category":"anti-social-behaviour","location_type":"Force","location":{"latitude":"51.612131","street":{"id":983660,"name":"On or near Joyce Avenue"},"longitude":"-0.067117"},"context":"","outcome_status":null,"persistent_id":"","id":74284571,"location_subtype":"","month":"2019-05"},{"category":"anti-social-behaviour","location_type":"Force","location":{"latitude":"51.610826","street":{"id":983739,"name":"On or near Grove Street"},"longitude":"-0.067072"},"context":"","outcome_status":null,"persistent_id":"","id":74284573,"location_subtype":"","month":"2019-05"},{"category":"anti-social-behaviour","location_type":"Force","location":{"latitude":"51.608581","street":{"id":981664,"name":"On or near Langhedge Lane"},"longitude":"-0.067817"},"context":"","outcome_status":null,"persistent_id":"","id":74284576,"location_subtype":"","month":"2019-05"},{"category":"anti-social-behaviour","location_type":"Force","location":{"latitude":"51.612131","street":{"id":983660,"name":"On or near Joyce Avenue"},"longitude":"-0.067117"},"context":"","outcome_status":null,"persistent_id":"","id":74284577,"location_subtype":"","month":"2019-05"},{"category":"anti-social-behaviour","location_type":"Force","location":{"latitude":"51.610826","street":{"id":983739,"name":"On or near Grove Street"},"longitude":"-0.067072"},"context":"","outcome_status":null,"persistent_id":"","id":74284578,"location_subtype":"","month":"2019-05"},{"category":"anti-social-behaviour","location_type":"Force","location":{"latitude":"51.609508","street":{"id":981666,"name":"On or near Langhedge Close"},"longitude":"-0.068933"},"context":"","outcome_status":null,"persistent_id":"","id":74284580,"location_subtype":"","month":"2019-05"},{"category":"anti-social-behaviour","location_type":"Force","location":{"latitude":"51.609508","street":{"id":981666,"name":"On or near Langhedge Close"},"longitude":"-0.068933"},"context":"","outcome_status":null,"persistent_id":"","id":74284581,"location_subtype":"","month":"2019-05"},{"category":"anti-social-behaviour","location_type":"Force","location":{"latitude":"51.609508","street":{"id":981666,"name":"On or near Langhedge Close"},"longitude":"-0.068933"},"context":"","outcome_status":null,"persistent_id":"","id":74284583,"location_subtype":"","month":"2019-05"},{"category":"anti-social-behaviour","location_type":"Force","location":{"latitude":"51.614755","street":{"id":983637,"name":"On or near Victoria Road"},"longitude":"-0.068118"},"context":"","outcome_status":null,"persistent_id":"","id":74284587,"location_subtype":"","month":"2019-05"},{"category":"anti-social-behaviour","location_type":"Force","location":{"latitude":"51.614755","street":{"id":983637,"name":"On or near Victoria Road"},"longitude":"-0.068118"},"context":"","outcome_status":null,"persistent_id":"","id":74284588,"location_subtype":"","month":"2019-05"},{"category":"anti-social-behaviour","location_type":"Force","location":{"latitude":"51.609508","street":{"id":981666,"name":"On or near Langhedge Close"},"longitude":"-0.068933"},"context":"","outcome_status":null,"persistent_id":"","id":74284590,"location_subtype":"","month":"2019-05"},{"category":"anti-social-behaviour","location_type":"Force","location":{"latitude":"51.609508","street":{"id":981666,"name":"On or near Langhedge Close"},"longitude":"-0.068933"},"context":"","outcome_status":null,"persistent_id":"","id":74284591,"location_subtype":"","month":"2019-05"},{"category":"anti-social-behaviour","location_type":"Force","location":{"latitude":"51.609508","street":{"id":981666,"name":"On or near Langhedge Close"},"longitude":"-0.068933"},"context":"","outcome_status":null,"persistent_id":"","id":74284592,"location_subtype":"","month":"2019-05"},{"category":"anti-social-behaviour","location_type":"Force","location":{"latitude":"51.613049","street":{"id":983658,"name":"On or near Lancaster Road"},"longitude":"-0.068812"},"context":"","outcome_status":null,"persistent_id":"","id":74284596,"location_subtype":"","month":"2019-05"},{"category":"anti-social-behaviour","location_type":"Force","location":{"latitude":"51.611195","street":{"id":983747,"name":"On or near Hawthorne Road"},"longitude":"-0.070898"},"context":"","outcome_status":null,"persistent_id":"","id":74284601,"location_subtype":"","month":"2019-05"},{"category":"anti-social-behaviour","location_type":"Force","location":{"latitude":"51.611195","street":{"id":983747,"name":"On or near Hawthorne Road"},"longitude":"-0.070898"},"context":"","outcome_status":null,"persistent_id":"","id":74284599,"location_subtype":"","month":"2019-05"},{"category":"anti-social-behaviour","location_type":"Force","location":{"latitude":"51.611184","street":{"id":983752,"name":"On or near Branksome Avenue"},"longitude":"-0.071852"},"context":"","outcome_status":null,"persistent_id":"","id":74284607,"location_subtype":"","month":"2019-05"},{"category":"anti-social-behaviour","location_type":"Force","location":{"latitude":"51.611184","street":{"id":983752,"name":"On or near Branksome Avenue"},"longitude":"-0.071852"},"context":"","outcome_status":null,"persistent_id":"","id":74284608,"location_subtype":"","month":"2019-05"},{"category":"anti-social-behaviour","location_type":"Force","location":{"latitude":"51.604723","street":{"id":981821,"name":"On or near Blaydon Walk"},"longitude":"-0.056890"},"context":"","outcome_status":null,"persistent_id":"","id":74288373,"location_subtype":"","month":"2019-05"},{"category":"anti-social-behaviour","location_type":"Force","location":{"latitude":"51.604723","street":{"id":981821,"name":"On or near Blaydon Walk"},"longitude":"-0.056890"},"context":"","outcome_status":null,"persistent_id":"","id":74288374,"location_subtype":"","month":"2019-05"},{"category":"anti-social-behaviour","location_type":"Force","location":{"latitude":"51.605472","street":{"id":981809,"name":"On or near Morpeth Walk"},"longitude":"-0.056483"},"context":"","outcome_status":null,"persistent_id":"","id":74288376,"location_subtype":"","month":"2019-05"},{"category":"anti-social-behaviour","location_type":"Force","location":{"latitude":"51.603358","street":{"id":981808,"name":"On or near Northumberland Grove"},"longitude":"-0.057512"},"context":"","outcome_status":null,"persistent_id":"","id":74288382,"location_subtype":"","month":"2019-05"},{"category":"anti-social-behaviour","location_type":"Force","location":{"latitude":"51.605596","street":{"id":981681,"name":"On or near Copper Close"},"longitude":"-0.058571"},"context":"","outcome_status":null,"persistent_id":"","id":74288386,"location_subtype":"","month":"2019-05"},{"category":"anti-social-behaviour","location_type":"Force","location":{"latitude":"51.604100","street":{"id":981632,"name":"On or near Waverley Road"},"longitude":"-0.058895"},"context":"","outcome_status":null,"persistent_id":"","id":74288391,"location_subtype":"","month":"2019-05"},{"category":"anti-social-behaviour","location_type":"Force","location":{"latitude":"51.602264","street":{"id":981659,"name":"On or near Maple Place"},"longitude":"-0.059898"},"context":"","outcome_status":null,"persistent_id":"","id":74288392,"location_subtype":"","month":"2019-05"},{"category":"anti-social-behaviour","location_type":"Force","location":{"latitude":"51.602264","street":{"id":981659,"name":"On or near Maple Place"},"longitude":"-0.059898"},"context":"","outcome_status":null,"persistent_id":"","id":74288393,"location_subtype":"","month":"2019-05"},{"category":"anti-social-behaviour","location_type":"Force","location":{"latitude":"51.605583","street":{"id":981654,"name":"On or near Northumberland Park"},"longitude":"-0.060493"},"context":"","outcome_status":null,"persistent_id":"","id":74288396,"location_subtype":"","month":"2019-05"},{"category":"anti-social-behaviour","location_type":"Force","location":{"latitude":"51.605583","street":{"id":981654,"name":"On or near Northumberland Park"},"longitude":"-0.060493"},"context":"","outcome_status":null,"persistent_id":"","id":74288397,"location_subtype":"","month":"2019-05"},{"category":"anti-social-behaviour","location_type":"Force","location":{"latitude":"51.605583","street":{"id":981654,"name":"On or near Northumberland Park"},"longitude":"-0.060493"},"context":"","outcome_status":null,"persistent_id":"","id":74288398,"location_subtype":"","month":"2019-05"},{"category":"anti-social-behaviour","location_type":"Force","location":{"latitude":"51.607183","street":{"id":981639,"name":"On or near Tariff Road"},"longitude":"-0.061002"},"context":"","outcome_status":null,"persistent_id":"","id":74288401,"location_subtype":"","month":"2019-05"},{"category":"anti-social-behaviour","location_type":"Force","location":{"latitude":"51.604743","street":{"id":981635,"name":"On or near Trulock Road"},"longitude":"-0.062435"},"context":"","outcome_status":null,"persistent_id":"","id":74288406,"location_subtype":"","month":"2019-05"},{"category":"anti-social-behaviour","location_type":"Force","location":{"latitude":"51.601570","street":{"id":981641,"name":"On or near Sutherland Road"},"longitude":"-0.062555"},"context":"","outcome_status":null,"persistent_id":"","id":74288412,"location_subtype":"","month":"2019-05"},{"category":"anti-social-behaviour","location_type":"Force","location":{"latitude":"51.608761","street":{"id":981674,"name":"On or near Grange Road"},"longitude":"-0.062913"},"context":"","outcome_status":null,"persistent_id":"","id":74288416,"location_subtype":"","month":"2019-05"},{"category":"anti-social-behaviour","location_type":"Force","location":{"latitude":"51.601715","street":{"id":981634,"name":"On or near Vicarage Road"},"longitude":"-0.064239"},"context":"","outcome_status":null,"persistent_id":"","id":74288420,"location_subtype":"","month":"2019-05"},{"category":"anti-social-behaviour","location_type":"Force","location":{"latitude":"51.605770","street":{"id":981638,"name":"On or near Taylor Close"},"longitude":"-0.063647"},"context":"","outcome_status":null,"persistent_id":"","id":74288421,"location_subtype":"","month":"2019-05"},{"category":"anti-social-behaviour","location_type":"Force","location":{"latitude":"51.605770","street":{"id":981638,"name":"On or near Taylor Close"},"longitude":"-0.063647"},"context":"","outcome_status":null,"persistent_id":"","id":74288422,"location_subtype":"","month":"2019-05"},{"category":"anti-social-behaviour","location_type":"Force","location":{"latitude":"51.605770","street":{"id":981638,"name":"On or near Taylor Close"},"longitude":"-0.063647"},"context":"","outcome_status":null,"persistent_id":"","id":74288423,"location_subtype":"","month":"2019-05"},{"category":"anti-social-behaviour","location_type":"Force","location":{"latitude":"51.605770","street":{"id":981638,"name":"On or near Taylor Close"},"longitude":"-0.063647"},"context":"","outcome_status":null,"persistent_id":"","id":74288424,"location_subtype":"","month":"2019-05"},{"category":"bicycle-theft","location_type":"Force","location":{"latitude":"51.609197","street":{"id":981787,"name":"On or near Glover Drive"},"longitude":"-0.047961"},"context":"","outcome_status":{"category":"Status update unavailable","date":"2019-09"},"persistent_id":"8412d933da83b0d674ea1299556e15768ee7b166d6697f80648554f9e3a67634","id":74296501,"location_subtype":"","month":"2019-05"},{"category":"bicycle-theft","location_type":"Force","location":{"latitude":"51.612721","street":{"id":983463,"name":"On or near Burnham Road"},"longitude":"-0.026376"},"context":"","outcome_status":{"category":"Status update unavailable","date":"2019-09"},"persistent_id":"55a7900505051e2a0e378b56c0c65b58564b964f920063fb7885487213cfbced","id":74320430,"location_subtype":"","month":"2019-05"},{"category":"bicycle-theft","location_type":"Force","location":{"latitude":"51.614872","street":{"id":983636,"name":"On or near Victoria Road"},"longitude":"-0.068084"},"context":"","outcome_status":{"category":"Status update unavailable","date":"2019-09"},"persistent_id":"8b849b56f83968fba15a0237adea2b46c42c31eb084d303beebb71b75628e05f","id":74317900,"location_subtype":"","month":"2019-05"},{"category":"bicycle-theft","location_type":"Force","location":{"latitude":"51.622238","street":{"id":983731,"name":"On or near Police Station"},"longitude":"-0.061068"},"context":"","outcome_status":{"category":"Investigation complete; no suspect identified","date":"2020-03"},"persistent_id":"67764d3e46240312e5f8ee3004c579e3654d34f51b60b57d38880e9569e45694","id":74295433,"location_subtype":"","month":"2019-05"},{"category":"bicycle-theft","location_type":"Force","location":{"latitude":"51.606504","street":{"id":981690,"name":"On or near Bennetts Close"},"longitude":"-0.066735"},"context":"","outcome_status":{"category":"Status update unavailable","date":"2019-09"},"persistent_id":"24de8aaff5bbe27bb7f4f206f3a13b85184a5f4648e415b3477c786091832d29","id":74296510,"location_subtype":"","month":"2019-05"},{"category":"burglary","location_type":"Force","location":{"latitude":"51.606377","street":{"id":981652,"name":"On or near Offord Close"},"longitude":"-0.063939"},"context":"","outcome_status":{"category":"Status update unavailable","date":"2019-09"},"persistent_id":"2692c385d0bcc4e71c9d2160aa34b25b327b52d5ba7e562ffe661a299e44a120","id":74360851,"location_subtype":"","month":"2019-05"},{"category":"burglary","location_type":"Force","location":{"latitude":"51.611536","street":{"id":983673,"name":"On or near Cowper Road"},"longitude":"-0.064283"},"context":"","outcome_status":{"category":"Status update unavailable","date":"2019-09"},"persistent_id":"53187166b5518e5976152daec485e661db2a042dcf94ab749fc6e5fb75caf105","id":74289990,"location_subtype":"","month":"2019-05"},{"category":"burglary","location_type":"Force","location":{"latitude":"51.602762","street":{"id":981649,"name":"On or near Park Lane Close"},"longitude":"-0.062273"},"context":"","outcome_status":{"category":"Status update unavailable","date":"2019-09"},"persistent_id":"f96cf2ae96e4f31af75482e6bef31f78b1b91f18072e55b148893f579e3e4558","id":74290284,"location_subtype":"","month":"2019-05"},{"category":"burglary","location_type":"Force","location":{"latitude":"51.609719","street":{"id":981804,"name":"On or near Wensley Road"},"longitude":"-0.055594"},"context":"","outcome_status":{"category":"Status update unavailable","date":"2019-09"},"persistent_id":"2c291ebf424c41cc321f20c8e5adafe76c4b287e041bbc320fd285c9805cee72","id":74290688,"location_subtype":"","month":"2019-05"},{"category":"burglary","location_type":"Force","location":{"latitude":"51.616219","street":{"id":983668,"name":"On or near Fore Street"},"longitude":"-0.064156"},"context":"","outcome_status":{"category":"Status update unavailable","date":"2019-09"},"persistent_id":"f7d222ef5af800ac54159110cce7f88e667960a6190c0dba24635ac01b81d0c9","id":74298738,"location_subtype":"","month":"2019-05"},{"category":"burglary","location_type":"Force","location":{"latitude":"51.609530","street":{"id":981653,"name":"On or near Nutfield Close"},"longitude":"-0.065899"},"context":"","outcome_status":{"category":"Status update unavailable","date":"2019-09"},"persistent_id":"5685a7523b970128e85f2d8f814334a2cb9285627e05cf093d9e81c7d5a55fcf","id":74323155,"location_subtype":"","month":"2019-05"},{"category":"burglary","location_type":"Force","location":{"latitude":"51.621770","street":{"id":983727,"name":"On or near Barbot Close"},"longitude":"-0.063804"},"context":"","outcome_status":{"category":"Status update unavailable","date":"2019-09"},"persistent_id":"e6887083a85a188ecf36b4ea6fe45266fac86960ec996f3946cd5b0c5549c47f","id":74344301,"location_subtype":"","month":"2019-05"},{"category":"burglary","location_type":"Force","location":{"latitude":"51.621770","street":{"id":983727,"name":"On or near Barbot Close"},"longitude":"-0.063804"},"context":"","outcome_status":{"category":"Status update unavailable","date":"2019-09"},"persistent_id":"aeb04c59c7f9f3a7186f5cedf271d91749939c7839d297df3821badac8753d41","id":74344677,"location_subtype":"","month":"2019-05"},{"category":"burglary","location_type":"Force","location":{"latitude":"51.599334","street":{"id":981792,"name":"On or near Shelbourne Road"},"longitude":"-0.056196"},"context":"","outcome_status":{"category":"Status update unavailable","date":"2019-09"},"persistent_id":"b992677f3f8268fefd4452050299307f1fe23daf72f5787aa3c27a8785d0622a","id":74354101,"location_subtype":"","month":"2019-05"},{"category":"burglary","location_type":"Force","location":{"latitude":"51.604723","street":{"id":981821,"name":"On or near Blaydon Walk"},"longitude":"-0.056890"},"context":"","outcome_status":{"category":"Status update unavailable","date":"2019-09"},"persistent_id":"4b9f11727c87d273b083b0d5a3296702ad6b53064f862b5f50e3177b3d538719","id":74357389,"location_subtype":"","month":"2019-05"},{"category":"burglary","location_type":"Force","location":{"latitude":"51.624037","street":{"id":985510,"name":"On or near Shopping Area"},"longitude":"-0.058926"},"context":"","outcome_status":{"category":"Status update unavailable","date":"2019-09"},"persistent_id":"0e8987de04c10157a1e846768725d448594c852323b0cc0d4458301764a0438f","id":74291052,"location_subtype":"","month":"2019-05"},{"category":"burglary","location_type":"Force","location":{"latitude":"51.617264","street":{"id":983708,"name":"On or near Park Avenue"},"longitude":"-0.064819"},"context":"","outcome_status":{"category":"Status update unavailable","date":"2019-09"},"persistent_id":"99ec88cc65e89aa3e3a2c792dd36e516a1d2e40d26ff9154f4926fdf8a45f1bb","id":74291173,"location_subtype":"","month":"2019-05"},{"category":"burglary","location_type":"Force","location":{"latitude":"51.626191","street":{"id":985587,"name":"On or near St Martin's Road"},"longitude":"-0.055409"},"context":"","outcome_status":{"category":"Status update unavailable","date":"2019-09"},"persistent_id":"5b63d39f23f43f57ff7c37b36ee98a20c4dac2387001bc343475eb4cfe04695b","id":74292545,"location_subtype":"","month":"2019-05"},{"category":"burglary","location_type":"Force","location":{"latitude":"51.617701","street":{"id":983706,"name":"On or near Park Road"},"longitude":"-0.065133"},"context":"","outcome_status":{"category":"Status update unavailable","date":"2019-09"},"persistent_id":"4c701ed3af1919e4bf94d532e5a1d7f9a251808f03de3d87a6747d3308567507","id":74294214,"location_subtype":"","month":"2019-05"},{"category":"burglary","location_type":"Force","location":{"latitude":"51.626281","street":{"id":985549,"name":"On or near Dover Road"},"longitude":"-0.047849"},"context":"","outcome_status":{"category":"Status update unavailable","date":"2019-09"},"persistent_id":"0840575464c736901ecf6f4b49d0947cdb97aff88ec60ae174c6822ba15bf582","id":74308027,"location_subtype":"","month":"2019-05"},{"category":"burglary","location_type":"Force","location":{"latitude":"51.614372","street":{"id":983530,"name":"On or near Cavendish Close"},"longitude":"-0.053618"},"context":"","outcome_status":{"category":"Status update unavailable","date":"2019-09"},"persistent_id":"aefc4b3ca04a427926831db9968680a079f89b5c64d0257dedc0df69ae32f217","id":74309318,"location_subtype":"","month":"2019-05"},{"category":"burglary","location_type":"Force","location":{"latitude":"51.615857","street":{"id":983653,"name":"On or near Morley Avenue"},"longitude":"-0.061326"},"context":"","outcome_status":{"category":"Status update unavailable","date":"2019-09"},"persistent_id":"eb317376908d079ae98028d843767626869f2043139569167fc68475728e9942","id":74305123,"location_subtype":"","month":"2019-05"},{"category":"burglary","location_type":"Force","location":{"latitude":"51.624812","street":{"id":985551,"name":"On or near Densworth Grove"},"longitude":"-0.048736"},"context":"","outcome_status":{"category":"Status update unavailable","date":"2019-09"},"persistent_id":"b2006729c68b22326eac036d8a2f05773b7f2e516c6e4679f31713e902fc7142","id":74322995,"location_subtype":"","month":"2019-05"},{"category":"burglary","location_type":"Force","location":{"latitude":"51.610074","street":{"id":983741,"name":"On or near Claremont Street"},"longitude":"-0.063464"},"context":"","outcome_status":{"category":"Status update unavailable","date":"2019-09"},"persistent_id":"5d0291d1590db12f954a9f4c9d7763941ccdad2dda046f037c928a423adc0fd5","id":74323885,"location_subtype":"","month":"2019-05"},{"category":"burglary","location_type":"Force","location":{"latitude":"51.605596","street":{"id":981681,"name":"On or near Copper Close"},"longitude":"-0.058571"},"context":"","outcome_status":{"category":"Status update unavailable","date":"2019-09"},"persistent_id":"b9fe6fc5b962769bace42643c7e96831b33a84fd070e6e2fa224a912249397c7","id":74313215,"location_subtype":"","month":"2019-05"},{"category":"burglary","location_type":"Force","location":{"latitude":"51.609665","street":{"id":981814,"name":"On or near Hawes Road"},"longitude":"-0.057762"},"context":"","outcome_status":{"category":"Status update unavailable","date":"2019-09"},"persistent_id":"7d9291962ed0b11dcb7be70085cd83eac02b830e51c398870cbce62a28c0dc0a","id":74326477,"location_subtype":"","month":"2019-05"},{"category":"burglary","location_type":"Force","location":{"latitude":"51.605770","street":{"id":981638,"name":"On or near Taylor Close"},"longitude":"-0.063647"},"context":"","outcome_status":{"category":"Status update unavailable","date":"2019-09"},"persistent_id":"9e23ed4e1cecf103bac61930ae55dc1ee590eb2a0d1f699af507fc213d87036f","id":74306314,"location_subtype":"","month":"2019-05"},{"category":"burglary","location_type":"Force","location":{"latitude":"51.605421","street":{"id":981802,"name":"On or near Willoughby Grove"},"longitude":"-0.055589"},"context":"","outcome_status":{"category":"Status update unavailable","date":"2019-09"},"persistent_id":"dafefcd36a34ad204889966cadc1c73b2716951609fb8eaf7805a710a5301ba0","id":74319029,"location_subtype":"","month":"2019-05"},{"category":"burglary","location_type":"Force","location":{"latitude":"51.608761","street":{"id":981674,"name":"On or near Grange Road"},"longitude":"-0.062913"},"context":"","outcome_status":{"category":"Status update unavailable","date":"2019-09"},"persistent_id":"b664aa1d1bc2334ec2a2fc20048f41e49d268ea518515454b2f53eeeb84d1bce","id":74319334,"location_subtype":"","month":"2019-05"},{"category":"burglary","location_type":"Force","location":{"latitude":"51.605230","street":{"id":981790,"name":"On or near Shopping Area"},"longitude":"-0.047871"},"context":"","outcome_status":{"category":"Status update unavailable","date":"2019-09"},"persistent_id":"e8b5f79fb4d602c980f88e66455669f7e7c29af147ebdd93ad373fb4b1b34c74","id":74329500,"location_subtype":"","month":"2019-05"},{"category":"burglary","location_type":"Force","location":{"latitude":"51.603358","street":{"id":981808,"name":"On or near Northumberland Grove"},"longitude":"-0.057512"},"context":"","outcome_status":{"category":"Status update unavailable","date":"2019-09"},"persistent_id":"101fe90d179510611af05c953e1c5b7b152cee64fafb3ffbcbadba4f498f1faf","id":74332834,"location_subtype":"","month":"2019-05"},{"category":"burglary","location_type":"Force","location":{"latitude":"51.603358","street":{"id":981808,"name":"On or near Northumberland Grove"},"longitude":"-0.057512"},"context":"","outcome_status":{"category":"Status update unavailable","date":"2019-09"},"persistent_id":"7c911dea96f324a0b51de14ce1652f82cc384afc8b81de497da292f3386a86db","id":74334861,"location_subtype":"","month":"2019-05"},{"category":"burglary","location_type":"Force","location":{"latitude":"51.620984","street":{"id":983700,"name":"On or near Shrubbery Road"},"longitude":"-0.063000"},"context":"","outcome_status":{"category":"Status update unavailable","date":"2019-09"},"persistent_id":"b7efeeb87c3070fa42bd1db3b50bde1615b53efed54025a2243a3ccc93855206","id":74345767,"location_subtype":"","month":"2019-05"},{"category":"burglary","location_type":"Force","location":{"latitude":"51.609299","street":{"id":981658,"name":"On or near Middleham Gardens"},"longitude":"-0.063324"},"context":"","outcome_status":{"category":"Status update unavailable","date":"2019-09"},"persistent_id":"9b17ce075402b29e088f1f4a52893a5f608ccc20b79da4473881359fce778e2a","id":74346325,"location_subtype":"","month":"2019-05"},{"category":"burglary","location_type":"Force","location":{"latitude":"51.610634","street":{"id":983743,"name":"On or near Alpha Road"},"longitude":"-0.064148"},"context":"","outcome_status":{"category":"Status update unavailable","date":"2019-09"},"persistent_id":"95164404e6dd5c77dc4313dbd1e15c561a8776d729c4d7aa082d83cdbca17b54","id":74346863,"location_subtype":"","month":"2019-05"},{"category":"burglary","location_type":"Force","location":{"latitude":"51.620409","street":{"id":983726,"name":"On or near Beaconsfield Road"},"longitude":"-0.060857"},"context":"","outcome_status":{"category":"Status update unavailable","date":"2019-09"},"persistent_id":"d0ab703d5a78b2f60889cbfe1a71c730f715e7d5538240e2f17343b9b4b50428","id":74320650,"location_subtype":"","month":"2019-05"},{"category":"burglary","location_type":"Force","location":{"latitude":"51.616937","street":{"id":983649,"name":"On or near Reculver Mews"},"longitude":"-0.061352"},"context":"","outcome_status":{"category":"Status update unavailable","date":"2019-09"},"persistent_id":"ecad6939c24e5a49dfac5a155fa43fe7b13ef4260183efd6c9b4c69ec55da2b1","id":74348369,"location_subtype":"","month":"2019-05"},{"category":"burglary","location_type":"Force","location":{"latitude":"51.622238","street":{"id":983731,"name":"On or near Police Station"},"longitude":"-0.061068"},"context":"","outcome_status":{"category":"Investigation complete; no suspect identified","date":"2020-04"},"persistent_id":"64a2c3cf972fa24ef0ca4090ee8926b26dca1907454daa2bcbca515261730c2e","id":74348568,"location_subtype":"","month":"2019-05"},{"category":"burglary","location_type":"Force","location":{"latitude":"51.607183","street":{"id":981639,"name":"On or near Tariff Road"},"longitude":"-0.061002"},"context":"","outcome_status":{"category":"Offender given community sentence","date":"2019-05"},"persistent_id":"305362d61259fcc73ecbdd4adc91be4f4fb6103d54d7edf33109977cbd9a2ac9","id":74312527,"location_subtype":"","month":"2019-05"},{"category":"burglary","location_type":"Force","location":{"latitude":"51.601715","street":{"id":981634,"name":"On or near Vicarage Road"},"longitude":"-0.064239"},"context":"","outcome_status":{"category":"Court result unavailable","date":"2020-01"},"persistent_id":"94ad666988a57a8899b88225cc4ccaf5803ce4f74fa240026f97b4f720863e27","id":74355929,"location_subtype":"","month":"2019-05"},{"category":"criminal-damage-arson","location_type":"Force","location":{"latitude":"51.625904","street":{"id":985581,"name":"On or near Westoe Road"},"longitude":"-0.053847"},"context":"","outcome_status":{"category":"Status update unavailable","date":"2019-09"},"persistent_id":"15abefef22d6e91c876b8a6e69bad901a16c63b2490feca3e00a26273de844d6","id":74317348,"location_subtype":"","month":"2019-05"},{"category":"criminal-damage-arson","location_type":"Force","location":{"latitude":"51.624050","street":{"id":985511,"name":"On or near Shopping Area"},"longitude":"-0.057538"},"context":"","outcome_status":{"category":"Status update unavailable","date":"2019-09"},"persistent_id":"132dbfabae6e0942200390fcc71312670ddcbc308854414f10ad4e53debd03ff","id":74350688,"location_subtype":"","month":"2019-05"},{"category":"criminal-damage-arson","location_type":"Force","location":{"latitude":"51.604478","street":{"id":981775,"name":"On or near Farningham Road"},"longitude":"-0.060583"},"context":"","outcome_status":{"category":"Status update unavailable","date":"2019-09"},"persistent_id":"9af2eb4cfb37c712ca85b17c9b45d9b76e3680d8540174edc560b85271ebda6a","id":74338426,"location_subtype":"","month":"2019-05"},{"category":"criminal-damage-arson","location_type":"Force","location":{"latitude":"51.623624","street":{"id":985506,"name":"On or near Galahad Road"},"longitude":"-0.062786"},"context":"","outcome_status":{"category":"Status update unavailable","date":"2019-09"},"persistent_id":"f10eb314758ef6a715668c755dd3f72bb602017610fd536bb035b03a7d89aadc","id":74338298,"location_subtype":"","month":"2019-05"},{"category":"criminal-damage-arson","location_type":"Force","location":{"latitude":"51.624028","street":{"id":985509,"name":"On or near Shopping Area"},"longitude":"-0.057842"},"context":"","outcome_status":{"category":"Status update unavailable","date":"2019-09"},"persistent_id":"5786bd5e0837d3df387e45576b8eb00878bf96544ca1311693334bd08e464548","id":74342521,"location_subtype":"","month":"2019-05"},{"category":"criminal-damage-arson","location_type":"Force","location":{"latitude":"51.617264","street":{"id":983708,"name":"On or near Park Avenue"},"longitude":"-0.064819"},"context":"","outcome_status":{"category":"Status update unavailable","date":"2019-09"},"persistent_id":"4b70b130ffae019cad0067f708389b03de7f3c3c70033cc4f9ca115e457f4449","id":74338293,"location_subtype":"","month":"2019-05"},{"category":"criminal-damage-arson","location_type":"Force","location":{"latitude":"51.602255","street":{"id":981807,"name":"On or near Park Avenue Road"},"longitude":"-0.054454"},"context":"","outcome_status":{"category":"Status update unavailable","date":"2019-09"},"persistent_id":"939a9bf97737c47ceb74f0667d49e1e7f3a173b0768a63eb121c0034d231bb25","id":74342098,"location_subtype":"","month":"2019-05"},{"category":"criminal-damage-arson","location_type":"Force","location":{"latitude":"51.623578","street":{"id":985512,"name":"On or near Further\/higher Educational Building"},"longitude":"-0.058916"},"context":"","outcome_status":{"category":"Court result unavailable","date":"2020-01"},"persistent_id":"19bb0a631e5a911f6e92b94b9174e49b06136a1af20d58e65fe65da7fa29edac","id":74330956,"location_subtype":"","month":"2019-05"},{"category":"criminal-damage-arson","location_type":"Force","location":{"latitude":"51.624050","street":{"id":985511,"name":"On or near Shopping Area"},"longitude":"-0.057538"},"context":"","outcome_status":{"category":"Status update unavailable","date":"2019-09"},"persistent_id":"32f36e58efa3894b1a7c22c2f33da1a4dff4ba62542478067fcb898093e23b68","id":74334230,"location_subtype":"","month":"2019-05"},{"category":"criminal-damage-arson","location_type":"Force","location":{"latitude":"51.611674","street":{"id":983667,"name":"On or near Fore Street"},"longitude":"-0.065057"},"context":"","outcome_status":{"category":"Investigation complete; no suspect identified","date":"2020-03"},"persistent_id":"a9bb2564d119573fd7d88b453950ebd555daffd0ee19f9a7ef8fda0b143bc386","id":74324900,"location_subtype":"","month":"2019-05"},{"category":"criminal-damage-arson","location_type":"Force","location":{"latitude":"51.616316","street":{"id":983654,"name":"On or near Moree Way"},"longitude":"-0.064614"},"context":"","outcome_status":{"category":"Status update unavailable","date":"2019-09"},"persistent_id":"10eb01610a38f9dc4a419dc8b838ca6dfd117ccadfd88b468d0f7c9118a5cb9d","id":74318408,"location_subtype":"","month":"2019-05"},{"category":"criminal-damage-arson","location_type":"Force","location":{"latitude":"51.612618","street":{"id":983675,"name":"On or near Colyton Way"},"longitude":"-0.065595"},"context":"","outcome_status":{"category":"Status update unavailable","date":"2019-09"},"persistent_id":"39cc5bcd7390c0cb12cf2467bd271a88bc3b103947d4904e10f389ce4bad2ab1","id":74318604,"location_subtype":"","month":"2019-05"},{"category":"criminal-damage-arson","location_type":"Force","location":{"latitude":"51.615459","street":{"id":983531,"name":"On or near Cameron Close"},"longitude":"-0.054120"},"context":"","outcome_status":{"category":"Status update unavailable","date":"2019-09"},"persistent_id":"ca618ea7637a01b631624fe996cc8e6ec1d1486977c12107b269b3ed90aba671","id":74315383,"location_subtype":"","month":"2019-05"},{"category":"criminal-damage-arson","location_type":"Force","location":{"latitude":"51.604100","street":{"id":981632,"name":"On or near Waverley Road"},"longitude":"-0.058895"},"context":"","outcome_status":{"category":"Status update unavailable","date":"2019-09"},"persistent_id":"7065ec75cdf6b0757534273cfb6fd1b431b29922da7ab67644c291ccc1dc0059","id":74314319,"location_subtype":"","month":"2019-05"},{"category":"criminal-damage-arson","location_type":"Force","location":{"latitude":"51.623578","street":{"id":985512,"name":"On or near Further\/higher Educational Building"},"longitude":"-0.058916"},"context":"","outcome_status":{"category":"Status update unavailable","date":"2019-09"},"persistent_id":"b9a5855a22f24cdf4bf8de562eda264137735ccf8412c95796e91045f47149e8","id":74306145,"location_subtype":"","month":"2019-05"},{"category":"criminal-damage-arson","location_type":"Force","location":{"latitude":"51.624037","street":{"id":985510,"name":"On or near Shopping Area"},"longitude":"-0.058926"},"context":"","outcome_status":{"category":"Status update unavailable","date":"2019-09"},"persistent_id":"d3e9b63fbb332a3cadac25d7da35fef6772dd77cf6a983c60d05de70efda9f78","id":74312966,"location_subtype":"","month":"2019-05"},{"category":"criminal-damage-arson","location_type":"Force","location":{"latitude":"51.599334","street":{"id":981792,"name":"On or near Shelbourne Road"},"longitude":"-0.056196"},"context":"","outcome_status":{"category":"Status update unavailable","date":"2019-09"},"persistent_id":"56f4f76b8eb5d0b33835bd641749385414ba88a6f2efe3fc0b0b53f9cc9078fb","id":74311922,"location_subtype":"","month":"2019-05"},{"category":"criminal-damage-arson","location_type":"Force","location":{"latitude":"51.616951","street":{"id":983554,"name":"On or near Becket Road"},"longitude":"-0.049752"},"context":"","outcome_status":{"category":"Status update unavailable","date":"2019-09"},"persistent_id":"c261ae8d38c5392f2442777f828b680dfc7806a64f5ff425f5863f9be179c85f","id":74324518,"location_subtype":"","month":"2019-05"},{"category":"criminal-damage-arson","location_type":"Force","location":{"latitude":"51.613753","street":{"id":983677,"name":"On or near College Close"},"longitude":"-0.067337"},"context":"","outcome_status":{"category":"Local resolution","date":"2019-06"},"persistent_id":"0e935049bf3c63cde3a4e46a52aefb5ded90d5f76edee6c6ec03cdddde146135","id":74324488,"location_subtype":"","month":"2019-05"},{"category":"criminal-damage-arson","location_type":"Force","location":{"latitude":"51.613167","street":{"id":983438,"name":"On or near Cork Tree Way"},"longitude":"-0.030964"},"context":"","outcome_status":{"category":"Investigation complete; no suspect identified","date":"2020-03"},"persistent_id":"7b3f4a12d01b71e674fd79c9bec7d0bfff171285f8d6bb2bda1813a7853d142e","id":74324403,"location_subtype":"","month":"2019-05"},{"category":"criminal-damage-arson","location_type":"Force","location":{"latitude":"51.624050","street":{"id":985511,"name":"On or near Shopping Area"},"longitude":"-0.057538"},"context":"","outcome_status":{"category":"Status update unavailable","date":"2019-09"},"persistent_id":"8780eca617d07a03cd9226163af6c64e03f03e0faf86bbeba09a76338463fc32","id":74295627,"location_subtype":"","month":"2019-05"},{"category":"criminal-damage-arson","location_type":"Force","location":{"latitude":"51.609953","street":{"id":983575,"name":"On or near Supermarket"},"longitude":"-0.048550"},"context":"","outcome_status":{"category":"Status update unavailable","date":"2019-09"},"persistent_id":"68090af8bdb98511e7886fab77725b7f8dc8a708272b1a798205d23075405bb5","id":74291198,"location_subtype":"","month":"2019-05"},{"category":"criminal-damage-arson","location_type":"Force","location":{"latitude":"51.619925","street":{"id":983718,"name":"On or near Felixstowe Road"},"longitude":"-0.058812"},"context":"","outcome_status":{"category":"Status update unavailable","date":"2019-09"},"persistent_id":"072405d82eaf459ef9af364b57d9ac6e29f9a11530dfbdba62bc95d531299135","id":74323927,"location_subtype":"","month":"2019-05"},{"category":"criminal-damage-arson","location_type":"Force","location":{"latitude":"51.617542","street":{"id":983710,"name":"On or near North Avenue"},"longitude":"-0.059347"},"context":"","outcome_status":{"category":"Status update unavailable","date":"2019-09"},"persistent_id":"a776a642b6412dca17203303f24d0b5de5407692317386a50843e3d938e7b0b8","id":74291469,"location_subtype":"","month":"2019-05"},{"category":"criminal-damage-arson","location_type":"Force","location":{"latitude":"51.601178","street":{"id":981811,"name":"On or near Manor Road"},"longitude":"-0.055684"},"context":"","outcome_status":{"category":"Status update unavailable","date":"2019-09"},"persistent_id":"6ed006d08531fda84ae7989dde65501b6c9eab07fd5d8ae44f4e47fcd1772db3","id":74294504,"location_subtype":"","month":"2019-05"},{"category":"criminal-damage-arson","location_type":"Force","location":{"latitude":"51.611992","street":{"id":983644,"name":"On or near Seaton Street"},"longitude":"-0.060884"},"context":"","outcome_status":{"category":"Status update unavailable","date":"2019-09"},"persistent_id":"5130b5e3b73e56eff620ce0bd059e6134b30234f22f468877787d5bead16775e","id":74291674,"location_subtype":"","month":"2019-05"},{"category":"criminal-damage-arson","location_type":"Force","location":{"latitude":"51.606072","street":{"id":981676,"name":"On or near Gillham Terrace"},"longitude":"-0.061815"},"context":"","outcome_status":{"category":"Status update unavailable","date":"2019-09"},"persistent_id":"560b1926df56b7caa0ec732e9ce85730655b285cb20e54b67fcaa11056ca1533","id":74301879,"location_subtype":"","month":"2019-05"},{"category":"criminal-damage-arson","location_type":"Force","location":{"latitude":"51.614673","street":{"id":983640,"name":"On or near Sterling Way"},"longitude":"-0.065868"},"context":"","outcome_status":{"category":"Status update unavailable","date":"2019-09"},"persistent_id":"dfca57b5c604e82db7d557bcef0edbbe2002649ce634e9ea27a1c2da5a12b3ce","id":74368219,"location_subtype":"","month":"2019-05"},{"category":"criminal-damage-arson","location_type":"Force","location":{"latitude":"51.625418","street":{"id":985627,"name":"On or near Supermarket"},"longitude":"-0.056526"},"context":"","outcome_status":{"category":"Status update unavailable","date":"2019-09"},"persistent_id":"b43595e55229941cf145a8053c8cce8028b87cd2713f5ac662f64e4cb60c2cdf","id":74358026,"location_subtype":"","month":"2019-05"},{"category":"criminal-damage-arson","location_type":"Force","location":{"latitude":"51.622057","street":{"id":983705,"name":"On or near Peel Close"},"longitude":"-0.060455"},"context":"","outcome_status":{"category":"Local resolution","date":"2019-05"},"persistent_id":"188051305e394d7ba933c0ea3d26aeb86f8cff6294caa23fa9da98a412f35d07","id":74318673,"location_subtype":"","month":"2019-05"},{"category":"criminal-damage-arson","location_type":"Force","location":{"latitude":"51.602433","street":{"id":981650,"name":"On or near Park Lane"},"longitude":"-0.061407"},"context":"","outcome_status":{"category":"Court result unavailable","date":"2019-12"},"persistent_id":"b8d5bd9279df1b9a99dafb3b8f9060d51e043ca1cbbde5ce4227548002672f9d","id":74308229,"location_subtype":"","month":"2019-05"},{"category":"criminal-damage-arson","location_type":"Force","location":{"latitude":"51.616316","street":{"id":983654,"name":"On or near Moree Way"},"longitude":"-0.064614"},"context":"","outcome_status":{"category":"Status update unavailable","date":"2019-09"},"persistent_id":"de6b7179d9fda9c0047f5193aa8846eb1ac89e8a3339b4fdde279e68e2366b0d","id":74351078,"location_subtype":"","month":"2019-05"},{"category":"criminal-damage-arson","location_type":"Force","location":{"latitude":"51.600150","street":{"id":981918,"name":"On or near Lawrence Avenue"},"longitude":"-0.037115"},"context":"","outcome_status":{"category":"Investigation complete; no suspect identified","date":"2020-03"},"persistent_id":"77f826cdbf5081236e2dbdef10b22fcea2e2fd2ea4ceb5bb7e9a7df2724b01f8","id":74350355,"location_subtype":"","month":"2019-05"},{"category":"criminal-damage-arson","location_type":"Force","location":{"latitude":"51.609557","street":{"id":983507,"name":"On or near Cabinet Way"},"longitude":"-0.029647"},"context":"","outcome_status":{"category":"Status update unavailable","date":"2019-09"},"persistent_id":"a421de4f722427ffd30999bb27959953b3ceb28e4ae9f082eea94d1175c22838","id":74349178,"location_subtype":"","month":"2019-05"},{"category":"criminal-damage-arson","location_type":"Force","location":{"latitude":"51.600025","street":{"id":981780,"name":"On or near Travers Close"},"longitude":"-0.040961"},"context":"","outcome_status":{"category":"Status update unavailable","date":"2019-09"},"persistent_id":"4df2f8f0234cc871ae7764c7504f239419899afb699787f552ffa0471e8e4cd1","id":74348896,"location_subtype":"","month":"2019-05"},{"category":"criminal-damage-arson","location_type":"Force","location":{"latitude":"51.614673","street":{"id":983640,"name":"On or near Sterling Way"},"longitude":"-0.065868"},"context":"","outcome_status":{"category":"Status update unavailable","date":"2019-09"},"persistent_id":"4e8f7673531957e188df239824d4c7c6181b21cd2d2d7a1148063690f31523e1","id":74297535,"location_subtype":"","month":"2019-05"},{"category":"criminal-damage-arson","location_type":"Force","location":{"latitude":"51.608398","street":{"id":981818,"name":"On or near Dyson's Road"},"longitude":"-0.054509"},"context":"","outcome_status":{"category":"Status update unavailable","date":"2019-09"},"persistent_id":"32c407e302efb3272b387f7b3cfe9a2cc2454f9b1312f2244bd07bba3c07065e","id":74321774,"location_subtype":"","month":"2019-05"},{"category":"criminal-damage-arson","location_type":"Force","location":{"latitude":"51.612927","street":{"id":983625,"name":"On or near Parking Area"},"longitude":"-0.066304"},"context":"","outcome_status":{"category":"Status update unavailable","date":"2019-09"},"persistent_id":"ad9b3711089bf1bf9dfc3e5c086e0f0198dc42122bebe367d3b81bbecf9a03b7","id":74354831,"location_subtype":"","month":"2019-05"},{"category":"criminal-damage-arson","location_type":"Force","location":{"latitude":"51.613225","street":{"id":983657,"name":"On or near Leeds Street"},"longitude":"-0.063662"},"context":"","outcome_status":{"category":"Court result unavailable","date":"2020-04"},"persistent_id":"5ee89b6328211bb73169be0b231e9b43fdf3af1fbd576b57716678d705be903e","id":74349644,"location_subtype":"","month":"2019-05"},{"category":"criminal-damage-arson","location_type":"Force","location":{"latitude":"51.609966","street":{"id":981685,"name":"On or near Clive Avenue"},"longitude":"-0.065057"},"context":"","outcome_status":{"category":"Status update unavailable","date":"2019-09"},"persistent_id":"f2184363f55e6fd32e8dad74d37ad8ab1d59122a269370ff764b86784ef3aeeb","id":74356196,"location_subtype":"","month":"2019-05"},{"category":"criminal-damage-arson","location_type":"Force","location":{"latitude":"51.617300","street":{"id":983729,"name":"On or near Argyle Road"},"longitude":"-0.058852"},"context":"","outcome_status":{"category":"Status update unavailable","date":"2019-09"},"persistent_id":"19817facf6912d7fb98c477f1f521eee049f17c769386709249338bb4312b6cd","id":74347268,"location_subtype":"","month":"2019-05"},{"category":"criminal-damage-arson","location_type":"Force","location":{"latitude":"51.601570","street":{"id":981641,"name":"On or near Sutherland Road"},"longitude":"-0.062555"},"context":"","outcome_status":{"category":"Status update unavailable","date":"2019-09"},"persistent_id":"a25d2c75f45dc80b0805f960b12caa1cc382d69569eaf2efe2b7f366be691ea1","id":74345944,"location_subtype":"","month":"2019-05"},{"category":"drugs","location_type":"Force","location":{"latitude":"51.614237","street":{"id":983520,"name":"On or near Kenninghall Road"},"longitude":"-0.050894"},"context":"","outcome_status":{"category":"Offender given penalty notice","date":"2019-05"},"persistent_id":"8699b57167f8aa48eba809dea489fafe2dc63a35dd5b7f046c775a03ccc14b6c","id":74317244,"location_subtype":"","month":"2019-05"},{"category":"drugs","location_type":"Force","location":{"latitude":"51.602762","street":{"id":981649,"name":"On or near Park Lane Close"},"longitude":"-0.062273"},"context":"","outcome_status":{"category":"Defendant sent to Crown Court","date":"2019-05"},"persistent_id":"f96cf2ae96e4f31af75482e6bef31f78b1b91f18072e55b148893f579e3e4558","id":74291394,"location_subtype":"","month":"2019-05"},{"category":"drugs","location_type":"Force","location":{"latitude":"51.624202","street":{"id":985502,"name":"On or near The Broadway"},"longitude":"-0.060753"},"context":"","outcome_status":{"category":"Local resolution","date":"2020-04"},"persistent_id":"1a7da664d0b608a2fb7c226902ac6491eacc6d822a9cdd366aa014d0491f4e3b","id":74303899,"location_subtype":"","month":"2019-05"},{"category":"drugs","location_type":"Force","location":{"latitude":"51.616862","street":{"id":983647,"name":"On or near Rose Mews"},"longitude":"-0.058466"},"context":"","outcome_status":{"category":"Local resolution","date":"2019-05"},"persistent_id":"afe1f865dbfe83ce5b6c40c873c21726ea42ef5ea6261cde4b3aaf077d1d5012","id":74337006,"location_subtype":"","month":"2019-05"},{"category":"drugs","location_type":"Force","location":{"latitude":"51.622238","street":{"id":983731,"name":"On or near Police Station"},"longitude":"-0.061068"},"context":"","outcome_status":{"category":"Offender given penalty notice","date":"2019-06"},"persistent_id":"b1ed4a9cbb262f8dbfbfe180caa1598bfe7e04dace0fc74417e272ae4286f981","id":74294912,"location_subtype":"","month":"2019-05"},{"category":"drugs","location_type":"Force","location":{"latitude":"51.624202","street":{"id":985502,"name":"On or near The Broadway"},"longitude":"-0.060753"},"context":"","outcome_status":{"category":"Court result unavailable","date":"2019-12"},"persistent_id":"74ff87305d9353baaba28775e363186fdb04306fd28746c95f79bfd4ece14541","id":74294780,"location_subtype":"","month":"2019-05"},{"category":"drugs","location_type":"Force","location":{"latitude":"51.606504","street":{"id":981690,"name":"On or near Bennetts Close"},"longitude":"-0.066735"},"context":"","outcome_status":{"category":"Local resolution","date":"2020-03"},"persistent_id":"4e6c114a3d8a3aeefe91a63af16626fa609b39ffcceb1bb22e3c83f44d18edb6","id":74328157,"location_subtype":"","month":"2019-05"},{"category":"drugs","location_type":"Force","location":{"latitude":"51.614981","street":{"id":983671,"name":"On or near Cuthbert Road"},"longitude":"-0.062706"},"context":"","outcome_status":{"category":"Local resolution","date":"2019-05"},"persistent_id":"d6129d172ebc817de547735f642fd76e70e305f463c5fc8a5b862426d255486b","id":74342905,"location_subtype":"","month":"2019-05"},{"category":"drugs","location_type":"Force","location":{"latitude":"51.610005","street":{"id":981644,"name":"On or near Snell's Park"},"longitude":"-0.067468"},"context":"","outcome_status":{"category":"Local resolution","date":"2019-05"},"persistent_id":"b7aabbffdda8e0688d9cecfea94cd95f748b5e6a0ba051f7bb3699c182a9c9b8","id":74348404,"location_subtype":"","month":"2019-05"},{"category":"drugs","location_type":"Force","location":{"latitude":"51.624050","street":{"id":985511,"name":"On or near Shopping Area"},"longitude":"-0.057538"},"context":"","outcome_status":{"category":"Offender given penalty notice","date":"2019-05"},"persistent_id":"89d02a1cb763cfaf7f98ac9ef8ce87f21b877bd4ec847de56696cb8d3048a071","id":74323828,"location_subtype":"","month":"2019-05"},{"category":"drugs","location_type":"Force","location":{"latitude":"51.610833","street":{"id":983736,"name":"On or near Thornaby Gardens"},"longitude":"-0.058232"},"context":"","outcome_status":{"category":"Local resolution","date":"2019-05"},"persistent_id":"24e80fa8c98e68dd78005c8a094699467b17ebf774ed59ab2af00ccc3ea8452e","id":74348211,"location_subtype":"","month":"2019-05"},{"category":"drugs","location_type":"Force","location":{"latitude":"51.624202","street":{"id":985502,"name":"On or near The Broadway"},"longitude":"-0.060753"},"context":"","outcome_status":{"category":"Local resolution","date":"2019-05"},"persistent_id":"5b9dcc3577b723008991ae8b857b39906278f04afd7c1f4f26796b5d469b1da0","id":74346484,"location_subtype":"","month":"2019-05"},{"category":"drugs","location_type":"Force","location":{"latitude":"51.610833","street":{"id":983736,"name":"On or near Thornaby Gardens"},"longitude":"-0.058232"},"context":"","outcome_status":{"category":"Local resolution","date":"2019-05"},"persistent_id":"10294fa917b7c0a18ecf4b2e515499d08899b125be818e0c4ef402d752627e09","id":74352613,"location_subtype":"","month":"2019-05"},{"category":"drugs","location_type":"Force","location":{"latitude":"51.602264","street":{"id":981659,"name":"On or near Maple Place"},"longitude":"-0.059898"},"context":"","outcome_status":{"category":"Local resolution","date":"2020-04"},"persistent_id":"4326c13080e55cd4ca8a0e1e0279144859bdd708fa1c84757a69839d80ff0e8f","id":74326324,"location_subtype":"","month":"2019-05"},{"category":"drugs","location_type":"Force","location":{"latitude":"51.625904","street":{"id":985581,"name":"On or near Westoe Road"},"longitude":"-0.053847"},"context":"","outcome_status":{"category":"Local resolution","date":"2019-05"},"persistent_id":"f3ad6eb9b9ce253153c5ab88b64de7e0087ec539429a71d1f2ddb2d477989473","id":74331499,"location_subtype":"","month":"2019-05"},{"category":"drugs","location_type":"Force","location":{"latitude":"51.618493","street":{"id":983551,"name":"On or near Brookside Road"},"longitude":"-0.055970"},"context":"","outcome_status":{"category":"Local resolution","date":"2019-05"},"persistent_id":"11a0cf17db0b97a89431f2f6b2151246ffbc7c135558cc82d1b6e5fabb896a23","id":74311054,"location_subtype":"","month":"2019-05"},{"category":"drugs","location_type":"Force","location":{"latitude":"51.613225","street":{"id":983657,"name":"On or near Leeds Street"},"longitude":"-0.063662"},"context":"","outcome_status":{"category":"Local resolution","date":"2019-05"},"persistent_id":"dfbdb1440bfe2aecd0481266ab047b66826a13f38f6081dd1b671b1a5d049f46","id":74310551,"location_subtype":"","month":"2019-05"},{"category":"drugs","location_type":"Force","location":{"latitude":"51.605230","street":{"id":981790,"name":"On or near Shopping Area"},"longitude":"-0.047871"},"context":"","outcome_status":{"category":"Local resolution","date":"2019-05"},"persistent_id":"78b12533c43520fc1f3cdbd53678e43a63fc9ee044373c0df263b4e009bbeb3f","id":74363306,"location_subtype":"","month":"2019-05"},{"category":"drugs","location_type":"Force","location":{"latitude":"51.616618","street":{"id":983678,"name":"On or near Brockenhurst Mews"},"longitude":"-0.062767"},"context":"","outcome_status":{"category":"Local resolution","date":"2019-06"},"persistent_id":"b25fe63ae0aae3c20113646f1664e74868baecf7e79cc147954c17b51a3842d8","id":74356474,"location_subtype":"","month":"2019-05"},{"category":"drugs","location_type":"Force","location":{"latitude":"51.616316","street":{"id":983654,"name":"On or near Moree Way"},"longitude":"-0.064614"},"context":"","outcome_status":{"category":"Court result unavailable","date":"2020-02"},"persistent_id":"defd8e82a5a46a991c9f3eb870a442ea3a906b20f576ad0eddcbc5d8ab07c6ee","id":74341856,"location_subtype":"","month":"2019-05"},{"category":"drugs","location_type":"Force","location":{"latitude":"51.614981","street":{"id":983671,"name":"On or near Cuthbert Road"},"longitude":"-0.062706"},"context":"","outcome_status":{"category":"Offender given penalty notice","date":"2019-05"},"persistent_id":"d1a7456e19892c52b05b55098fd9c0e5f57a3182afe50a039b7694a77072d69f","id":74290945,"location_subtype":"","month":"2019-05"},{"category":"drugs","location_type":"Force","location":{"latitude":"51.611559","street":{"id":983646,"name":"On or near Sandal Road"},"longitude":"-0.061884"},"context":"","outcome_status":{"category":"Local resolution","date":"2019-05"},"persistent_id":"e45b0eecce3075a7856b556f0cc89e81e19a95af8a9bb9e7428318e1584f1a48","id":74297959,"location_subtype":"","month":"2019-05"},