[{"category":"anti-social-behaviour","location_type":"Force","location":{"latitude":"51.522868","street":{"id":587594,"name":"On or near Golden Lane"},"longitude":"-0.094959"},"context":"","outcome_status":null,"persistent_id":"","id":74597714,"location_subtype":"","month":"2019-05"},{"category":"anti-social-behaviour","location_type":"Force","location":{"latitude":"51.522820","street":{"id":960863,"name":"On or near Elm Street"},"longitude":"-0.113657"},"context":"","outcome_status":null,"persistent_id":"","id":74285834,"location_subtype":"","month":"2019-05"},{"category":"anti-social-behaviour","location_type":"Force","location":{"latitude":"51.522862","street":{"id":960800,"name":"On or near Roger Street"},"longitude":"-0.115198"},"context":"","outcome_status":null,"persistent_id":"","id":74285835,"location_subtype":"","month":"2019-05"},{"category":"anti-social-behaviour","location_type":"Force","location":{"latitude":"51.520049","street":{"id":961039,"name":"On or near Jockey's Fields"},"longitude":"-0.115299"},"context":"","outcome_status":null,"persistent_id":"","id":74285836,"location_subtype":"","month":"2019-05"},{"category":"anti-social-behaviour","location_type":"Force","location":{"latitude":"51.520049","street":{"id":961039,"name":"On or near Jockey's Fields"},"longitude":"-0.115299"},"context":"","outcome_status":null,"persistent_id":"","id":74285837,"location_subtype":"","month":"2019-05"},{"category":"anti-social-behaviour","location_type":"Force","location":{"latitude":"51.525332","street":{"id":960770,"name":"On or near Wren Street"},"longitude":"-0.115528"},"context":"","outcome_status":null,"persistent_id":"","id":74285840,"location_subtype":"","month":"2019-05"},{"category":"anti-social-behaviour","location_type":"Force","location":{"latitude":"51.520049","street":{"id":961039,"name":"On or near Jockey's Fields"},"longitude":"-0.115299"},"context":"","outcome_status":null,"persistent_id":"","id":74285838,"location_subtype":"","month":"2019-05"},{"category":"anti-social-behaviour","location_type":"Force","location":{"latitude":"51.524954","street":{"id":960851,"name":"On or near Green Yard"},"longitude":"-0.115558"},"context":"","outcome_status":null,"persistent_id":"","id":74285839,"location_subtype":"","month":"2019-05"},{"category":"anti-social-behaviour","location_type":"Force","location":{"latitude":"51.527078","street":{"id":960963,"name":"On or near Fleet Square"},"longitude":"-0.116206"},"context":"","outcome_status":null,"persistent_id":"","id":74285843,"location_subtype":"","month":"2019-05"},{"category":"anti-social-behaviour","location_type":"Force","location":{"latitude":"51.523449","street":{"id":960965,"name":"On or near Doughty Street"},"longitude":"-0.116471"},"context":"","outcome_status":null,"persistent_id":"","id":74285844,"location_subtype":"","month":"2019-05"},{"category":"anti-social-behaviour","location_type":"Force","location":{"latitude":"51.525824","street":{"id":960993,"name":"On or near Hospital"},"longitude":"-0.117050"},"context":"","outcome_status":null,"persistent_id":"","id":74285845,"location_subtype":"","month":"2019-05"},{"category":"anti-social-behaviour","location_type":"Force","location":{"latitude":"51.529026","street":{"id":960916,"name":"On or near Swinton Street"},"longitude":"-0.117668"},"context":"","outcome_status":null,"persistent_id":"","id":74285850,"location_subtype":"","month":"2019-05"},{"category":"anti-social-behaviour","location_type":"Force","location":{"latitude":"51.529026","street":{"id":960916,"name":"On or near Swinton Street"},"longitude":"-0.117668"},"context":"","outcome_status":null,"persistent_id":"","id":74285851,"location_subtype":"","month":"2019-05"},{"category":"anti-social-behaviour","location_type":"Force","location":{"latitude":"51.529026","street":{"id":960916,"name":"On or near Swinton Street"},"longitude":"-0.117668"},"context":"","outcome_status":null,"persistent_id":"","id":74286480,"location_subtype":"","month":"2019-05"},{"category":"anti-social-behaviour","location_type":"Force","location":{"latitude":"51.529697","street":{"id":960985,"name":"On or near Conference\/exhibition Centre"},"longitude":"-0.118592"},"context":"","outcome_status":null,"persistent_id":"","id":74286483,"location_subtype":"","month":"2019-05"},{"category":"anti-social-behaviour","location_type":"Force","location":{"latitude":"51.529697","street":{"id":960985,"name":"On or near Conference\/exhibition Centre"},"longitude":"-0.118592"},"context":"","outcome_status":null,"persistent_id":"","id":74286484,"location_subtype":"","month":"2019-05"},{"category":"anti-social-behaviour","location_type":"Force","location":{"latitude":"51.529697","street":{"id":960985,"name":"On or near Conference\/exhibition Centre"},"longitude":"-0.118592"},"context":"","outcome_status":null,"persistent_id":"","id":74286485,"location_subtype":"","month":"2019-05"},{"category":"anti-social-behaviour","location_type":"Force","location":{"latitude":"51.529697","street":{"id":960985,"name":"On or near Conference\/exhibition Centre"},"longitude":"-0.118592"},"context":"","outcome_status":null,"persistent_id":"","id":74286486,"location_subtype":"","month":"2019-05"},{"category":"anti-social-behaviour","location_type":"Force","location":{"latitude":"51.530211","street":{"id":960942,"name":"On or near Leeke Street"},"longitude":"-0.118700"},"context":"","outcome_status":null,"persistent_id":"","id":74286498,"location_subtype":"","month":"2019-05"},{"category":"anti-social-behaviour","location_type":"Force","location":{"latitude":"51.526357","street":{"id":960952,"name":"On or near Heathcote Street"},"longitude":"-0.118888"},"context":"","outcome_status":null,"persistent_id":"","id":74286500,"location_subtype":"","month":"2019-05"},{"category":"anti-social-behaviour","location_type":"Force","location":{"latitude":"51.530211","street":{"id":960942,"name":"On or near Leeke Street"},"longitude":"-0.118700"},"context":"","outcome_status":null,"persistent_id":"","id":74286499,"location_subtype":"","month":"2019-05"},{"category":"anti-social-behaviour","location_type":"Force","location":{"latitude":"51.527327","street":{"id":960921,"name":"On or near Sidmouth Mews"},"longitude":"-0.119382"},"context":"","outcome_status":null,"persistent_id":"","id":74286507,"location_subtype":"","month":"2019-05"},{"category":"anti-social-behaviour","location_type":"Force","location":{"latitude":"51.530950","street":{"id":960945,"name":"On or near King's Cross Road"},"longitude":"-0.119895"},"context":"","outcome_status":null,"persistent_id":"","id":74286509,"location_subtype":"","month":"2019-05"},{"category":"anti-social-behaviour","location_type":"Force","location":{"latitude":"51.527620","street":{"id":960953,"name":"On or near Harrison Street"},"longitude":"-0.120854"},"context":"","outcome_status":null,"persistent_id":"","id":74286519,"location_subtype":"","month":"2019-05"},{"category":"anti-social-behaviour","location_type":"Force","location":{"latitude":"51.527620","street":{"id":960953,"name":"On or near Harrison Street"},"longitude":"-0.120854"},"context":"","outcome_status":null,"persistent_id":"","id":74286520,"location_subtype":"","month":"2019-05"},{"category":"anti-social-behaviour","location_type":"Force","location":{"latitude":"51.527620","street":{"id":960953,"name":"On or near Harrison Street"},"longitude":"-0.120854"},"context":"","outcome_status":null,"persistent_id":"","id":74286521,"location_subtype":"","month":"2019-05"},{"category":"anti-social-behaviour","location_type":"Force","location":{"latitude":"51.528620","street":{"id":960978,"name":"On or near Argyle Street"},"longitude":"-0.121548"},"context":"","outcome_status":null,"persistent_id":"","id":74286524,"location_subtype":"","month":"2019-05"},{"category":"anti-social-behaviour","location_type":"Force","location":{"latitude":"51.529611","street":{"id":960974,"name":"On or near Birkenhead Street"},"longitude":"-0.121652"},"context":"","outcome_status":null,"persistent_id":"","id":74286527,"location_subtype":"","month":"2019-05"},{"category":"anti-social-behaviour","location_type":"Force","location":{"latitude":"51.529611","street":{"id":960974,"name":"On or near Birkenhead Street"},"longitude":"-0.121652"},"context":"","outcome_status":null,"persistent_id":"","id":74286525,"location_subtype":"","month":"2019-05"},{"category":"anti-social-behaviour","location_type":"Force","location":{"latitude":"51.529611","street":{"id":960974,"name":"On or near Birkenhead Street"},"longitude":"-0.121652"},"context":"","outcome_status":null,"persistent_id":"","id":74286526,"location_subtype":"","month":"2019-05"},{"category":"anti-social-behaviour","location_type":"Force","location":{"latitude":"51.529766","street":{"id":960918,"name":"On or near St Chad's Street"},"longitude":"-0.121790"},"context":"","outcome_status":null,"persistent_id":"","id":74286533,"location_subtype":"","month":"2019-05"},{"category":"anti-social-behaviour","location_type":"Force","location":{"latitude":"51.529766","street":{"id":960918,"name":"On or near St Chad's Street"},"longitude":"-0.121790"},"context":"","outcome_status":null,"persistent_id":"","id":74286535,"location_subtype":"","month":"2019-05"},{"category":"anti-social-behaviour","location_type":"Force","location":{"latitude":"51.529766","street":{"id":960918,"name":"On or near St Chad's Street"},"longitude":"-0.121790"},"context":"","outcome_status":null,"persistent_id":"","id":74286536,"location_subtype":"","month":"2019-05"},{"category":"anti-social-behaviour","location_type":"Force","location":{"latitude":"51.529766","street":{"id":960918,"name":"On or near St Chad's Street"},"longitude":"-0.121790"},"context":"","outcome_status":null,"persistent_id":"","id":74286537,"location_subtype":"","month":"2019-05"},{"category":"anti-social-behaviour","location_type":"Force","location":{"latitude":"51.529766","street":{"id":960918,"name":"On or near St Chad's Street"},"longitude":"-0.121790"},"context":"","outcome_status":null,"persistent_id":"","id":74286538,"location_subtype":"","month":"2019-05"},{"category":"anti-social-behaviour","location_type":"Force","location":{"latitude":"51.529766","street":{"id":960918,"name":"On or near St Chad's Street"},"longitude":"-0.121790"},"context":"","outcome_status":null,"persistent_id":"","id":74286539,"location_subtype":"","month":"2019-05"},{"category":"anti-social-behaviour","location_type":"Force","location":{"latitude":"51.529766","street":{"id":960918,"name":"On or near St Chad's Street"},"longitude":"-0.121790"},"context":"","outcome_status":null,"persistent_id":"","id":74286540,"location_subtype":"","month":"2019-05"},{"category":"anti-social-behaviour","location_type":"Force","location":{"latitude":"51.529766","street":{"id":960918,"name":"On or near St Chad's Street"},"longitude":"-0.121790"},"context":"","outcome_status":null,"persistent_id":"","id":74286541,"location_subtype":"","month":"2019-05"},{"category":"anti-social-behaviour","location_type":"Force","location":{"latitude":"51.529766","street":{"id":960918,"name":"On or near St Chad's Street"},"longitude":"-0.121790"},"context":"","outcome_status":null,"persistent_id":"","id":74286542,"location_subtype":"","month":"2019-05"},{"category":"anti-social-behaviour","location_type":"Force","location":{"latitude":"51.529766","street":{"id":960918,"name":"On or near St Chad's Street"},"longitude":"-0.121790"},"context":"","outcome_status":null,"persistent_id":"","id":74286543,"location_subtype":"","month":"2019-05"},{"category":"anti-social-behaviour","location_type":"Force","location":{"latitude":"51.529766","street":{"id":960918,"name":"On or near St Chad's Street"},"longitude":"-0.121790"},"context":"","outcome_status":null,"persistent_id":"","id":74286544,"location_subtype":"","month":"2019-05"},{"category":"anti-social-behaviour","location_type":"Force","location":{"latitude":"51.529766","street":{"id":960918,"name":"On or near St Chad's Street"},"longitude":"-0.121790"},"context":"","outcome_status":null,"persistent_id":"","id":74286545,"location_subtype":"","month":"2019-05"},{"category":"anti-social-behaviour","location_type":"Force","location":{"latitude":"51.529766","street":{"id":960918,"name":"On or near St Chad's Street"},"longitude":"-0.121790"},"context":"","outcome_status":null,"persistent_id":"","id":74286547,"location_subtype":"","month":"2019-05"},{"category":"anti-social-behaviour","location_type":"Force","location":{"latitude":"51.529766","street":{"id":960918,"name":"On or near St Chad's Street"},"longitude":"-0.121790"},"context":"","outcome_status":null,"persistent_id":"","id":74286546,"location_subtype":"","month":"2019-05"},{"category":"anti-social-behaviour","location_type":"Force","location":{"latitude":"51.529766","street":{"id":960918,"name":"On or near St Chad's Street"},"longitude":"-0.121790"},"context":"","outcome_status":null,"persistent_id":"","id":74286548,"location_subtype":"","month":"2019-05"},{"category":"anti-social-behaviour","location_type":"Force","location":{"latitude":"51.538127","street":{"id":964725,"name":"On or near Gibson Square"},"longitude":"-0.105958"},"context":"","outcome_status":null,"persistent_id":"","id":74281432,"location_subtype":"","month":"2019-05"},{"category":"anti-social-behaviour","location_type":"Force","location":{"latitude":"51.529710","street":{"id":960901,"name":"On or near Parking Area"},"longitude":"-0.117726"},"context":"","outcome_status":null,"persistent_id":"","id":74285849,"location_subtype":"","month":"2019-05"},{"category":"anti-social-behaviour","location_type":"Force","location":{"latitude":"51.520624","street":{"id":961037,"name":"On or near Leather Lane"},"longitude":"-0.109640"},"context":"","outcome_status":null,"persistent_id":"","id":74285822,"location_subtype":"","month":"2019-05"},{"category":"anti-social-behaviour","location_type":"Force","location":{"latitude":"51.521853","street":{"id":960784,"name":"On or near Theobald's Road"},"longitude":"-0.111708"},"context":"","outcome_status":null,"persistent_id":"","id":74285830,"location_subtype":"","month":"2019-05"},{"category":"anti-social-behaviour","location_type":"Force","location":{"latitude":"51.527648","street":{"id":960960,"name":"On or near Gray's Inn Road"},"longitude":"-0.118676"},"context":"","outcome_status":null,"persistent_id":"","id":74286496,"location_subtype":"","month":"2019-05"},{"category":"anti-social-behaviour","location_type":"Force","location":{"latitude":"51.529766","street":{"id":960918,"name":"On or near St Chad's Street"},"longitude":"-0.121790"},"context":"","outcome_status":null,"persistent_id":"","id":74286534,"location_subtype":"","month":"2019-05"},{"category":"anti-social-behaviour","location_type":"Force","location":{"latitude":"51.526056","street":{"id":960971,"name":"On or near Compton Place"},"longitude":"-0.124797"},"context":"","outcome_status":null,"persistent_id":"","id":74286581,"location_subtype":"","month":"2019-05"},{"category":"anti-social-behaviour","location_type":"Force","location":{"latitude":"51.527639","street":{"id":960948,"name":"On or near Judd Street"},"longitude":"-0.124847"},"context":"","outcome_status":null,"persistent_id":"","id":74286599,"location_subtype":"","month":"2019-05"},{"category":"anti-social-behaviour","location_type":"Force","location":{"latitude":"51.531512","street":{"id":960518,"name":"On or near Shopping Area"},"longitude":"-0.126375"},"context":"","outcome_status":null,"persistent_id":"","id":74286616,"location_subtype":"","month":"2019-05"},{"category":"anti-social-behaviour","location_type":"Force","location":{"latitude":"51.533442","street":{"id":964990,"name":"On or near Goods Way"},"longitude":"-0.126699"},"context":"","outcome_status":null,"persistent_id":"","id":74286633,"location_subtype":"","month":"2019-05"},{"category":"anti-social-behaviour","location_type":"Force","location":{"latitude":"51.535339","street":{"id":964561,"name":"On or near Arlington Avenue"},"longitude":"-0.092088"},"context":"","outcome_status":null,"persistent_id":"","id":74279601,"location_subtype":"","month":"2019-05"},{"category":"anti-social-behaviour","location_type":"Force","location":{"latitude":"51.523901","street":{"id":961236,"name":"On or near Honduras Street"},"longitude":"-0.096011"},"context":"","outcome_status":null,"persistent_id":"","id":74279638,"location_subtype":"","month":"2019-05"},{"category":"anti-social-behaviour","location_type":"Force","location":{"latitude":"51.535161","street":{"id":964556,"name":"On or near Bevan Street"},"longitude":"-0.093840"},"context":"","outcome_status":null,"persistent_id":"","id":74279622,"location_subtype":"","month":"2019-05"},{"category":"anti-social-behaviour","location_type":"Force","location":{"latitude":"51.537888","street":{"id":964451,"name":"On or near Bishop Street"},"longitude":"-0.095125"},"context":"","outcome_status":null,"persistent_id":"","id":74279650,"location_subtype":"","month":"2019-05"},{"category":"anti-social-behaviour","location_type":"Force","location":{"latitude":"51.533584","street":{"id":964807,"name":"On or near Duncan Street"},"longitude":"-0.104172"},"context":"","outcome_status":null,"persistent_id":"","id":74281415,"location_subtype":"","month":"2019-05"},{"category":"anti-social-behaviour","location_type":"Force","location":{"latitude":"51.537501","street":{"id":964495,"name":"On or near Canal Walk"},"longitude":"-0.085696"},"context":"","outcome_status":null,"persistent_id":"","id":74282748,"location_subtype":"","month":"2019-05"},{"category":"anti-social-behaviour","location_type":"Force","location":{"latitude":"51.526131","street":{"id":961214,"name":"On or near Percival Street"},"longitude":"-0.102074"},"context":"","outcome_status":null,"persistent_id":"","id":74279720,"location_subtype":"","month":"2019-05"},{"category":"anti-social-behaviour","location_type":"Force","location":{"latitude":"51.529239","street":{"id":960826,"name":"On or near Myddelton Passage"},"longitude":"-0.107971"},"context":"","outcome_status":null,"persistent_id":"","id":74281462,"location_subtype":"","month":"2019-05"},{"category":"anti-social-behaviour","location_type":"Force","location":{"latitude":"51.527393","street":{"id":960857,"name":"On or near Garnault Mews"},"longitude":"-0.108393"},"context":"","outcome_status":null,"persistent_id":"","id":74281463,"location_subtype":"","month":"2019-05"},{"category":"anti-social-behaviour","location_type":"Force","location":{"latitude":"51.523005","street":{"id":960860,"name":"On or near Farringdon Road"},"longitude":"-0.107869"},"context":"","outcome_status":null,"persistent_id":"","id":74281464,"location_subtype":"","month":"2019-05"},{"category":"anti-social-behaviour","location_type":"Force","location":{"latitude":"51.534772","street":{"id":964690,"name":"On or near Ritchie Street"},"longitude":"-0.108160"},"context":"","outcome_status":null,"persistent_id":"","id":74281469,"location_subtype":"","month":"2019-05"},{"category":"anti-social-behaviour","location_type":"Force","location":{"latitude":"51.526381","street":{"id":960894,"name":"On or near Supermarket"},"longitude":"-0.108652"},"context":"","outcome_status":null,"persistent_id":"","id":74281470,"location_subtype":"","month":"2019-05"},{"category":"anti-social-behaviour","location_type":"Force","location":{"latitude":"51.543254","street":{"id":964773,"name":"On or near Albany Mews"},"longitude":"-0.108284"},"context":"","outcome_status":null,"persistent_id":"","id":74281472,"location_subtype":"","month":"2019-05"},{"category":"anti-social-behaviour","location_type":"Force","location":{"latitude":"51.543254","street":{"id":964773,"name":"On or near Albany Mews"},"longitude":"-0.108284"},"context":"","outcome_status":null,"persistent_id":"","id":74281473,"location_subtype":"","month":"2019-05"},{"category":"anti-social-behaviour","location_type":"Force","location":{"latitude":"51.532795","street":{"id":964783,"name":"On or near White Lion Street"},"longitude":"-0.108804"},"context":"","outcome_status":null,"persistent_id":"","id":74281476,"location_subtype":"","month":"2019-05"},{"category":"anti-social-behaviour","location_type":"Force","location":{"latitude":"51.537397","street":{"id":964744,"name":"On or near Cloudesley Square"},"longitude":"-0.108642"},"context":"","outcome_status":null,"persistent_id":"","id":74281481,"location_subtype":"","month":"2019-05"},{"category":"anti-social-behaviour","location_type":"Force","location":{"latitude":"51.533483","street":{"id":964809,"name":"On or near Chapel Market"},"longitude":"-0.109107"},"context":"","outcome_status":null,"persistent_id":"","id":74281482,"location_subtype":"","month":"2019-05"},{"category":"anti-social-behaviour","location_type":"Force","location":{"latitude":"51.533483","street":{"id":964809,"name":"On or near Chapel Market"},"longitude":"-0.109107"},"context":"","outcome_status":null,"persistent_id":"","id":74281483,"location_subtype":"","month":"2019-05"},{"category":"anti-social-behaviour","location_type":"Force","location":{"latitude":"51.525214","street":{"id":960808,"name":"On or near Pine Street"},"longitude":"-0.109911"},"context":"","outcome_status":null,"persistent_id":"","id":74281484,"location_subtype":"","month":"2019-05"},{"category":"anti-social-behaviour","location_type":"Force","location":{"latitude":"51.524190","street":{"id":960870,"name":"On or near Coldbath Square"},"longitude":"-0.110530"},"context":"","outcome_status":null,"persistent_id":"","id":74281490,"location_subtype":"","month":"2019-05"},{"category":"anti-social-behaviour","location_type":"Force","location":{"latitude":"51.532811","street":{"id":964789,"name":"On or near Penton Street"},"longitude":"-0.111442"},"context":"","outcome_status":null,"persistent_id":"","id":74281496,"location_subtype":"","month":"2019-05"},{"category":"anti-social-behaviour","location_type":"Force","location":{"latitude":"51.532811","street":{"id":964789,"name":"On or near Penton Street"},"longitude":"-0.111442"},"context":"","outcome_status":null,"persistent_id":"","id":74281497,"location_subtype":"","month":"2019-05"},{"category":"anti-social-behaviour","location_type":"Force","location":{"latitude":"51.532811","street":{"id":964789,"name":"On or near Penton Street"},"longitude":"-0.111442"},"context":"","outcome_status":null,"persistent_id":"","id":74281498,"location_subtype":"","month":"2019-05"},{"category":"anti-social-behaviour","location_type":"Force","location":{"latitude":"51.545189","street":{"id":968323,"name":"On or near Arundel Square"},"longitude":"-0.110612"},"context":"","outcome_status":null,"persistent_id":"","id":74281502,"location_subtype":"","month":"2019-05"},{"category":"anti-social-behaviour","location_type":"Force","location":{"latitude":"51.545189","street":{"id":968323,"name":"On or near Arundel Square"},"longitude":"-0.110612"},"context":"","outcome_status":null,"persistent_id":"","id":74281503,"location_subtype":"","month":"2019-05"},{"category":"anti-social-behaviour","location_type":"Force","location":{"latitude":"51.527162","street":{"id":960831,"name":"On or near Margery Street"},"longitude":"-0.111344"},"context":"","outcome_status":null,"persistent_id":"","id":74281504,"location_subtype":"","month":"2019-05"},{"category":"anti-social-behaviour","location_type":"Force","location":{"latitude":"51.527162","street":{"id":960831,"name":"On or near Margery Street"},"longitude":"-0.111344"},"context":"","outcome_status":null,"persistent_id":"","id":74281505,"location_subtype":"","month":"2019-05"},{"category":"anti-social-behaviour","location_type":"Force","location":{"latitude":"51.527768","street":{"id":960859,"name":"On or near Fernsbury Street"},"longitude":"-0.111002"},"context":"","outcome_status":null,"persistent_id":"","id":74281507,"location_subtype":"","month":"2019-05"},{"category":"anti-social-behaviour","location_type":"Force","location":{"latitude":"51.530438","street":{"id":960866,"name":"On or near Cruikshank Street"},"longitude":"-0.111540"},"context":"","outcome_status":null,"persistent_id":"","id":74281514,"location_subtype":"","month":"2019-05"},{"category":"anti-social-behaviour","location_type":"Force","location":{"latitude":"51.545189","street":{"id":968323,"name":"On or near Arundel Square"},"longitude":"-0.110612"},"context":"","outcome_status":null,"persistent_id":"","id":74281515,"location_subtype":"","month":"2019-05"},{"category":"anti-social-behaviour","location_type":"Force","location":{"latitude":"51.545189","street":{"id":968323,"name":"On or near Arundel Square"},"longitude":"-0.110612"},"context":"","outcome_status":null,"persistent_id":"","id":74281516,"location_subtype":"","month":"2019-05"},{"category":"anti-social-behaviour","location_type":"Force","location":{"latitude":"51.545189","street":{"id":968323,"name":"On or near Arundel Square"},"longitude":"-0.110612"},"context":"","outcome_status":null,"persistent_id":"","id":74281517,"location_subtype":"","month":"2019-05"},{"category":"anti-social-behaviour","location_type":"Force","location":{"latitude":"51.526361","street":{"id":960880,"name":"On or near Calthorpe Street"},"longitude":"-0.112977"},"context":"","outcome_status":null,"persistent_id":"","id":74281518,"location_subtype":"","month":"2019-05"},{"category":"anti-social-behaviour","location_type":"Force","location":{"latitude":"51.542061","street":{"id":964703,"name":"On or near Mountfort Crescent"},"longitude":"-0.111852"},"context":"","outcome_status":null,"persistent_id":"","id":74281520,"location_subtype":"","month":"2019-05"},{"category":"anti-social-behaviour","location_type":"Force","location":{"latitude":"51.532502","street":{"id":964792,"name":"On or near Donegal Street"},"longitude":"-0.112940"},"context":"","outcome_status":null,"persistent_id":"","id":74281521,"location_subtype":"","month":"2019-05"},{"category":"anti-social-behaviour","location_type":"Force","location":{"latitude":"51.543768","street":{"id":964768,"name":"On or near Barnsbury Grove"},"longitude":"-0.112286"},"context":"","outcome_status":null,"persistent_id":"","id":74281522,"location_subtype":"","month":"2019-05"},{"category":"anti-social-behaviour","location_type":"Force","location":{"latitude":"51.529372","street":{"id":960810,"name":"On or near Percy Circus"},"longitude":"-0.114554"},"context":"","outcome_status":null,"persistent_id":"","id":74281538,"location_subtype":"","month":"2019-05"},{"category":"anti-social-behaviour","location_type":"Force","location":{"latitude":"51.529372","street":{"id":960810,"name":"On or near Percy Circus"},"longitude":"-0.114554"},"context":"","outcome_status":null,"persistent_id":"","id":74281539,"location_subtype":"","month":"2019-05"},{"category":"anti-social-behaviour","location_type":"Force","location":{"latitude":"51.529252","street":{"id":961151,"name":"On or near Haberdasher Street"},"longitude":"-0.085537"},"context":"","outcome_status":null,"persistent_id":"","id":74282722,"location_subtype":"","month":"2019-05"},{"category":"anti-social-behaviour","location_type":"Force","location":{"latitude":"51.529252","street":{"id":961151,"name":"On or near Haberdasher Street"},"longitude":"-0.085537"},"context":"","outcome_status":null,"persistent_id":"","id":74282723,"location_subtype":"","month":"2019-05"},{"category":"anti-social-behaviour","location_type":"Force","location":{"latitude":"51.529252","street":{"id":961151,"name":"On or near Haberdasher Street"},"longitude":"-0.085537"},"context":"","outcome_status":null,"persistent_id":"","id":74282724,"location_subtype":"","month":"2019-05"},{"category":"anti-social-behaviour","location_type":"Force","location":{"latitude":"51.533149","street":{"id":964578,"name":"On or near Mintern Street"},"longitude":"-0.085186"},"context":"","outcome_status":null,"persistent_id":"","id":74282738,"location_subtype":"","month":"2019-05"},{"category":"anti-social-behaviour","location_type":"Force","location":{"latitude":"51.528275","street":{"id":961168,"name":"On or near Chart Street"},"longitude":"-0.085694"},"context":"","outcome_status":null,"persistent_id":"","id":74282740,"location_subtype":"","month":"2019-05"},{"category":"anti-social-behaviour","location_type":"Force","location":{"latitude":"51.527198","street":{"id":961170,"name":"On or near Brunswick Place"},"longitude":"-0.086402"},"context":"","outcome_status":null,"persistent_id":"","id":74282746,"location_subtype":"","month":"2019-05"},{"category":"anti-social-behaviour","location_type":"Force","location":{"latitude":"51.526496","street":{"id":961132,"name":"On or near Vince Street"},"longitude":"-0.085840"},"context":"","outcome_status":null,"persistent_id":"","id":74282749,"location_subtype":"","month":"2019-05"},{"category":"anti-social-behaviour","location_type":"Force","location":{"latitude":"51.526496","street":{"id":961132,"name":"On or near Vince Street"},"longitude":"-0.085840"},"context":"","outcome_status":null,"persistent_id":"","id":74282752,"location_subtype":"","month":"2019-05"},{"category":"anti-social-behaviour","location_type":"Force","location":{"latitude":"51.526496","street":{"id":961132,"name":"On or near Vince Street"},"longitude":"-0.085840"},"context":"","outcome_status":null,"persistent_id":"","id":74282753,"location_subtype":"","month":"2019-05"},{"category":"anti-social-behaviour","location_type":"Force","location":{"latitude":"51.529705","street":{"id":961177,"name":"On or near Allerton Street"},"longitude":"-0.087407"},"context":"","outcome_status":null,"persistent_id":"","id":74282754,"location_subtype":"","month":"2019-05"},{"category":"anti-social-behaviour","location_type":"Force","location":{"latitude":"51.526777","street":{"id":961160,"name":"On or near Cranwood Street"},"longitude":"-0.087039"},"context":"","outcome_status":null,"persistent_id":"","id":74282755,"location_subtype":"","month":"2019-05"},{"category":"anti-social-behaviour","location_type":"Force","location":{"latitude":"51.532452","street":{"id":964570,"name":"On or near Cavendish Street"},"longitude":"-0.088734"},"context":"","outcome_status":null,"persistent_id":"","id":74282757,"location_subtype":"","month":"2019-05"},{"category":"anti-social-behaviour","location_type":"Force","location":{"latitude":"51.532452","street":{"id":964570,"name":"On or near Cavendish Street"},"longitude":"-0.088734"},"context":"","outcome_status":null,"persistent_id":"","id":74282758,"location_subtype":"","month":"2019-05"},{"category":"anti-social-behaviour","location_type":"Force","location":{"latitude":"51.531513","street":{"id":964572,"name":"On or near Evelyn Walk"},"longitude":"-0.087966"},"context":"","outcome_status":null,"persistent_id":"","id":74282760,"location_subtype":"","month":"2019-05"},{"category":"anti-social-behaviour","location_type":"Force","location":{"latitude":"51.531513","street":{"id":964572,"name":"On or near Evelyn Walk"},"longitude":"-0.087966"},"context":"","outcome_status":null,"persistent_id":"","id":74282761,"location_subtype":"","month":"2019-05"},{"category":"anti-social-behaviour","location_type":"Force","location":{"latitude":"51.533530","street":{"id":964579,"name":"On or near Wimbourne Street"},"longitude":"-0.089222"},"context":"","outcome_status":null,"persistent_id":"","id":74282771,"location_subtype":"","month":"2019-05"},{"category":"anti-social-behaviour","location_type":"Force","location":{"latitude":"51.529176","street":{"id":961106,"name":"On or near Britannia Walk"},"longitude":"-0.089678"},"context":"","outcome_status":null,"persistent_id":"","id":74282775,"location_subtype":"","month":"2019-05"},{"category":"anti-social-behaviour","location_type":"Force","location":{"latitude":"51.526975","street":{"id":961092,"name":"On or near Galway Street"},"longitude":"-0.092567"},"context":"","outcome_status":null,"persistent_id":"","id":74282786,"location_subtype":"","month":"2019-05"},{"category":"anti-social-behaviour","location_type":"Force","location":{"latitude":"51.526975","street":{"id":961092,"name":"On or near Galway Street"},"longitude":"-0.092567"},"context":"","outcome_status":null,"persistent_id":"","id":74282787,"location_subtype":"","month":"2019-05"},{"category":"anti-social-behaviour","location_type":"Force","location":{"latitude":"51.526975","street":{"id":961092,"name":"On or near Galway Street"},"longitude":"-0.092567"},"context":"","outcome_status":null,"persistent_id":"","id":74282788,"location_subtype":"","month":"2019-05"},{"category":"anti-social-behaviour","location_type":"Force","location":{"latitude":"51.531646","street":{"id":964587,"name":"On or near Wharf Road"},"longitude":"-0.096121"},"context":"","outcome_status":null,"persistent_id":"","id":74282799,"location_subtype":"","month":"2019-05"},{"category":"anti-social-behaviour","location_type":"Force","location":{"latitude":"51.538983","street":{"id":964482,"name":"On or near Park Place"},"longitude":"-0.086167"},"context":"","outcome_status":null,"persistent_id":"","id":74278445,"location_subtype":"","month":"2019-05"},{"category":"anti-social-behaviour","location_type":"Force","location":{"latitude":"51.520174","street":{"id":961280,"name":"On or near Charterhouse Street"},"longitude":"-0.100750"},"context":"","outcome_status":null,"persistent_id":"","id":74279701,"location_subtype":"","month":"2019-05"},{"category":"anti-social-behaviour","location_type":"Force","location":{"latitude":"51.532234","street":{"id":964590,"name":"On or near Rocliffe Street"},"longitude":"-0.100220"},"context":"","outcome_status":null,"persistent_id":"","id":74279702,"location_subtype":"","month":"2019-05"},{"category":"anti-social-behaviour","location_type":"Force","location":{"latitude":"51.527461","street":{"id":961243,"name":"On or near Goswell Place"},"longitude":"-0.100923"},"context":"","outcome_status":null,"persistent_id":"","id":74279703,"location_subtype":"","month":"2019-05"},{"category":"anti-social-behaviour","location_type":"Force","location":{"latitude":"51.527461","street":{"id":961243,"name":"On or near Goswell Place"},"longitude":"-0.100923"},"context":"","outcome_status":null,"persistent_id":"","id":74279704,"location_subtype":"","month":"2019-05"},{"category":"anti-social-behaviour","location_type":"Force","location":{"latitude":"51.527461","street":{"id":961243,"name":"On or near Goswell Place"},"longitude":"-0.100923"},"context":"","outcome_status":null,"persistent_id":"","id":74279705,"location_subtype":"","month":"2019-05"},{"category":"anti-social-behaviour","location_type":"Force","location":{"latitude":"51.527461","street":{"id":961243,"name":"On or near Goswell Place"},"longitude":"-0.100923"},"context":"","outcome_status":null,"persistent_id":"","id":74279706,"location_subtype":"","month":"2019-05"},{"category":"anti-social-behaviour","location_type":"Force","location":{"latitude":"51.525757","street":{"id":961252,"name":"On or near Cyrus Street"},"longitude":"-0.101224"},"context":"","outcome_status":null,"persistent_id":"","id":74279707,"location_subtype":"","month":"2019-05"},{"category":"anti-social-behaviour","location_type":"Force","location":{"latitude":"51.537766","street":{"id":964408,"name":"On or near Horse Yard"},"longitude":"-0.100350"},"context":"","outcome_status":null,"persistent_id":"","id":74279708,"location_subtype":"","month":"2019-05"},{"category":"anti-social-behaviour","location_type":"Force","location":{"latitude":"51.537766","street":{"id":964408,"name":"On or near Horse Yard"},"longitude":"-0.100350"},"context":"","outcome_status":null,"persistent_id":"","id":74279709,"location_subtype":"","month":"2019-05"},{"category":"anti-social-behaviour","location_type":"Force","location":{"latitude":"51.537766","street":{"id":964408,"name":"On or near Horse Yard"},"longitude":"-0.100350"},"context":"","outcome_status":null,"persistent_id":"","id":74279710,"location_subtype":"","month":"2019-05"},{"category":"anti-social-behaviour","location_type":"Force","location":{"latitude":"51.537766","street":{"id":964408,"name":"On or near Horse Yard"},"longitude":"-0.100350"},"context":"","outcome_status":null,"persistent_id":"","id":74279711,"location_subtype":"","month":"2019-05"},{"category":"anti-social-behaviour","location_type":"Force","location":{"latitude":"51.524477","street":{"id":961251,"name":"On or near Dallington Street"},"longitude":"-0.100456"},"context":"","outcome_status":null,"persistent_id":"","id":74279717,"location_subtype":"","month":"2019-05"},{"category":"anti-social-behaviour","location_type":"Force","location":{"latitude":"51.531098","street":{"id":961224,"name":"On or near Nelson Terrace"},"longitude":"-0.101175"},"context":"","outcome_status":null,"persistent_id":"","id":74279719,"location_subtype":"","month":"2019-05"},{"category":"anti-social-behaviour","location_type":"Force","location":{"latitude":"51.524997","street":{"id":961255,"name":"On or near Compton Street"},"longitude":"-0.101501"},"context":"","outcome_status":null,"persistent_id":"","id":74279725,"location_subtype":"","month":"2019-05"},{"category":"anti-social-behaviour","location_type":"Force","location":{"latitude":"51.539585","street":{"id":964384,"name":"On or near Shillingford Street"},"longitude":"-0.101053"},"context":"","outcome_status":null,"persistent_id":"","id":74279726,"location_subtype":"","month":"2019-05"},{"category":"anti-social-behaviour","location_type":"Force","location":{"latitude":"51.529262","street":{"id":961230,"name":"On or near Manningford Close"},"longitude":"-0.102203"},"context":"","outcome_status":null,"persistent_id":"","id":74279727,"location_subtype":"","month":"2019-05"},{"category":"anti-social-behaviour","location_type":"Force","location":{"latitude":"51.531021","street":{"id":961493,"name":"On or near Crondall Street"},"longitude":"-0.082623"},"context":"","outcome_status":null,"persistent_id":"","id":74279415,"location_subtype":"","month":"2019-05"},{"category":"anti-social-behaviour","location_type":"Force","location":{"latitude":"51.542414","street":{"id":964531,"name":"On or near Northchurch Road"},"longitude":"-0.088100"},"context":"","outcome_status":null,"persistent_id":"","id":74279560,"location_subtype":"","month":"2019-05"},{"category":"anti-social-behaviour","location_type":"Force","location":{"latitude":"51.525066","street":{"id":961147,"name":"On or near Mallow Street"},"longitude":"-0.088582"},"context":"","outcome_status":null,"persistent_id":"","id":74279561,"location_subtype":"","month":"2019-05"},{"category":"anti-social-behaviour","location_type":"Force","location":{"latitude":"51.524579","street":{"id":961094,"name":"On or near Featherstone Street"},"longitude":"-0.089034"},"context":"","outcome_status":null,"persistent_id":"","id":74279562,"location_subtype":"","month":"2019-05"},{"category":"anti-social-behaviour","location_type":"Force","location":{"latitude":"51.524579","street":{"id":961094,"name":"On or near Featherstone Street"},"longitude":"-0.089034"},"context":"","outcome_status":null,"persistent_id":"","id":74279563,"location_subtype":"","month":"2019-05"},{"category":"anti-social-behaviour","location_type":"Force","location":{"latitude":"51.524579","street":{"id":961094,"name":"On or near Featherstone Street"},"longitude":"-0.089034"},"context":"","outcome_status":null,"persistent_id":"","id":74279564,"location_subtype":"","month":"2019-05"},{"category":"anti-social-behaviour","location_type":"Force","location":{"latitude":"51.524579","street":{"id":961094,"name":"On or near Featherstone Street"},"longitude":"-0.089034"},"context":"","outcome_status":null,"persistent_id":"","id":74279565,"location_subtype":"","month":"2019-05"},{"category":"anti-social-behaviour","location_type":"Force","location":{"latitude":"51.524579","street":{"id":961094,"name":"On or near Featherstone Street"},"longitude":"-0.089034"},"context":"","outcome_status":null,"persistent_id":"","id":74279566,"location_subtype":"","month":"2019-05"},{"category":"anti-social-behaviour","location_type":"Force","location":{"latitude":"51.524579","street":{"id":961094,"name":"On or near Featherstone Street"},"longitude":"-0.089034"},"context":"","outcome_status":null,"persistent_id":"","id":74279567,"location_subtype":"","month":"2019-05"},{"category":"anti-social-behaviour","location_type":"Force","location":{"latitude":"51.524579","street":{"id":961094,"name":"On or near Featherstone Street"},"longitude":"-0.089034"},"context":"","outcome_status":null,"persistent_id":"","id":74279568,"location_subtype":"","month":"2019-05"},{"category":"anti-social-behaviour","location_type":"Force","location":{"latitude":"51.524579","street":{"id":961094,"name":"On or near Featherstone Street"},"longitude":"-0.089034"},"context":"","outcome_status":null,"persistent_id":"","id":74279569,"location_subtype":"","month":"2019-05"},{"category":"anti-social-behaviour","location_type":"Force","location":{"latitude":"51.538033","street":{"id":964520,"name":"On or near Shepperton Road"},"longitude":"-0.089653"},"context":"","outcome_status":null,"persistent_id":"","id":74279574,"location_subtype":"","month":"2019-05"},{"category":"anti-social-behaviour","location_type":"Force","location":{"latitude":"51.526984","street":{"id":961079,"name":"On or near Peerless Street"},"longitude":"-0.089842"},"context":"","outcome_status":null,"persistent_id":"","id":74279575,"location_subtype":"","month":"2019-05"},{"category":"anti-social-behaviour","location_type":"Force","location":{"latitude":"51.526984","street":{"id":961079,"name":"On or near Peerless Street"},"longitude":"-0.089842"},"context":"","outcome_status":null,"persistent_id":"","id":74279576,"location_subtype":"","month":"2019-05"},{"category":"anti-social-behaviour","location_type":"Force","location":{"latitude":"51.538804","street":{"id":964539,"name":"On or near Hullbridge Mews"},"longitude":"-0.089520"},"context":"","outcome_status":null,"persistent_id":"","id":74279577,"location_subtype":"","month":"2019-05"},{"category":"anti-social-behaviour","location_type":"Force","location":{"latitude":"51.541961","street":{"id":964544,"name":"On or near Elmore Street"},"longitude":"-0.089013"},"context":"","outcome_status":null,"persistent_id":"","id":74279578,"location_subtype":"","month":"2019-05"},{"category":"anti-social-behaviour","location_type":"Force","location":{"latitude":"51.523382","street":{"id":961103,"name":"On or near Chequer Street"},"longitude":"-0.091160"},"context":"","outcome_status":null,"persistent_id":"","id":74279579,"location_subtype":"","month":"2019-05"},{"category":"anti-social-behaviour","location_type":"Force","location":{"latitude":"51.525655","street":{"id":961117,"name":"On or near Supermarket"},"longitude":"-0.090517"},"context":"","outcome_status":null,"persistent_id":"","id":74279581,"location_subtype":"","month":"2019-05"},{"category":"anti-social-behaviour","location_type":"Force","location":{"latitude":"51.523186","street":{"id":961098,"name":"On or near Dufferin Avenue"},"longitude":"-0.091284"},"context":"","outcome_status":null,"persistent_id":"","id":74279584,"location_subtype":"","month":"2019-05"},{"category":"anti-social-behaviour","location_type":"Force","location":{"latitude":"51.543340","street":{"id":964542,"name":"On or near Essex Road"},"longitude":"-0.090859"},"context":"","outcome_status":null,"persistent_id":"","id":74279586,"location_subtype":"","month":"2019-05"},{"category":"anti-social-behaviour","location_type":"Force","location":{"latitude":"51.543340","street":{"id":964542,"name":"On or near Essex Road"},"longitude":"-0.090859"},"context":"","outcome_status":null,"persistent_id":"","id":74279587,"location_subtype":"","month":"2019-05"},{"category":"anti-social-behaviour","location_type":"Force","location":{"latitude":"51.543340","street":{"id":964542,"name":"On or near Essex Road"},"longitude":"-0.090859"},"context":"","outcome_status":null,"persistent_id":"","id":74279588,"location_subtype":"","month":"2019-05"},{"category":"anti-social-behaviour","location_type":"Force","location":{"latitude":"51.543967","street":{"id":964553,"name":"On or near Church Road"},"longitude":"-0.091236"},"context":"","outcome_status":null,"persistent_id":"","id":74279599,"location_subtype":"","month":"2019-05"},{"category":"anti-social-behaviour","location_type":"Force","location":{"latitude":"51.544470","street":{"id":968480,"name":"On or near Nightingale Road"},"longitude":"-0.091735"},"context":"","outcome_status":null,"persistent_id":"","id":74279600,"location_subtype":"","month":"2019-05"},{"category":"anti-social-behaviour","location_type":"Force","location":{"latitude":"51.525724","street":{"id":961109,"name":"On or near Bartholomew Square"},"longitude":"-0.093052"},"context":"","outcome_status":null,"persistent_id":"","id":74279602,"location_subtype":"","month":"2019-05"},{"category":"anti-social-behaviour","location_type":"Force","location":{"latitude":"51.543363","street":{"id":964558,"name":"On or near Ashby Grove"},"longitude":"-0.092271"},"context":"","outcome_status":null,"persistent_id":"","id":74279604,"location_subtype":"","month":"2019-05"},{"category":"anti-social-behaviour","location_type":"Force","location":{"latitude":"51.528018","street":{"id":961084,"name":"On or near Mora Street"},"longitude":"-0.093143"},"context":"","outcome_status":null,"persistent_id":"","id":74279606,"location_subtype":"","month":"2019-05"},{"category":"anti-social-behaviour","location_type":"Force","location":{"latitude":"51.538473","street":{"id":964532,"name":"On or near New North Road"},"longitude":"-0.092389"},"context":"","outcome_status":null,"persistent_id":"","id":74279609,"location_subtype":"","month":"2019-05"},{"category":"anti-social-behaviour","location_type":"Force","location":{"latitude":"51.526975","street":{"id":961092,"name":"On or near Galway Street"},"longitude":"-0.092567"},"context":"","outcome_status":null,"persistent_id":"","id":74279610,"location_subtype":"","month":"2019-05"},{"category":"anti-social-behaviour","location_type":"Force","location":{"latitude":"51.539259","street":{"id":964526,"name":"On or near Raynor Place"},"longitude":"-0.092616"},"context":"","outcome_status":null,"persistent_id":"","id":74279614,"location_subtype":"","month":"2019-05"},{"category":"anti-social-behaviour","location_type":"Force","location":{"latitude":"51.539259","street":{"id":964526,"name":"On or near Raynor Place"},"longitude":"-0.092616"},"context":"","outcome_status":null,"persistent_id":"","id":74279615,"location_subtype":"","month":"2019-05"},{"category":"anti-social-behaviour","location_type":"Force","location":{"latitude":"51.527798","street":{"id":961099,"name":"On or near Dingley Place"},"longitude":"-0.093960"},"context":"","outcome_status":null,"persistent_id":"","id":74279616,"location_subtype":"","month":"2019-05"},{"category":"anti-social-behaviour","location_type":"Force","location":{"latitude":"51.527798","street":{"id":961099,"name":"On or near Dingley Place"},"longitude":"-0.093960"},"context":"","outcome_status":null,"persistent_id":"","id":74279617,"location_subtype":"","month":"2019-05"},{"category":"anti-social-behaviour","location_type":"Force","location":{"latitude":"51.527798","street":{"id":961099,"name":"On or near Dingley Place"},"longitude":"-0.093960"},"context":"","outcome_status":null,"persistent_id":"","id":74279618,"location_subtype":"","month":"2019-05"},{"category":"anti-social-behaviour","location_type":"Force","location":{"latitude":"51.538177","street":{"id":923836,"name":"On or near Basire Street"},"longitude":"-0.093541"},"context":"","outcome_status":null,"persistent_id":"","id":74279619,"location_subtype":"","month":"2019-05"},{"category":"anti-social-behaviour","location_type":"Force","location":{"latitude":"51.541573","street":{"id":964543,"name":"On or near Essex Road"},"longitude":"-0.093356"},"context":"","outcome_status":null,"persistent_id":"","id":74279620,"location_subtype":"","month":"2019-05"},{"category":"anti-social-behaviour","location_type":"Force","location":{"latitude":"51.528864","street":{"id":961101,"name":"On or near City Road"},"longitude":"-0.094261"},"context":"","outcome_status":null,"persistent_id":"","id":74279623,"location_subtype":"","month":"2019-05"},{"category":"anti-social-behaviour","location_type":"Force","location":{"latitude":"51.528864","street":{"id":961101,"name":"On or near City Road"},"longitude":"-0.094261"},"context":"","outcome_status":null,"persistent_id":"","id":74279624,"location_subtype":"","month":"2019-05"},{"category":"anti-social-behaviour","location_type":"Force","location":{"latitude":"51.523932","street":{"id":961091,"name":"On or near Garrett Street"},"longitude":"-0.094554"},"context":"","outcome_status":null,"persistent_id":"","id":74279625,"location_subtype":"","month":"2019-05"},{"category":"anti-social-behaviour","location_type":"Force","location":{"latitude":"51.543313","street":{"id":964559,"name":"On or near Arran Walk"},"longitude":"-0.094134"},"context":"","outcome_status":null,"persistent_id":"","id":74279626,"location_subtype":"","month":"2019-05"},{"category":"anti-social-behaviour","location_type":"Force","location":{"latitude":"51.543313","street":{"id":964559,"name":"On or near Arran Walk"},"longitude":"-0.094134"},"context":"","outcome_status":null,"persistent_id":"","id":74279627,"location_subtype":"","month":"2019-05"},{"category":"anti-social-behaviour","location_type":"Force","location":{"latitude":"51.543313","street":{"id":964559,"name":"On or near Arran Walk"},"longitude":"-0.094134"},"context":"","outcome_status":null,"persistent_id":"","id":74279628,"location_subtype":"","month":"2019-05"},{"category":"anti-social-behaviour","location_type":"Force","location":{"latitude":"51.537888","street":{"id":964451,"name":"On or near Bishop Street"},"longitude":"-0.095125"},"context":"","outcome_status":null,"persistent_id":"","id":74279644,"location_subtype":"","month":"2019-05"},{"category":"anti-social-behaviour","location_type":"Force","location":{"latitude":"51.526294","street":{"id":961081,"name":"On or near Norman Street"},"longitude":"-0.094931"},"context":"","outcome_status":null,"persistent_id":"","id":74279633,"location_subtype":"","month":"2019-05"},{"category":"anti-social-behaviour","location_type":"Force","location":{"latitude":"51.534157","street":{"id":964428,"name":"On or near Dame Street"},"longitude":"-0.095727"},"context":"","outcome_status":null,"persistent_id":"","id":74279634,"location_subtype":"","month":"2019-05"},{"category":"anti-social-behaviour","location_type":"Force","location":{"latitude":"51.534157","street":{"id":964428,"name":"On or near Dame Street"},"longitude":"-0.095727"},"context":"","outcome_status":null,"persistent_id":"","id":74279635,"location_subtype":"","month":"2019-05"},{"category":"anti-social-behaviour","location_type":"Force","location":{"latitude":"51.534157","street":{"id":964428,"name":"On or near Dame Street"},"longitude":"-0.095727"},"context":"","outcome_status":null,"persistent_id":"","id":74279636,"location_subtype":"","month":"2019-05"},{"category":"anti-social-behaviour","location_type":"Force","location":{"latitude":"51.534157","street":{"id":964428,"name":"On or near Dame Street"},"longitude":"-0.095727"},"context":"","outcome_status":null,"persistent_id":"","id":74279637,"location_subtype":"","month":"2019-05"},{"category":"anti-social-behaviour","location_type":"Force","location":{"latitude":"51.523901","street":{"id":961236,"name":"On or near Honduras Street"},"longitude":"-0.096011"},"context":"","outcome_status":null,"persistent_id":"","id":74279639,"location_subtype":"","month":"2019-05"},{"category":"anti-social-behaviour","location_type":"Force","location":{"latitude":"51.523901","street":{"id":961236,"name":"On or near Honduras Street"},"longitude":"-0.096011"},"context":"","outcome_status":null,"persistent_id":"","id":74279640,"location_subtype":"","month":"2019-05"},{"category":"anti-social-behaviour","location_type":"Force","location":{"latitude":"51.530255","street":{"id":961196,"name":"On or near Wharf Road"},"longitude":"-0.095213"},"context":"","outcome_status":null,"persistent_id":"","id":74279641,"location_subtype":"","month":"2019-05"},{"category":"anti-social-behaviour","location_type":"Force","location":{"latitude":"51.537027","street":{"id":964395,"name":"On or near Prebend Street"},"longitude":"-0.095218"},"context":"","outcome_status":null,"persistent_id":"","id":74279642,"location_subtype":"","month":"2019-05"},{"category":"anti-social-behaviour","location_type":"Force","location":{"latitude":"51.537027","street":{"id":964395,"name":"On or near Prebend Street"},"longitude":"-0.095218"},"context":"","outcome_status":null,"persistent_id":"","id":74279643,"location_subtype":"","month":"2019-05"},{"category":"anti-social-behaviour","location_type":"Force","location":{"latitude":"51.537888","street":{"id":964451,"name":"On or near Bishop Street"},"longitude":"-0.095125"},"context":"","outcome_status":null,"persistent_id":"","id":74279645,"location_subtype":"","month":"2019-05"},{"category":"anti-social-behaviour","location_type":"Force","location":{"latitude":"51.537888","street":{"id":964451,"name":"On or near Bishop Street"},"longitude":"-0.095125"},"context":"","outcome_status":null,"persistent_id":"","id":74279646,"location_subtype":"","month":"2019-05"},{"category":"anti-social-behaviour","location_type":"Force","location":{"latitude":"51.537888","street":{"id":964451,"name":"On or near Bishop Street"},"longitude":"-0.095125"},"context":"","outcome_status":null,"persistent_id":"","id":74279647,"location_subtype":"","month":"2019-05"},{"category":"anti-social-behaviour","location_type":"Force","location":{"latitude":"51.537888","street":{"id":964451,"name":"On or near Bishop Street"},"longitude":"-0.095125"},"context":"","outcome_status":null,"persistent_id":"","id":74279648,"location_subtype":"","month":"2019-05"},{"category":"anti-social-behaviour","location_type":"Force","location":{"latitude":"51.537888","street":{"id":964451,"name":"On or near Bishop Street"},"longitude":"-0.095125"},"context":"","outcome_status":null,"persistent_id":"","id":74279649,"location_subtype":"","month":"2019-05"},{"category":"anti-social-behaviour","location_type":"Force","location":{"latitude":"51.537888","street":{"id":964451,"name":"On or near Bishop Street"},"longitude":"-0.095125"},"context":"","outcome_status":null,"persistent_id":"","id":74279651,"location_subtype":"","month":"2019-05"},{"category":"anti-social-behaviour","location_type":"Force","location":{"latitude":"51.537888","street":{"id":964451,"name":"On or near Bishop Street"},"longitude":"-0.095125"},"context":"","outcome_status":null,"persistent_id":"","id":74279652,"location_subtype":"","month":"2019-05"},{"category":"anti-social-behaviour","location_type":"Force","location":{"latitude":"51.537888","street":{"id":964451,"name":"On or near Bishop Street"},"longitude":"-0.095125"},"context":"","outcome_status":null,"persistent_id":"","id":74279653,"location_subtype":"","month":"2019-05"},{"category":"anti-social-behaviour","location_type":"Force","location":{"latitude":"51.537888","street":{"id":964451,"name":"On or near Bishop Street"},"longitude":"-0.095125"},"context":"","outcome_status":null,"persistent_id":"","id":74279654,"location_subtype":"","month":"2019-05"},{"category":"anti-social-behaviour","location_type":"Force","location":{"latitude":"51.537888","street":{"id":964451,"name":"On or near Bishop Street"},"longitude":"-0.095125"},"context":"","outcome_status":null,"persistent_id":"","id":74279655,"location_subtype":"","month":"2019-05"},{"category":"anti-social-behaviour","location_type":"Force","location":{"latitude":"51.531646","street":{"id":964587,"name":"On or near Wharf Road"},"longitude":"-0.096121"},"context":"","outcome_status":null,"persistent_id":"","id":74279657,"location_subtype":"","month":"2019-05"},{"category":"anti-social-behaviour","location_type":"Force","location":{"latitude":"51.533305","street":{"id":964602,"name":"On or near Baldwin Terrace"},"longitude":"-0.096441"},"context":"","outcome_status":null,"persistent_id":"","id":74279659,"location_subtype":"","month":"2019-05"},{"category":"anti-social-behaviour","location_type":"Force","location":{"latitude":"51.537027","street":{"id":964395,"name":"On or near Prebend Street"},"longitude":"-0.095218"},"context":"","outcome_status":null,"persistent_id":"","id":74279660,"location_subtype":"","month":"2019-05"},{"category":"anti-social-behaviour","location_type":"Force","location":{"latitude":"51.544796","street":{"id":968450,"name":"On or near Irving Mews"},"longitude":"-0.094663"},"context":"","outcome_status":null,"persistent_id":"","id":74279662,"location_subtype":"","month":"2019-05"},{"category":"anti-social-behaviour","location_type":"Force","location":{"latitude":"51.543241","street":{"id":964454,"name":"On or near Alwyne Road"},"longitude":"-0.096372"},"context":"","outcome_status":null,"persistent_id":"","id":74279663,"location_subtype":"","month":"2019-05"},{"category":"anti-social-behaviour","location_type":"Force","location":{"latitude":"51.537027","street":{"id":964395,"name":"On or near Prebend Street"},"longitude":"-0.095218"},"context":"","outcome_status":null,"persistent_id":"","id":74279664,"location_subtype":"","month":"2019-05"},{"category":"anti-social-behaviour","location_type":"Force","location":{"latitude":"51.535317","street":{"id":964401,"name":"On or near Packington Square"},"longitude":"-0.095708"},"context":"","outcome_status":null,"persistent_id":"","id":74279665,"location_subtype":"","month":"2019-05"},{"category":"anti-social-behaviour","location_type":"Force","location":{"latitude":"51.535317","street":{"id":964401,"name":"On or near Packington Square"},"longitude":"-0.095708"},"context":"","outcome_status":null,"persistent_id":"","id":74279666,"location_subtype":"","month":"2019-05"},{"category":"anti-social-behaviour","location_type":"Force","location":{"latitude":"51.535317","street":{"id":964401,"name":"On or near Packington Square"},"longitude":"-0.095708"},"context":"","outcome_status":null,"persistent_id":"","id":74279667,"location_subtype":"","month":"2019-05"},{"category":"anti-social-behaviour","location_type":"Force","location":{"latitude":"51.535317","street":{"id":964401,"name":"On or near Packington Square"},"longitude":"-0.095708"},"context":"","outcome_status":null,"persistent_id":"","id":74279668,"location_subtype":"","month":"2019-05"},{"category":"anti-social-behaviour","location_type":"Force","location":{"latitude":"51.535317","street":{"id":964401,"name":"On or near Packington Square"},"longitude":"-0.095708"},"context":"","outcome_status":null,"persistent_id":"","id":74279669,"location_subtype":"","month":"2019-05"},{"category":"anti-social-behaviour","location_type":"Force","location":{"latitude":"51.535317","street":{"id":964401,"name":"On or near Packington Square"},"longitude":"-0.095708"},"context":"","outcome_status":null,"persistent_id":"","id":74279670,"location_subtype":"","month":"2019-05"},{"category":"anti-social-behaviour","location_type":"Force","location":{"latitude":"51.535317","street":{"id":964401,"name":"On or near Packington Square"},"longitude":"-0.095708"},"context":"","outcome_status":null,"persistent_id":"","id":74279671,"location_subtype":"","month":"2019-05"},{"category":"anti-social-behaviour","location_type":"Force","location":{"latitude":"51.535317","street":{"id":964401,"name":"On or near Packington Square"},"longitude":"-0.095708"},"context":"","outcome_status":null,"persistent_id":"","id":74279672,"location_subtype":"","month":"2019-05"},{"category":"anti-social-behaviour","location_type":"Force","location":{"latitude":"51.535317","street":{"id":964401,"name":"On or near Packington Square"},"longitude":"-0.095708"},"context":"","outcome_status":null,"persistent_id":"","id":74279673,"location_subtype":"","month":"2019-05"},{"category":"anti-social-behaviour","location_type":"Force","location":{"latitude":"51.535317","street":{"id":964401,"name":"On or near Packington Square"},"longitude":"-0.095708"},"context":"","outcome_status":null,"persistent_id":"","id":74279674,"location_subtype":"","month":"2019-05"},{"category":"anti-social-behaviour","location_type":"Force","location":{"latitude":"51.535317","street":{"id":964401,"name":"On or near Packington Square"},"longitude":"-0.095708"},"context":"","outcome_status":null,"persistent_id":"","id":74279675,"location_subtype":"","month":"2019-05"},{"category":"anti-social-behaviour","location_type":"Force","location":{"latitude":"51.539390","street":{"id":964414,"name":"On or near Greenman Street"},"longitude":"-0.096244"},"context":"","outcome_status":null,"persistent_id":"","id":74279676,"location_subtype":"","month":"2019-05"},{"category":"anti-social-behaviour","location_type":"Force","location":{"latitude":"51.524531","street":{"id":961245,"name":"On or near Gee Street"},"longitude":"-0.097657"},"context":"","outcome_status":null,"persistent_id":"","id":74279678,"location_subtype":"","month":"2019-05"},{"category":"anti-social-behaviour","location_type":"Force","location":{"latitude":"51.524531","street":{"id":961245,"name":"On or near Gee Street"},"longitude":"-0.097657"},"context":"","outcome_status":null,"persistent_id":"","id":74279679,"location_subtype":"","month":"2019-05"},{"category":"anti-social-behaviour","location_type":"Force","location":{"latitude":"51.533690","street":{"id":964596,"name":"On or near Provence Street"},"longitude":"-0.096843"},"context":"","outcome_status":null,"persistent_id":"","id":74279680,"location_subtype":"","month":"2019-05"},{"category":"anti-social-behaviour","location_type":"Force","location":{"latitude":"51.533690","street":{"id":964596,"name":"On or near Provence Street"},"longitude":"-0.096843"},"context":"","outcome_status":null,"persistent_id":"","id":74279681,"location_subtype":"","month":"2019-05"},{"category":"anti-social-behaviour","location_type":"Force","location":{"latitude":"51.526149","street":{"id":961207,"name":"On or near Seward Street"},"longitude":"-0.098224"},"context":"","outcome_status":null,"persistent_id":"","id":74279683,"location_subtype":"","month":"2019-05"},{"category":"anti-social-behaviour","location_type":"Force","location":{"latitude":"51.526149","street":{"id":961207,"name":"On or near Seward Street"},"longitude":"-0.098224"},"context":"","outcome_status":null,"persistent_id":"","id":74279684,"location_subtype":"","month":"2019-05"},{"category":"anti-social-behaviour","location_type":"Force","location":{"latitude":"51.524555","street":{"id":961233,"name":"On or near Ludlow Street"},"longitude":"-0.098060"},"context":"","outcome_status":null,"persistent_id":"","id":74279686,"location_subtype":"","month":"2019-05"},{"category":"anti-social-behaviour","location_type":"Force","location":{"latitude":"51.531101","street":{"id":961257,"name":"On or near City Garden Row"},"longitude":"-0.098609"},"context":"","outcome_status":null,"persistent_id":"","id":74279687,"location_subtype":"","month":"2019-05"},{"category":"anti-social-behaviour","location_type":"Force","location":{"latitude":"51.526149","street":{"id":961207,"name":"On or near Seward Street"},"longitude":"-0.098224"},"context":"","outcome_status":null,"persistent_id":"","id":74279688,"location_subtype":"","month":"2019-05"},{"category":"anti-social-behaviour","location_type":"Force","location":{"latitude":"51.534987","street":{"id":964382,"name":"On or near St Peter's Street"},"longitude":"-0.099211"},"context":"","outcome_status":null,"persistent_id":"","id":74279690,"location_subtype":"","month":"2019-05"},{"category":"anti-social-behaviour","location_type":"Force","location":{"latitude":"51.534987","street":{"id":964382,"name":"On or near St Peter's Street"},"longitude":"-0.099211"},"context":"","outcome_status":null,"persistent_id":"","id":74279691,"location_subtype":"","month":"2019-05"},{"category":"anti-social-behaviour","location_type":"Force","location":{"latitude":"51.546529","street":{"id":968444,"name":"On or near St Paul's Road"},"longitude":"-0.099494"},"context":"","outcome_status":null,"persistent_id":"","id":74279693,"location_subtype":"","month":"2019-05"},{"category":"anti-social-behaviour","location_type":"Force","location":{"latitude":"51.534397","street":{"id":964415,"name":"On or near Grantbridge Street"},"longitude":"-0.099985"},"context":"","outcome_status":null,"persistent_id":"","id":74279694,"location_subtype":"","month":"2019-05"},{"category":"anti-social-behaviour","location_type":"Force","location":{"latitude":"51.540783","street":{"id":964411,"name":"On or near Halton Road"},"longitude":"-0.099532"},"context":"","outcome_status":null,"persistent_id":"","id":74279695,"location_subtype":"","month":"2019-05"},{"category":"anti-social-behaviour","location_type":"Force","location":{"latitude":"51.520174","street":{"id":961280,"name":"On or near Charterhouse Street"},"longitude":"-0.100750"},"context":"","outcome_status":null,"persistent_id":"","id":74279696,"location_subtype":"","month":"2019-05"},{"category":"anti-social-behaviour","location_type":"Force","location":{"latitude":"51.520174","street":{"id":961280,"name":"On or near Charterhouse Street"},"longitude":"-0.100750"},"context":"","outcome_status":null,"persistent_id":"","id":74279697,"location_subtype":"","month":"2019-05"},{"category":"anti-social-behaviour","location_type":"Force","location":{"latitude":"51.529144","street":{"id":961223,"name":"On or near New Charles Street"},"longitude":"-0.100983"},"context":"","outcome_status":null,"persistent_id":"","id":74279699,"location_subtype":"","month":"2019-05"},{"category":"anti-social-behaviour","location_type":"Force","location":{"latitude":"51.529144","street":{"id":961223,"name":"On or near New Charles Street"},"longitude":"-0.100983"},"context":"","outcome_status":null,"persistent_id":"","id":74279700,"location_subtype":"","month":"2019-05"},{"category":"anti-social-behaviour","location_type":"Force","location":{"latitude":"51.519888","street":{"id":961277,"name":"On or near Greenhill's Rents"},"longitude":"-0.102506"},"context":"","outcome_status":null,"persistent_id":"","id":74281377,"location_subtype":"","month":"2019-05"},{"category":"anti-social-behaviour","location_type":"Force","location":{"latitude":"51.537716","street":{"id":964388,"name":"On or near Rothery Street"},"longitude":"-0.101693"},"context":"","outcome_status":null,"persistent_id":"","id":74281378,"location_subtype":"","month":"2019-05"},{"category":"anti-social-behaviour","location_type":"Force","location":{"latitude":"51.544808","street":{"id":968461,"name":"On or near Theatre\/concert Hall"},"longitude":"-0.102595"},"context":"","outcome_status":null,"persistent_id":"","id":74281379,"location_subtype":"","month":"2019-05"},{"category":"anti-social-behaviour","location_type":"Force","location":{"latitude":"51.535893","street":{"id":964464,"name":"On or near Supermarket"},"longitude":"-0.102374"},"context":"","outcome_status":null,"persistent_id":"","id":74281380,"location_subtype":"","month":"2019-05"},{"category":"anti-social-behaviour","location_type":"Force","location":{"latitude":"51.528457","street":{"id":961249,"name":"On or near Earlstoke Street"},"longitude":"-0.103029"},"context":"","outcome_status":null,"persistent_id":"","id":74281381,"location_subtype":"","month":"2019-05"},{"category":"anti-social-behaviour","location_type":"Force","location":{"latitude":"51.534061","street":{"id":964434,"name":"On or near Colebrooke Row"},"longitude":"-0.102566"},"context":"","outcome_status":null,"persistent_id":"","id":74281382,"location_subtype":"","month":"2019-05"},{"category":"anti-social-behaviour","location_type":"Force","location":{"latitude":"51.537365","street":{"id":964465,"name":"On or near Supermarket"},"longitude":"-0.102760"},"context":"","outcome_status":null,"persistent_id":"","id":74281386,"location_subtype":"","month":"2019-05"},{"category":"anti-social-behaviour","location_type":"Force","location":{"latitude":"51.542479","street":{"id":964380,"name":"On or near Tyndale Lane"},"longitude":"-0.102591"},"context":"","outcome_status":null,"persistent_id":"","id":74281387,"location_subtype":"","month":"2019-05"},{"category":"anti-social-behaviour","location_type":"Force","location":{"latitude":"51.530524","street":{"id":960895,"name":"On or near Further\/higher Educational Building"},"longitude":"-0.104039"},"context":"","outcome_status":null,"persistent_id":"","id":74281388,"location_subtype":"","month":"2019-05"},{"category":"anti-social-behaviour","location_type":"Force","location":{"latitude":"51.545498","street":{"id":968312,"name":"On or near Hampton Court"},"longitude":"-0.103604"},"context":"","outcome_status":null,"persistent_id":"","id":74281389,"location_subtype":"","month":"2019-05"},{"category":"anti-social-behaviour","location_type":"Force","location":{"latitude":"51.545498","street":{"id":968312,"name":"On or near Hampton Court"},"longitude":"-0.103604"},"context":"","outcome_status":null,"persistent_id":"","id":74281390,"location_subtype":"","month":"2019-05"},{"category":"anti-social-behaviour","location_type":"Force","location":{"latitude":"51.545498","street":{"id":968312,"name":"On or near Hampton Court"},"longitude":"-0.103604"},"context":"","outcome_status":null,"persistent_id":"","id":74281391,"location_subtype":"","month":"2019-05"},{"category":"anti-social-behaviour","location_type":"Force","location":{"latitude":"51.545498","street":{"id":968312,"name":"On or near Hampton Court"},"longitude":"-0.103604"},"context":"","outcome_status":null,"persistent_id":"","id":74281392,"location_subtype":"","month":"2019-05"},{"category":"anti-social-behaviour","location_type":"Force","location":{"latitude":"51.545498","street":{"id":968312,"name":"On or near Hampton Court"},"longitude":"-0.103604"},"context":"","outcome_status":null,"persistent_id":"","id":74281393,"location_subtype":"","month":"2019-05"},{"category":"anti-social-behaviour","location_type":"Force","location":{"latitude":"51.545498","street":{"id":968312,"name":"On or near Hampton Court"},"longitude":"-0.103604"},"context":"","outcome_status":null,"persistent_id":"","id":74281394,"location_subtype":"","month":"2019-05"},{"category":"anti-social-behaviour","location_type":"Force","location":{"latitude":"51.530524","street":{"id":960895,"name":"On or near Further\/higher Educational Building"},"longitude":"-0.104039"},"context":"","outcome_status":null,"persistent_id":"","id":74281395,"location_subtype":"","month":"2019-05"},{"category":"anti-social-behaviour","location_type":"Force","location":{"latitude":"51.546560","street":{"id":968325,"name":"On or near Nightclub"},"longitude":"-0.104209"},"context":"","outcome_status":null,"persistent_id":"","id":74281396,"location_subtype":"","month":"2019-05"},{"category":"anti-social-behaviour","location_type":"Force","location":{"latitude":"51.546560","street":{"id":968325,"name":"On or near Nightclub"},"longitude":"-0.104209"},"context":"","outcome_status":null,"persistent_id":"","id":74281397,"location_subtype":"","month":"2019-05"},{"category":"anti-social-behaviour","location_type":"Force","location":{"latitude":"51.545498","street":{"id":968312,"name":"On or near Hampton Court"},"longitude":"-0.103604"},"context":"","outcome_status":null,"persistent_id":"","id":74281398,"location_subtype":"","month":"2019-05"},{"category":"anti-social-behaviour","location_type":"Force","location":{"latitude":"51.538301","street":{"id":964462,"name":"On or near Theatre\/concert Hall"},"longitude":"-0.102851"},"context":"","outcome_status":null,"persistent_id":"","id":74281399,"location_subtype":"","month":"2019-05"},{"category":"anti-social-behaviour","location_type":"Force","location":{"latitude":"51.536389","street":{"id":964686,"name":"On or near St Alban's Place"},"longitude":"-0.104156"},"context":"","outcome_status":null,"persistent_id":"","id":74281400,"location_subtype":"","month":"2019-05"},{"category":"anti-social-behaviour","location_type":"Force","location":{"latitude":"51.536389","street":{"id":964686,"name":"On or near St Alban's Place"},"longitude":"-0.104156"},"context":"","outcome_status":null,"persistent_id":"","id":74281401,"location_subtype":"","month":"2019-05"},{"category":"anti-social-behaviour","location_type":"Force","location":{"latitude":"51.536389","street":{"id":964686,"name":"On or near St Alban's Place"},"longitude":"-0.104156"},"context":"","outcome_status":null,"persistent_id":"","id":74281402,"location_subtype":"","month":"2019-05"},{"category":"anti-social-behaviour","location_type":"Force","location":{"latitude":"51.533584","street":{"id":964807,"name":"On or near Duncan Street"},"longitude":"-0.104172"},"context":"","outcome_status":null,"persistent_id":"","id":74281403,"location_subtype":"","month":"2019-05"},{"category":"anti-social-behaviour","location_type":"Force","location":{"latitude":"51.529481","street":{"id":960843,"name":"On or near Hermit Street"},"longitude":"-0.104025"},"context":"","outcome_status":null,"persistent_id":"","id":74281404,"location_subtype":"","month":"2019-05"},{"category":"anti-social-behaviour","location_type":"Force","location":{"latitude":"51.524717","street":{"id":961204,"name":"On or near St John Street"},"longitude":"-0.103603"},"context":"","outcome_status":null,"persistent_id":"","id":74281405,"location_subtype":"","month":"2019-05"},{"category":"anti-social-behaviour","location_type":"Force","location":{"latitude":"51.520786","street":{"id":961282,"name":"On or near Benjamin Street"},"longitude":"-0.104098"},"context":"","outcome_status":null,"persistent_id":"","id":74281406,"location_subtype":"","month":"2019-05"},{"category":"anti-social-behaviour","location_type":"Force","location":{"latitude":"51.540425","street":{"id":964675,"name":"On or near Waterloo Terrace"},"longitude":"-0.103527"},"context":"","outcome_status":null,"persistent_id":"","id":74281407,"location_subtype":"","month":"2019-05"},{"category":"anti-social-behaviour","location_type":"Force","location":{"latitude":"51.523484","street":{"id":961264,"name":"On or near Aylesbury Street"},"longitude":"-0.104101"},"context":"","outcome_status":null,"persistent_id":"","id":74281408,"location_subtype":"","month":"2019-05"},{"category":"anti-social-behaviour","location_type":"Force","location":{"latitude":"51.522360","street":{"id":960872,"name":"On or near Clerkenwell Road"},"longitude":"-0.105200"},"context":"","outcome_status":null,"persistent_id":"","id":74281410,"location_subtype":"","month":"2019-05"},{"category":"anti-social-behaviour","location_type":"Force","location":{"latitude":"51.533584","street":{"id":964807,"name":"On or near Duncan Street"},"longitude":"-0.104172"},"context":"","outcome_status":null,"persistent_id":"","id":74281414,"location_subtype":"","month":"2019-05"},{"category":"anti-social-behaviour","location_type":"Force","location":{"latitude":"51.533584","street":{"id":964807,"name":"On or near Duncan Street"},"longitude":"-0.104172"},"context":"","outcome_status":null,"persistent_id":"","id":74281416,"location_subtype":"","month":"2019-05"},{"category":"anti-social-behaviour","location_type":"Force","location":{"latitude":"51.527102","street":{"id":961060,"name":"On or near Whiskin Street"},"longitude":"-0.105436"},"context":"","outcome_status":null,"persistent_id":"","id":74281417,"location_subtype":"","month":"2019-05"},{"category":"anti-social-behaviour","location_type":"Force","location":{"latitude":"51.519873","street":{"id":961054,"name":"On or near Nightclub"},"longitude":"-0.106038"},"context":"","outcome_status":null,"persistent_id":"","id":74281418,"location_subtype":"","month":"2019-05"},{"category":"anti-social-behaviour","location_type":"Force","location":{"latitude":"51.519873","street":{"id":961054,"name":"On or near Nightclub"},"longitude":"-0.106038"},"context":"","outcome_status":null,"persistent_id":"","id":74281419,"location_subtype":"","month":"2019-05"},{"category":"anti-social-behaviour","location_type":"Force","location":{"latitude":"51.533838","street":{"id":964803,"name":"On or near Upper Street"},"longitude":"-0.105430"},"context":"","outcome_status":null,"persistent_id":"","id":74281421,"location_subtype":"","month":"2019-05"},{"category":"anti-social-behaviour","location_type":"Force","location":{"latitude":"51.533838","street":{"id":964803,"name":"On or near Upper Street"},"longitude":"-0.105430"},"context":"","outcome_status":null,"persistent_id":"","id":74281422,"location_subtype":"","month":"2019-05"},{"category":"anti-social-behaviour","location_type":"Force","location":{"latitude":"51.533838","street":{"id":964803,"name":"On or near Upper Street"},"longitude":"-0.105430"},"context":"","outcome_status":null,"persistent_id":"","id":74281423,"location_subtype":"","month":"2019-05"},{"category":"anti-social-behaviour","location_type":"Force","location":{"latitude":"51.534460","street":{"id":964727,"name":"On or near Gateway Arcade"},"longitude":"-0.104986"},"context":"","outcome_status":null,"persistent_id":"","id":74281425,"location_subtype":"","month":"2019-05"},{"category":"anti-social-behaviour","location_type":"Force","location":{"latitude":"51.547122","street":{"id":968165,"name":"On or near Holloway Road"},"longitude":"-0.104994"},"context":"","outcome_status":null,"persistent_id":"","id":74281429,"location_subtype":"","month":"2019-05"},{"category":"anti-social-behaviour","location_type":"Force","location":{"latitude":"51.547122","street":{"id":968165,"name":"On or near Holloway Road"},"longitude":"-0.104994"},"context":"","outcome_status":null,"persistent_id":"","id":74281430,"location_subtype":"","month":"2019-05"},{"category":"anti-social-behaviour","location_type":"Force","location":{"latitude":"51.547122","street":{"id":968165,"name":"On or near Holloway Road"},"longitude":"-0.104994"},"context":"","outcome_status":null,"persistent_id":"","id":74281431,"location_subtype":"","month":"2019-05"},{"category":"anti-social-behaviour","location_type":"Force","location":{"latitude":"51.544646","street":{"id":968310,"name":"On or near Laycock Street"},"longitude":"-0.105414"},"context":"","outcome_status":null,"persistent_id":"","id":74281433,"location_subtype":"","month":"2019-05"},{"category":"anti-social-behaviour","location_type":"Force","location":{"latitude":"51.529409","street":{"id":960890,"name":"On or near Theatre\/concert Hall"},"longitude":"-0.106263"},"context":"","outcome_status":null,"persistent_id":"","id":74281434,"location_subtype":"","month":"2019-05"},{"category":"anti-social-behaviour","location_type":"Force","location":{"latitude":"51.539866","street":{"id":964706,"name":"On or near Milner Square"},"longitude":"-0.105079"},"context":"","outcome_status":null,"persistent_id":"","id":74281435,"location_subtype":"","month":"2019-05"},{"category":"anti-social-behaviour","location_type":"Force","location":{"latitude":"51.539866","street":{"id":964706,"name":"On or near Milner Square"},"longitude":"-0.105079"},"context":"","outcome_status":null,"persistent_id":"","id":74281436,"location_subtype":"","month":"2019-05"},{"category":"anti-social-behaviour","location_type":"Force","location":{"latitude":"51.524017","street":{"id":960875,"name":"On or near Clerkenwell Close"},"longitude":"-0.106501"},"context":"","outcome_status":null,"persistent_id":"","id":74281439,"location_subtype":"","month":"2019-05"},{"category":"anti-social-behaviour","location_type":"Force","location":{"latitude":"51.531480","street":{"id":964798,"name":"On or near Theatre\/concert Hall"},"longitude":"-0.105888"},"context":"","outcome_status":null,"persistent_id":"","id":74281440,"location_subtype":"","month":"2019-05"},{"category":"anti-social-behaviour","location_type":"Force","location":{"latitude":"51.536819","street":{"id":964698,"name":"On or near Old Royal Free Place"},"longitude":"-0.106863"},"context":"","outcome_status":null,"persistent_id":"","id":74281445,"location_subtype":"","month":"2019-05"},{"category":"anti-social-behaviour","location_type":"Force","location":{"latitude":"51.527760","street":{"id":960849,"name":"On or near Hardwick Street"},"longitude":"-0.108321"},"context":"","outcome_status":null,"persistent_id":"","id":74281446,"location_subtype":"","month":"2019-05"},{"category":"anti-social-behaviour","location_type":"Force","location":{"latitude":"51.538079","street":{"id":964714,"name":"On or near Liverpool Road"},"longitude":"-0.106927"},"context":"","outcome_status":null,"persistent_id":"","id":74281448,"location_subtype":"","month":"2019-05"},{"category":"anti-social-behaviour","location_type":"Force","location":{"latitude":"51.538079","street":{"id":964714,"name":"On or near Liverpool Road"},"longitude":"-0.106927"},"context":"","outcome_status":null,"persistent_id":"","id":74281451,"location_subtype":"","month":"2019-05"},{"category":"anti-social-behaviour","location_type":"Force","location":{"latitude":"51.540120","street":{"id":964619,"name":"On or near Thornhill Square"},"longitude":"-0.115826"},"context":"","outcome_status":null,"persistent_id":"","id":74283029,"location_subtype":"","month":"2019-05"},{"category":"anti-social-behaviour","location_type":"Force","location":{"latitude":"51.540120","street":{"id":964619,"name":"On or near Thornhill Square"},"longitude":"-0.115826"},"context":"","outcome_status":null,"persistent_id":"","id":74283030,"location_subtype":"","month":"2019-05"},{"category":"anti-social-behaviour","location_type":"Force","location":{"latitude":"51.533584","street":{"id":964807,"name":"On or near Duncan Street"},"longitude":"-0.104172"},"context":"","outcome_status":null,"persistent_id":"","id":74281413,"location_subtype":"","month":"2019-05"},{"category":"anti-social-behaviour","location_type":"Force","location":{"latitude":"51.532853","street":{"id":964817,"name":"On or near Killick Street"},"longitude":"-0.118563"},"context":"","outcome_status":null,"persistent_id":"","id":74283094,"location_subtype":"","month":"2019-05"},{"category":"anti-social-behaviour","location_type":"Force","location":{"latitude":"51.529697","street":{"id":960985,"name":"On or near Conference\/exhibition Centre"},"longitude":"-0.118592"},"context":"","outcome_status":null,"persistent_id":"","id":74283085,"location_subtype":"","month":"2019-05"},{"category":"anti-social-behaviour","location_type":"Force","location":{"latitude":"51.529697","street":{"id":960985,"name":"On or near Conference\/exhibition Centre"},"longitude":"-0.118592"},"context":"","outcome_status":null,"persistent_id":"","id":74283086,"location_subtype":"","month":"2019-05"},{"category":"anti-social-behaviour","location_type":"Force","location":{"latitude":"51.529697","street":{"id":960985,"name":"On or near Conference\/exhibition Centre"},"longitude":"-0.118592"},"context":"","outcome_status":null,"persistent_id":"","id":74283087,"location_subtype":"","month":"2019-05"},{"category":"anti-social-behaviour","location_type":"Force","location":{"latitude":"51.529697","street":{"id":960985,"name":"On or near Conference\/exhibition Centre"},"longitude":"-0.118592"},"context":"","outcome_status":null,"persistent_id":"","id":74283088,"location_subtype":"","month":"2019-05"},{"category":"anti-social-behaviour","location_type":"Force","location":{"latitude":"51.544749","street":{"id":964673,"name":"On or near Parking Area"},"longitude":"-0.113991"},"context":"","outcome_status":null,"persistent_id":"","id":74283015,"location_subtype":"","month":"2019-05"},{"category":"anti-social-behaviour","location_type":"Force","location":{"latitude":"51.529571","street":{"id":960780,"name":"On or near Vernon Rise"},"longitude":"-0.115195"},"context":"","outcome_status":null,"persistent_id":"","id":74283018,"location_subtype":"","month":"2019-05"},{"category":"anti-social-behaviour","location_type":"Force","location":{"latitude":"51.540865","street":{"id":964755,"name":"On or near Bridgeman Road"},"longitude":"-0.115189"},"context":"","outcome_status":null,"persistent_id":"","id":74283022,"location_subtype":"","month":"2019-05"},{"category":"anti-social-behaviour","location_type":"Force","location":{"latitude":"51.531341","street":{"id":960982,"name":"On or near Affleck Street"},"longitude":"-0.116217"},"context":"","outcome_status":null,"persistent_id":"","id":74283023,"location_subtype":"","month":"2019-05"},{"category":"anti-social-behaviour","location_type":"Force","location":{"latitude":"51.531341","street":{"id":960982,"name":"On or near Affleck Street"},"longitude":"-0.116217"},"context":"","outcome_status":null,"persistent_id":"","id":74283024,"location_subtype":"","month":"2019-05"},{"category":"anti-social-behaviour","location_type":"Force","location":{"latitude":"51.541423","street":{"id":964679,"name":"On or near Thornhill Crescent"},"longitude":"-0.115181"},"context":"","outcome_status":null,"persistent_id":"","id":74283025,"location_subtype":"","month":"2019-05"},{"category":"anti-social-behaviour","location_type":"Force","location":{"latitude":"51.543695","street":{"id":964650,"name":"On or near Centurion Close"},"longitude":"-0.115548"},"context":"","outcome_status":null,"persistent_id":"","id":74283037,"location_subtype":"","month":"2019-05"},{"category":"anti-social-behaviour","location_type":"Force","location":{"latitude":"51.539512","street":{"id":964665,"name":"On or near Supermarket"},"longitude":"-0.117134"},"context":"","outcome_status":null,"persistent_id":"","id":74283041,"location_subtype":"","month":"2019-05"},{"category":"anti-social-behaviour","location_type":"Force","location":{"latitude":"51.532959","street":{"id":964821,"name":"On or near Calshot Street"},"longitude":"-0.117318"},"context":"","outcome_status":null,"persistent_id":"","id":74283042,"location_subtype":"","month":"2019-05"},{"category":"anti-social-behaviour","location_type":"Force","location":{"latitude":"51.540553","street":{"id":964651,"name":"On or near Carnoustie Drive"},"longitude":"-0.117596"},"context":"","outcome_status":null,"persistent_id":"","id":74283056,"location_subtype":"","month":"2019-05"},{"category":"anti-social-behaviour","location_type":"Force","location":{"latitude":"51.544773","street":{"id":964621,"name":"On or near The Drive"},"longitude":"-0.117754"},"context":"","outcome_status":null,"persistent_id":"","id":74283059,"location_subtype":"","month":"2019-05"},{"category":"anti-social-behaviour","location_type":"Force","location":{"latitude":"51.544773","street":{"id":964621,"name":"On or near The Drive"},"longitude":"-0.117754"},"context":"","outcome_status":null,"persistent_id":"","id":74283060,"location_subtype":"","month":"2019-05"},{"category":"anti-social-behaviour","location_type":"Force","location":{"latitude":"51.544773","street":{"id":964621,"name":"On or near The Drive"},"longitude":"-0.117754"},"context":"","outcome_status":null,"persistent_id":"","id":74283064,"location_subtype":"","month":"2019-05"},{"category":"anti-social-behaviour","location_type":"Force","location":{"latitude":"51.536811","street":{"id":964657,"name":"On or near Boadicea Street"},"longitude":"-0.118659"},"context":"","outcome_status":null,"persistent_id":"","id":74283065,"location_subtype":"","month":"2019-05"},{"category":"anti-social-behaviour","location_type":"Force","location":{"latitude":"51.534265","street":{"id":964612,"name":"On or near Wynford Road"},"longitude":"-0.117452"},"context":"","outcome_status":null,"persistent_id":"","id":74283080,"location_subtype":"","month":"2019-05"},{"category":"anti-social-behaviour","location_type":"Force","location":{"latitude":"51.529697","street":{"id":960985,"name":"On or near Conference\/exhibition Centre"},"longitude":"-0.118592"},"context":"","outcome_status":null,"persistent_id":"","id":74283082,"location_subtype":"","month":"2019-05"},{"category":"anti-social-behaviour","location_type":"Force","location":{"latitude":"51.529697","street":{"id":960985,"name":"On or near Conference\/exhibition Centre"},"longitude":"-0.118592"},"context":"","outcome_status":null,"persistent_id":"","id":74283083,"location_subtype":"","month":"2019-05"},{"category":"anti-social-behaviour","location_type":"Force","location":{"latitude":"51.538638","street":{"id":964632,"name":"On or near Pembroke Avenue"},"longitude":"-0.119881"},"context":"","outcome_status":null,"persistent_id":"","id":74283111,"location_subtype":"","month":"2019-05"},{"category":"anti-social-behaviour","location_type":"Force","location":{"latitude":"51.530950","street":{"id":960945,"name":"On or near King's Cross Road"},"longitude":"-0.119895"},"context":"","outcome_status":null,"persistent_id":"","id":74283114,"location_subtype":"","month":"2019-05"},{"category":"anti-social-behaviour","location_type":"Force","location":{"latitude":"51.530950","street":{"id":960945,"name":"On or near King's Cross Road"},"longitude":"-0.119895"},"context":"","outcome_status":null,"persistent_id":"","id":74283115,"location_subtype":"","month":"2019-05"},{"category":"anti-social-behaviour","location_type":"Force","location":{"latitude":"51.530950","street":{"id":960945,"name":"On or near King's Cross Road"},"longitude":"-0.119895"},"context":"","outcome_status":null,"persistent_id":"","id":74283116,"location_subtype":"","month":"2019-05"},{"category":"anti-social-behaviour","location_type":"Force","location":{"latitude":"51.533547","street":{"id":964827,"name":"On or near Wharfdale Road"},"longitude":"-0.120336"},"context":"","outcome_status":null,"persistent_id":"","id":74283122,"location_subtype":"","month":"2019-05"},{"category":"anti-social-behaviour","location_type":"Force","location":{"latitude":"51.532107","street":{"id":964818,"name":"On or near Keystone Crescent"},"longitude":"-0.120280"},"context":"","outcome_status":null,"persistent_id":"","id":74283123,"location_subtype":"","month":"2019-05"},{"category":"anti-social-behaviour","location_type":"Force","location":{"latitude":"51.531286","street":{"id":960932,"name":"On or near Omega Place"},"longitude":"-0.120675"},"context":"","outcome_status":null,"persistent_id":"","id":74283130,"location_subtype":"","month":"2019-05"},{"category":"anti-social-behaviour","location_type":"Force","location":{"latitude":"51.538638","street":{"id":964632,"name":"On or near Pembroke Avenue"},"longitude":"-0.119881"},"context":"","outcome_status":null,"persistent_id":"","id":74283133,"location_subtype":"","month":"2019-05"},{"category":"anti-social-behaviour","location_type":"Force","location":{"latitude":"51.539089","street":{"id":964659,"name":"On or near Bingfield Street"},"longitude":"-0.119964"},"context":"","outcome_status":null,"persistent_id":"","id":74283136,"location_subtype":"","month":"2019-05"},{"category":"anti-social-behaviour","location_type":"Force","location":{"latitude":"51.531716","street":{"id":964822,"name":"On or near Caledonia Street"},"longitude":"-0.121709"},"context":"","outcome_status":null,"persistent_id":"","id":74283143,"location_subtype":"","month":"2019-05"},{"category":"anti-social-behaviour","location_type":"Force","location":{"latitude":"51.531716","street":{"id":964822,"name":"On or near Caledonia Street"},"longitude":"-0.121709"},"context":"","outcome_status":null,"persistent_id":"","id":74283144,"location_subtype":"","month":"2019-05"},{"category":"anti-social-behaviour","location_type":"Force","location":{"latitude":"51.532911","street":{"id":964815,"name":"On or near Railway Street"},"longitude":"-0.121631"},"context":"","outcome_status":null,"persistent_id":"","id":74283154,"location_subtype":"","month":"2019-05"},{"category":"anti-social-behaviour","location_type":"Force","location":{"latitude":"51.534969","street":{"id":964753,"name":"On or near Bromfield Street"},"longitude":"-0.106436"},"context":"","outcome_status":null,"persistent_id":"","id":74281442,"location_subtype":"","month":"2019-05"},{"category":"anti-social-behaviour","location_type":"Force","location":{"latitude":"51.535843","street":{"id":964487,"name":"On or near Hyde Road"},"longitude":"-0.083285"},"context":"","outcome_status":null,"persistent_id":"","id":74282713,"location_subtype":"","month":"2019-05"},{"category":"anti-social-behaviour","location_type":"Force","location":{"latitude":"51.527198","street":{"id":961170,"name":"On or near Brunswick Place"},"longitude":"-0.086402"},"context":"","outcome_status":null,"persistent_id":"","id":74282733,"location_subtype":"","month":"2019-05"},{"category":"anti-social-behaviour","location_type":"Force","location":{"latitude":"51.526496","street":{"id":961132,"name":"On or near Vince Street"},"longitude":"-0.085840"},"context":"","outcome_status":null,"persistent_id":"","id":74282750,"location_subtype":"","month":"2019-05"},{"category":"anti-social-behaviour","location_type":"Force","location":{"latitude":"51.526496","street":{"id":961132,"name":"On or near Vince Street"},"longitude":"-0.085840"},"context":"","outcome_status":null,"persistent_id":"","id":74282751,"location_subtype":"","month":"2019-05"},{"category":"anti-social-behaviour","location_type":"Force","location":{"latitude":"51.531513","street":{"id":964572,"name":"On or near Evelyn Walk"},"longitude":"-0.087966"},"context":"","outcome_status":null,"persistent_id":"","id":74282756,"location_subtype":"","month":"2019-05"},{"category":"anti-social-behaviour","location_type":"Force","location":{"latitude":"51.531513","street":{"id":964572,"name":"On or near Evelyn Walk"},"longitude":"-0.087966"},"context":"","outcome_status":null,"persistent_id":"","id":74282759,"location_subtype":"","month":"2019-05"},{"category":"anti-social-behaviour","location_type":"Force","location":{"latitude":"51.529720","street":{"id":961077,"name":"On or near Provost Street"},"longitude":"-0.088877"},"context":"","outcome_status":null,"persistent_id":"","id":74282765,"location_subtype":"","month":"2019-05"},{"category":"anti-social-behaviour","location_type":"Force","location":{"latitude":"51.529750","street":{"id":961067,"name":"On or near Underwood Street"},"longitude":"-0.091254"},"context":"","outcome_status":null,"persistent_id":"","id":74282782,"location_subtype":"","month":"2019-05"},{"category":"anti-social-behaviour","location_type":"Force","location":{"latitude":"51.533375","street":{"id":964583,"name":"On or near Forston Street"},"longitude":"-0.091305"},"context":"","outcome_status":null,"persistent_id":"","id":74282783,"location_subtype":"","month":"2019-05"},{"category":"anti-social-behaviour","location_type":"Force","location":{"latitude":"51.526975","street":{"id":961092,"name":"On or near Galway Street"},"longitude":"-0.092567"},"context":"","outcome_status":null,"persistent_id":"","id":74282789,"location_subtype":"","month":"2019-05"},{"category":"anti-social-behaviour","location_type":"Force","location":{"latitude":"51.531646","street":{"id":964587,"name":"On or near Wharf Road"},"longitude":"-0.096121"},"context":"","outcome_status":null,"persistent_id":"","id":74282800,"location_subtype":"","month":"2019-05"},{"category":"anti-social-behaviour","location_type":"Force","location":{"latitude":"51.540553","street":{"id":964651,"name":"On or near Carnoustie Drive"},"longitude":"-0.117596"},"context":"","outcome_status":null,"persistent_id":"","id":74283055,"location_subtype":"","month":"2019-05"},{"category":"anti-social-behaviour","location_type":"Force","location":{"latitude":"51.538020","street":{"id":964615,"name":"On or near Twyford Street"},"longitude":"-0.117773"},"context":"","outcome_status":null,"persistent_id":"","id":74283057,"location_subtype":"","month":"2019-05"},{"category":"anti-social-behaviour","location_type":"Force","location":{"latitude":"51.536811","street":{"id":964657,"name":"On or near Boadicea Street"},"longitude":"-0.118659"},"context":"","outcome_status":null,"persistent_id":"","id":74283066,"location_subtype":"","month":"2019-05"},{"category":"anti-social-behaviour","location_type":"Force","location":{"latitude":"51.521567","street":{"id":587600,"name":"On or near Fann Street"},"longitude":"-0.097334"},"context":"","outcome_status":null,"persistent_id":"","id":74597623,"location_subtype":"","month":"2019-05"},{"category":"anti-social-behaviour","location_type":"Force","location":{"latitude":"51.520747","street":{"id":587607,"name":"On or near Park\/open Space"},"longitude":"-0.096114"},"context":"","outcome_status":null,"persistent_id":"","id":74597631,"location_subtype":"","month":"2019-05"},{"category":"anti-social-behaviour","location_type":"Force","location":{"latitude":"51.520747","street":{"id":587607,"name":"On or near Park\/open Space"},"longitude":"-0.096114"},"context":"","outcome_status":null,"persistent_id":"","id":74597657,"location_subtype":"","month":"2019-05"},{"category":"anti-social-behaviour","location_type":"Force","location":{"latitude":"51.534265","street":{"id":964612,"name":"On or near Wynford Road"},"longitude":"-0.117452"},"context":"","outcome_status":null,"persistent_id":"","id":74283081,"location_subtype":"","month":"2019-05"},{"category":"anti-social-behaviour","location_type":"Force","location":{"latitude":"51.519526","street":{"id":587610,"name":"On or near Middle Street"},"longitude":"-0.098500"},"context":"","outcome_status":null,"persistent_id":"","id":74597678,"location_subtype":"","month":"2019-05"},{"category":"anti-social-behaviour","location_type":"Force","location":{"latitude":"51.519703","street":{"id":587616,"name":"On or near Grand Avenue"},"longitude":"-0.101649"},"context":"","outcome_status":null,"persistent_id":"","id":74597712,"location_subtype":"","month":"2019-05"},{"category":"anti-social-behaviour","location_type":"Force","location":{"latitude":"51.523156","street":{"id":587602,"name":"On or near Baltic Street West"},"longitude":"-0.097210"},"context":"","outcome_status":null,"persistent_id":"","id":74597716,"location_subtype":"","month":"2019-05"},{"category":"anti-social-behaviour","location_type":"Force","location":{"latitude":"51.520875","street":{"id":587597,"name":"On or near Shopping Area"},"longitude":"-0.094033"},"context":"","outcome_status":null,"persistent_id":"","id":74597727,"location_subtype":"","month":"2019-05"},{"category":"anti-social-behaviour","location_type":"Force","location":{"latitude":"51.520206","street":{"id":587624,"name":"On or near Conference\/exhibition Centre"},"longitude":"-0.097736"},"context":"","outcome_status":null,"persistent_id":"","id":74597731,"location_subtype":"","month":"2019-05"},{"category":"anti-social-behaviour","location_type":"Force","location":{"latitude":"51.520747","street":{"id":587607,"name":"On or near Park\/open Space"},"longitude":"-0.096114"},"context":"","outcome_status":null,"persistent_id":"","id":74597733,"location_subtype":"","month":"2019-05"},{"category":"anti-social-behaviour","location_type":"Force","location":{"latitude":"51.523156","street":{"id":587602,"name":"On or near Baltic Street West"},"longitude":"-0.097210"},"context":"","outcome_status":null,"persistent_id":"","id":74597743,"location_subtype":"","month":"2019-05"},{"category":"anti-social-behaviour","location_type":"Force","location":{"latitude":"51.520747","street":{"id":587607,"name":"On or near Park\/open Space"},"longitude":"-0.096114"},"context":"","outcome_status":null,"persistent_id":"","id":74597749,"location_subtype":"","month":"2019-05"},{"category":"anti-social-behaviour","location_type":"Force","location":{"latitude":"51.529697","street":{"id":960985,"name":"On or near Conference\/exhibition Centre"},"longitude":"-0.118592"},"context":"","outcome_status":null,"persistent_id":"","id":74283084,"location_subtype":"","month":"2019-05"},{"category":"anti-social-behaviour","location_type":"Force","location":{"latitude":"51.544773","street":{"id":964621,"name":"On or near The Drive"},"longitude":"-0.117754"},