[{"category":"anti-social-behaviour","location_type":"Force","location":{"latitude":"51.375888","street":{"id":928843,"name":"On or near Blake Road"},"longitude":"-0.089169"},"context":"","outcome_status":null,"persistent_id":"","id":74285316,"location_subtype":"","month":"2019-05"},{"category":"anti-social-behaviour","location_type":"Force","location":{"latitude":"51.378421","street":{"id":928790,"name":"On or near Cherry Orchard Road"},"longitude":"-0.090113"},"context":"","outcome_status":null,"persistent_id":"","id":74285319,"location_subtype":"","month":"2019-05"},{"category":"anti-social-behaviour","location_type":"Force","location":{"latitude":"51.378421","street":{"id":928790,"name":"On or near Cherry Orchard Road"},"longitude":"-0.090113"},"context":"","outcome_status":null,"persistent_id":"","id":74285320,"location_subtype":"","month":"2019-05"},{"category":"anti-social-behaviour","location_type":"Force","location":{"latitude":"51.388327","street":{"id":930738,"name":"On or near Bullrush Close"},"longitude":"-0.089284"},"context":"","outcome_status":null,"persistent_id":"","id":74285321,"location_subtype":"","month":"2019-05"},{"category":"anti-social-behaviour","location_type":"Force","location":{"latitude":"51.387947","street":{"id":930733,"name":"On or near Owen Close"},"longitude":"-0.090837"},"context":"","outcome_status":null,"persistent_id":"","id":74285329,"location_subtype":"","month":"2019-05"},{"category":"anti-social-behaviour","location_type":"Force","location":{"latitude":"51.380986","street":{"id":928826,"name":"On or near Lambert's Place"},"longitude":"-0.091299"},"context":"","outcome_status":null,"persistent_id":"","id":74285330,"location_subtype":"","month":"2019-05"},{"category":"anti-social-behaviour","location_type":"Force","location":{"latitude":"51.376017","street":{"id":928838,"name":"On or near Parking Area"},"longitude":"-0.091592"},"context":"","outcome_status":null,"persistent_id":"","id":74285338,"location_subtype":"","month":"2019-05"},{"category":"anti-social-behaviour","location_type":"Force","location":{"latitude":"51.380986","street":{"id":928826,"name":"On or near Lambert's Place"},"longitude":"-0.091299"},"context":"","outcome_status":null,"persistent_id":"","id":74285337,"location_subtype":"","month":"2019-05"},{"category":"anti-social-behaviour","location_type":"Force","location":{"latitude":"51.376017","street":{"id":928838,"name":"On or near Parking Area"},"longitude":"-0.091592"},"context":"","outcome_status":null,"persistent_id":"","id":74285339,"location_subtype":"","month":"2019-05"},{"category":"anti-social-behaviour","location_type":"Force","location":{"latitude":"51.376017","street":{"id":928838,"name":"On or near Parking Area"},"longitude":"-0.091592"},"context":"","outcome_status":null,"persistent_id":"","id":74285340,"location_subtype":"","month":"2019-05"},{"category":"anti-social-behaviour","location_type":"Force","location":{"latitude":"51.376017","street":{"id":928838,"name":"On or near Parking Area"},"longitude":"-0.091592"},"context":"","outcome_status":null,"persistent_id":"","id":74285342,"location_subtype":"","month":"2019-05"},{"category":"anti-social-behaviour","location_type":"Force","location":{"latitude":"51.385765","street":{"id":930844,"name":"On or near Northway Road"},"longitude":"-0.077835"},"context":"","outcome_status":null,"persistent_id":"","id":74284333,"location_subtype":"","month":"2019-05"},{"category":"anti-social-behaviour","location_type":"Force","location":{"latitude":"51.383414","street":{"id":928621,"name":"On or near Fullerton Road"},"longitude":"-0.081426"},"context":"","outcome_status":null,"persistent_id":"","id":74284350,"location_subtype":"","month":"2019-05"},{"category":"anti-social-behaviour","location_type":"Force","location":{"latitude":"51.383414","street":{"id":928621,"name":"On or near Fullerton Road"},"longitude":"-0.081426"},"context":"","outcome_status":null,"persistent_id":"","id":74284357,"location_subtype":"","month":"2019-05"},{"category":"anti-social-behaviour","location_type":"Force","location":{"latitude":"51.376136","street":{"id":928718,"name":"On or near Chisholm Road"},"longitude":"-0.086213"},"context":"","outcome_status":null,"persistent_id":"","id":74285281,"location_subtype":"","month":"2019-05"},{"category":"anti-social-behaviour","location_type":"Force","location":{"latitude":"51.376017","street":{"id":928838,"name":"On or near Parking Area"},"longitude":"-0.091592"},"context":"","outcome_status":null,"persistent_id":"","id":74285341,"location_subtype":"","month":"2019-05"},{"category":"anti-social-behaviour","location_type":"Force","location":{"latitude":"51.376017","street":{"id":928838,"name":"On or near Parking Area"},"longitude":"-0.091592"},"context":"","outcome_status":null,"persistent_id":"","id":74285343,"location_subtype":"","month":"2019-05"},{"category":"anti-social-behaviour","location_type":"Force","location":{"latitude":"51.376017","street":{"id":928838,"name":"On or near Parking Area"},"longitude":"-0.091592"},"context":"","outcome_status":null,"persistent_id":"","id":74285345,"location_subtype":"","month":"2019-05"},{"category":"anti-social-behaviour","location_type":"Force","location":{"latitude":"51.378566","street":{"id":928785,"name":"On or near Lansdowne Road"},"longitude":"-0.093469"},"context":"","outcome_status":null,"persistent_id":"","id":74285358,"location_subtype":"","month":"2019-05"},{"category":"anti-social-behaviour","location_type":"Force","location":{"latitude":"51.378819","street":{"id":928507,"name":"On or near Peabody Close"},"longitude":"-0.061242"},"context":"","outcome_status":null,"persistent_id":"","id":74284259,"location_subtype":"","month":"2019-05"},{"category":"anti-social-behaviour","location_type":"Force","location":{"latitude":"51.389462","street":{"id":930925,"name":"On or near St Luke's Close"},"longitude":"-0.064213"},"context":"","outcome_status":null,"persistent_id":"","id":74284278,"location_subtype":"","month":"2019-05"},{"category":"anti-social-behaviour","location_type":"Force","location":{"latitude":"51.383436","street":{"id":928728,"name":"On or near Blackhorse Lane"},"longitude":"-0.069626"},"context":"","outcome_status":null,"persistent_id":"","id":74284292,"location_subtype":"","month":"2019-05"},{"category":"anti-social-behaviour","location_type":"Force","location":{"latitude":"51.389261","street":{"id":930960,"name":"On or near Chart Close"},"longitude":"-0.059162"},"context":"","outcome_status":null,"persistent_id":"","id":74284256,"location_subtype":"","month":"2019-05"},{"category":"anti-social-behaviour","location_type":"Force","location":{"latitude":"51.388346","street":{"id":930922,"name":"On or near Woodside Way"},"longitude":"-0.060896"},"context":"","outcome_status":null,"persistent_id":"","id":74284258,"location_subtype":"","month":"2019-05"},{"category":"anti-social-behaviour","location_type":"Force","location":{"latitude":"51.384359","street":{"id":928522,"name":"On or near Chaucer Green"},"longitude":"-0.060174"},"context":"","outcome_status":null,"persistent_id":"","id":74284260,"location_subtype":"","month":"2019-05"},{"category":"anti-social-behaviour","location_type":"Force","location":{"latitude":"51.384359","street":{"id":928522,"name":"On or near Chaucer Green"},"longitude":"-0.060174"},"context":"","outcome_status":null,"persistent_id":"","id":74284261,"location_subtype":"","month":"2019-05"},{"category":"anti-social-behaviour","location_type":"Force","location":{"latitude":"51.384359","street":{"id":928522,"name":"On or near Chaucer Green"},"longitude":"-0.060174"},"context":"","outcome_status":null,"persistent_id":"","id":74284262,"location_subtype":"","month":"2019-05"},{"category":"anti-social-behaviour","location_type":"Force","location":{"latitude":"51.384359","street":{"id":928522,"name":"On or near Chaucer Green"},"longitude":"-0.060174"},"context":"","outcome_status":null,"persistent_id":"","id":74284263,"location_subtype":"","month":"2019-05"},{"category":"anti-social-behaviour","location_type":"Force","location":{"latitude":"51.389617","street":{"id":930933,"name":"On or near Estcourt Road"},"longitude":"-0.062151"},"context":"","outcome_status":null,"persistent_id":"","id":74284271,"location_subtype":"","month":"2019-05"},{"category":"anti-social-behaviour","location_type":"Force","location":{"latitude":"51.387090","street":{"id":930928,"name":"On or near Ritchie Road"},"longitude":"-0.063263"},"context":"","outcome_status":null,"persistent_id":"","id":74284274,"location_subtype":"","month":"2019-05"},{"category":"anti-social-behaviour","location_type":"Force","location":{"latitude":"51.391694","street":{"id":930909,"name":"On or near Belmont Road"},"longitude":"-0.063802"},"context":"","outcome_status":null,"persistent_id":"","id":74284275,"location_subtype":"","month":"2019-05"},{"category":"anti-social-behaviour","location_type":"Force","location":{"latitude":"51.389462","street":{"id":930925,"name":"On or near St Luke's Close"},"longitude":"-0.064213"},"context":"","outcome_status":null,"persistent_id":"","id":74284279,"location_subtype":"","month":"2019-05"},{"category":"anti-social-behaviour","location_type":"Force","location":{"latitude":"51.386658","street":{"id":930927,"name":"On or near Spring Lane"},"longitude":"-0.063756"},"context":"","outcome_status":null,"persistent_id":"","id":74284280,"location_subtype":"","month":"2019-05"},{"category":"anti-social-behaviour","location_type":"Force","location":{"latitude":"51.389772","street":{"id":930929,"name":"On or near Portland Road"},"longitude":"-0.066126"},"context":"","outcome_status":null,"persistent_id":"","id":74284284,"location_subtype":"","month":"2019-05"},{"category":"anti-social-behaviour","location_type":"Force","location":{"latitude":"51.393140","street":{"id":930764,"name":"On or near Denmark Road"},"longitude":"-0.068039"},"context":"","outcome_status":null,"persistent_id":"","id":74284285,"location_subtype":"","month":"2019-05"},{"category":"anti-social-behaviour","location_type":"Force","location":{"latitude":"51.387539","street":{"id":930860,"name":"On or near Cloister Gardens"},"longitude":"-0.068146"},"context":"","outcome_status":null,"persistent_id":"","id":74284286,"location_subtype":"","month":"2019-05"},{"category":"anti-social-behaviour","location_type":"Force","location":{"latitude":"51.380886","street":{"id":928659,"name":"On or near Parkview Road"},"longitude":"-0.068756"},"context":"","outcome_status":null,"persistent_id":"","id":74284287,"location_subtype":"","month":"2019-05"},{"category":"anti-social-behaviour","location_type":"Force","location":{"latitude":"51.386602","street":{"id":930838,"name":"On or near Stroud Road"},"longitude":"-0.069105"},"context":"","outcome_status":null,"persistent_id":"","id":74284288,"location_subtype":"","month":"2019-05"},{"category":"anti-social-behaviour","location_type":"Force","location":{"latitude":"51.390609","street":{"id":930756,"name":"On or near Howard Road"},"longitude":"-0.069396"},"context":"","outcome_status":null,"persistent_id":"","id":74284291,"location_subtype":"","month":"2019-05"},{"category":"anti-social-behaviour","location_type":"Force","location":{"latitude":"51.376334","street":{"id":928699,"name":"On or near Carlyle Road"},"longitude":"-0.070873"},"context":"","outcome_status":null,"persistent_id":"","id":74284293,"location_subtype":"","month":"2019-05"},{"category":"anti-social-behaviour","location_type":"Force","location":{"latitude":"51.380207","street":{"id":928669,"name":"On or near Claremont Road"},"longitude":"-0.070653"},"context":"","outcome_status":null,"persistent_id":"","id":74284294,"location_subtype":"","month":"2019-05"},{"category":"anti-social-behaviour","location_type":"Force","location":{"latitude":"51.392978","street":{"id":930761,"name":"On or near Enmore Road"},"longitude":"-0.069627"},"context":"","outcome_status":null,"persistent_id":"","id":74284295,"location_subtype":"","month":"2019-05"},{"category":"anti-social-behaviour","location_type":"Force","location":{"latitude":"51.393048","street":{"id":930759,"name":"On or near Greenmead Close"},"longitude":"-0.071737"},"context":"","outcome_status":null,"persistent_id":"","id":74284301,"location_subtype":"","month":"2019-05"},{"category":"anti-social-behaviour","location_type":"Force","location":{"latitude":"51.379638","street":{"id":928642,"name":"On or near Bingham Road"},"longitude":"-0.073810"},"context":"","outcome_status":null,"persistent_id":"","id":74284309,"location_subtype":"","month":"2019-05"},{"category":"anti-social-behaviour","location_type":"Force","location":{"latitude":"51.379638","street":{"id":928642,"name":"On or near Bingham Road"},"longitude":"-0.073810"},"context":"","outcome_status":null,"persistent_id":"","id":74284310,"location_subtype":"","month":"2019-05"},{"category":"anti-social-behaviour","location_type":"Force","location":{"latitude":"51.379638","street":{"id":928642,"name":"On or near Bingham Road"},"longitude":"-0.073810"},"context":"","outcome_status":null,"persistent_id":"","id":74284311,"location_subtype":"","month":"2019-05"},{"category":"anti-social-behaviour","location_type":"Force","location":{"latitude":"51.379638","street":{"id":928642,"name":"On or near Bingham Road"},"longitude":"-0.073810"},"context":"","outcome_status":null,"persistent_id":"","id":74284312,"location_subtype":"","month":"2019-05"},{"category":"anti-social-behaviour","location_type":"Force","location":{"latitude":"51.377305","street":{"id":928644,"name":"On or near Ashburton Close"},"longitude":"-0.074123"},"context":"","outcome_status":null,"persistent_id":"","id":74284314,"location_subtype":"","month":"2019-05"},{"category":"anti-social-behaviour","location_type":"Force","location":{"latitude":"51.388097","street":{"id":930842,"name":"On or near Redgrave Close"},"longitude":"-0.075812"},"context":"","outcome_status":null,"persistent_id":"","id":74284325,"location_subtype":"","month":"2019-05"},{"category":"anti-social-behaviour","location_type":"Force","location":{"latitude":"51.388097","street":{"id":930842,"name":"On or near Redgrave Close"},"longitude":"-0.075812"},"context":"","outcome_status":null,"persistent_id":"","id":74284326,"location_subtype":"","month":"2019-05"},{"category":"anti-social-behaviour","location_type":"Force","location":{"latitude":"51.391002","street":{"id":924053,"name":"On or near Towpath Way"},"longitude":"-0.078018"},"context":"","outcome_status":null,"persistent_id":"","id":74284334,"location_subtype":"","month":"2019-05"},{"category":"anti-social-behaviour","location_type":"Force","location":{"latitude":"51.375127","street":{"id":928704,"name":"On or near Addiscombe Road"},"longitude":"-0.080594"},"context":"","outcome_status":null,"persistent_id":"","id":74284337,"location_subtype":"","month":"2019-05"},{"category":"anti-social-behaviour","location_type":"Force","location":{"latitude":"51.379620","street":{"id":928638,"name":"On or near Fisher Close"},"longitude":"-0.079846"},"context":"","outcome_status":null,"persistent_id":"","id":74284346,"location_subtype":"","month":"2019-05"},{"category":"anti-social-behaviour","location_type":"Force","location":{"latitude":"51.377231","street":{"id":928722,"name":"On or near Canning Road"},"longitude":"-0.082187"},"context":"","outcome_status":null,"persistent_id":"","id":74284354,"location_subtype":"","month":"2019-05"},{"category":"anti-social-behaviour","location_type":"Force","location":{"latitude":"51.383950","street":{"id":928623,"name":"On or near Exeter Road"},"longitude":"-0.082295"},"context":"","outcome_status":null,"persistent_id":"","id":74284355,"location_subtype":"","month":"2019-05"},{"category":"anti-social-behaviour","location_type":"Force","location":{"latitude":"51.383950","street":{"id":928623,"name":"On or near Exeter Road"},"longitude":"-0.082295"},"context":"","outcome_status":null,"persistent_id":"","id":74284356,"location_subtype":"","month":"2019-05"},{"category":"anti-social-behaviour","location_type":"Force","location":{"latitude":"51.371653","street":{"id":927364,"name":"On or near Bardsley Close"},"longitude":"-0.082636"},"context":"","outcome_status":null,"persistent_id":"","id":74284358,"location_subtype":"","month":"2019-05"},{"category":"anti-social-behaviour","location_type":"Force","location":{"latitude":"51.390889","street":{"id":930767,"name":"On or near Christie Drive"},"longitude":"-0.074990"},"context":"","outcome_status":null,"persistent_id":"","id":74284315,"location_subtype":"","month":"2019-05"},{"category":"anti-social-behaviour","location_type":"Force","location":{"latitude":"51.379394","street":{"id":928796,"name":"On or near Sydenham Road"},"longitude":"-0.095174"},"context":"","outcome_status":null,"persistent_id":"","id":74285388,"location_subtype":"","month":"2019-05"},{"category":"anti-social-behaviour","location_type":"Force","location":{"latitude":"51.378609","street":{"id":928791,"name":"On or near Bedford Place"},"longitude":"-0.094473"},"context":"","outcome_status":null,"persistent_id":"","id":74285379,"location_subtype":"","month":"2019-05"},{"category":"anti-social-behaviour","location_type":"Force","location":{"latitude":"51.379394","street":{"id":928796,"name":"On or near Sydenham Road"},"longitude":"-0.095174"},"context":"","outcome_status":null,"persistent_id":"","id":74285378,"location_subtype":"","month":"2019-05"},{"category":"anti-social-behaviour","location_type":"Force","location":{"latitude":"51.376527","street":{"id":928861,"name":"On or near Dingwall Road"},"longitude":"-0.095293"},"context":"","outcome_status":null,"persistent_id":"","id":74285376,"location_subtype":"","month":"2019-05"},{"category":"anti-social-behaviour","location_type":"Force","location":{"latitude":"51.390889","street":{"id":930767,"name":"On or near Christie Drive"},"longitude":"-0.074990"},"context":"","outcome_status":null,"persistent_id":"","id":74284316,"location_subtype":"","month":"2019-05"},{"category":"anti-social-behaviour","location_type":"Force","location":{"latitude":"51.379788","street":{"id":928634,"name":"On or near Nicholson Road"},"longitude":"-0.076907"},"context":"","outcome_status":null,"persistent_id":"","id":74284329,"location_subtype":"","month":"2019-05"},{"category":"anti-social-behaviour","location_type":"Force","location":{"latitude":"51.379394","street":{"id":928796,"name":"On or near Sydenham Road"},"longitude":"-0.095174"},"context":"","outcome_status":null,"persistent_id":"","id":74285377,"location_subtype":"","month":"2019-05"},{"category":"anti-social-behaviour","location_type":"Force","location":{"latitude":"51.378609","street":{"id":928791,"name":"On or near Bedford Place"},"longitude":"-0.094473"},"context":"","outcome_status":null,"persistent_id":"","id":74285373,"location_subtype":"","month":"2019-05"},{"category":"anti-social-behaviour","location_type":"Force","location":{"latitude":"51.382978","street":{"id":928827,"name":"On or near Grenaby Road"},"longitude":"-0.094364"},"context":"","outcome_status":null,"persistent_id":"","id":74285362,"location_subtype":"","month":"2019-05"},{"category":"anti-social-behaviour","location_type":"Force","location":{"latitude":"51.376527","street":{"id":928861,"name":"On or near Dingwall Road"},"longitude":"-0.095293"},"context":"","outcome_status":null,"persistent_id":"","id":74285361,"location_subtype":"","month":"2019-05"},{"category":"anti-social-behaviour","location_type":"Force","location":{"latitude":"51.378566","street":{"id":928785,"name":"On or near Lansdowne Road"},"longitude":"-0.093469"},"context":"","outcome_status":null,"persistent_id":"","id":74285357,"location_subtype":"","month":"2019-05"},{"category":"anti-social-behaviour","location_type":"Force","location":{"latitude":"51.378566","street":{"id":928785,"name":"On or near Lansdowne Road"},"longitude":"-0.093469"},"context":"","outcome_status":null,"persistent_id":"","id":74285355,"location_subtype":"","month":"2019-05"},{"category":"anti-social-behaviour","location_type":"Force","location":{"latitude":"51.379788","street":{"id":928634,"name":"On or near Nicholson Road"},"longitude":"-0.076907"},"context":"","outcome_status":null,"persistent_id":"","id":74284330,"location_subtype":"","month":"2019-05"},{"category":"anti-social-behaviour","location_type":"Force","location":{"latitude":"51.378566","street":{"id":928785,"name":"On or near Lansdowne Road"},"longitude":"-0.093469"},"context":"","outcome_status":null,"persistent_id":"","id":74285356,"location_subtype":"","month":"2019-05"},{"category":"anti-social-behaviour","location_type":"Force","location":{"latitude":"51.381352","street":{"id":928821,"name":"On or near St James's Road"},"longitude":"-0.091730"},"context":"","outcome_status":null,"persistent_id":"","id":74285352,"location_subtype":"","month":"2019-05"},{"category":"anti-social-behaviour","location_type":"Force","location":{"latitude":"51.387475","street":{"id":930741,"name":"On or near Sports\/recreation Area"},"longitude":"-0.090569"},"context":"","outcome_status":null,"persistent_id":"","id":74285348,"location_subtype":"","month":"2019-05"},{"category":"anti-social-behaviour","location_type":"Force","location":{"latitude":"51.387475","street":{"id":930741,"name":"On or near Sports\/recreation Area"},"longitude":"-0.090569"},"context":"","outcome_status":null,"persistent_id":"","id":74285347,"location_subtype":"","month":"2019-05"},{"category":"anti-social-behaviour","location_type":"Force","location":{"latitude":"51.376017","street":{"id":928838,"name":"On or near Parking Area"},"longitude":"-0.091592"},"context":"","outcome_status":null,"persistent_id":"","id":74285344,"location_subtype":"","month":"2019-05"},{"category":"anti-social-behaviour","location_type":"Force","location":{"latitude":"51.372412","street":{"id":927349,"name":"On or near Fleetwood Close"},"longitude":"-0.083380"},"context":"","outcome_status":null,"persistent_id":"","id":74285255,"location_subtype":"","month":"2019-05"},{"category":"anti-social-behaviour","location_type":"Force","location":{"latitude":"51.387309","street":{"id":930834,"name":"On or near Canal Walk"},"longitude":"-0.083146"},"context":"","outcome_status":null,"persistent_id":"","id":74285262,"location_subtype":"","month":"2019-05"},{"category":"anti-social-behaviour","location_type":"Force","location":{"latitude":"51.374691","street":{"id":928711,"name":"On or near Leyburn Gardens"},"longitude":"-0.085814"},"context":"","outcome_status":null,"persistent_id":"","id":74285263,"location_subtype":"","month":"2019-05"},{"category":"anti-social-behaviour","location_type":"Force","location":{"latitude":"51.385083","street":{"id":928624,"name":"On or near Edward Road"},"longitude":"-0.083943"},"context":"","outcome_status":null,"persistent_id":"","id":74285264,"location_subtype":"","month":"2019-05"},{"category":"anti-social-behaviour","location_type":"Force","location":{"latitude":"51.383524","street":{"id":928616,"name":"On or near Stretton Road"},"longitude":"-0.084281"},"context":"","outcome_status":null,"persistent_id":"","id":74285267,"location_subtype":"","month":"2019-05"},{"category":"anti-social-behaviour","location_type":"Force","location":{"latitude":"51.377250","street":{"id":928712,"name":"On or near Lebanon Road"},"longitude":"-0.085578"},"context":"","outcome_status":null,"persistent_id":"","id":74285278,"location_subtype":"","month":"2019-05"},{"category":"anti-social-behaviour","location_type":"Force","location":{"latitude":"51.382437","street":{"id":928628,"name":"On or near Alexandra Road"},"longitude":"-0.087129"},"context":"","outcome_status":null,"persistent_id":"","id":74285286,"location_subtype":"","month":"2019-05"},{"category":"anti-social-behaviour","location_type":"Force","location":{"latitude":"51.380566","street":{"id":928631,"name":"On or near Supermarket"},"longitude":"-0.086546"},"context":"","outcome_status":null,"persistent_id":"","id":74285287,"location_subtype":"","month":"2019-05"},{"category":"anti-social-behaviour","location_type":"Force","location":{"latitude":"51.388785","street":{"id":930827,"name":"On or near Willow Wood Crescent"},"longitude":"-0.087597"},"context":"","outcome_status":null,"persistent_id":"","id":74285289,"location_subtype":"","month":"2019-05"},{"category":"anti-social-behaviour","location_type":"Force","location":{"latitude":"51.388785","street":{"id":930827,"name":"On or near Willow Wood Crescent"},"longitude":"-0.087597"},"context":"","outcome_status":null,"persistent_id":"","id":74285290,"location_subtype":"","month":"2019-05"},{"category":"anti-social-behaviour","location_type":"Force","location":{"latitude":"51.381666","street":{"id":928629,"name":"On or near Alexandra Place"},"longitude":"-0.087793"},"context":"","outcome_status":null,"persistent_id":"","id":74285294,"location_subtype":"","month":"2019-05"},{"category":"anti-social-behaviour","location_type":"Force","location":{"latitude":"51.381666","street":{"id":928629,"name":"On or near Alexandra Place"},"longitude":"-0.087793"},"context":"","outcome_status":null,"persistent_id":"","id":74285295,"location_subtype":"","month":"2019-05"},{"category":"anti-social-behaviour","location_type":"Force","location":{"latitude":"51.388785","street":{"id":930827,"name":"On or near Willow Wood Crescent"},"longitude":"-0.087597"},"context":"","outcome_status":null,"persistent_id":"","id":74285312,"location_subtype":"","month":"2019-05"},{"category":"anti-social-behaviour","location_type":"Force","location":{"latitude":"51.379919","street":{"id":928784,"name":"On or near Leslie Grove"},"longitude":"-0.089303"},"context":"","outcome_status":null,"persistent_id":"","id":74285317,"location_subtype":"","month":"2019-05"},{"category":"anti-social-behaviour","location_type":"Force","location":{"latitude":"51.380332","street":{"id":928555,"name":"On or near Lupin Close"},"longitude":"-0.052124"},"context":"","outcome_status":null,"persistent_id":"","id":74284245,"location_subtype":"","month":"2019-05"},{"category":"anti-social-behaviour","location_type":"Force","location":{"latitude":"51.391819","street":{"id":930902,"name":"On or near Macclesfield Road"},"longitude":"-0.060462"},"context":"","outcome_status":null,"persistent_id":"","id":74284257,"location_subtype":"","month":"2019-05"},{"category":"bicycle-theft","location_type":"Force","location":{"latitude":"51.379656","street":{"id":928606,"name":"On or near Leslie Grove Place"},"longitude":"-0.088624"},"context":"","outcome_status":{"category":"Status update unavailable","date":"2019-09"},"persistent_id":"1d7c4f9e2dffe5cff0181fa0704c42151a5fe171558039aa5fd5b31e5b0a5697","id":74299923,"location_subtype":"","month":"2019-05"},{"category":"bicycle-theft","location_type":"Force","location":{"latitude":"51.380735","street":{"id":928680,"name":"On or near Supermarket"},"longitude":"-0.072700"},"context":"","outcome_status":{"category":"Status update unavailable","date":"2019-09"},"persistent_id":"b4da78ba65a921644cedec28ae692a84ee01b3f249a9cd3168fe174e1e4896cf","id":74305530,"location_subtype":"","month":"2019-05"},{"category":"burglary","location_type":"Force","location":{"latitude":"51.382030","street":{"id":928681,"name":"On or near Supermarket"},"longitude":"-0.070001"},"context":"","outcome_status":{"category":"Status update unavailable","date":"2019-09"},"persistent_id":"34c694e6b09abc9a9904f46ad71e5957356f3c81da44e21dc8bdd5947fbe5b43","id":74336980,"location_subtype":"","month":"2019-05"},{"category":"burglary","location_type":"Force","location":{"latitude":"51.369164","street":{"id":927339,"name":"On or near Park Hill Road"},"longitude":"-0.086001"},"context":"","outcome_status":{"category":"Investigation complete; no suspect identified","date":"2020-03"},"persistent_id":"ad114563f675891c55e376dbabbe676c0df68acd110109e3e1923a48d81c9f4e","id":74298397,"location_subtype":"","month":"2019-05"},{"category":"burglary","location_type":"Force","location":{"latitude":"51.371920","street":{"id":927309,"name":"On or near Fairfield Path"},"longitude":"-0.091260"},"context":"","outcome_status":{"category":"Status update unavailable","date":"2019-09"},"persistent_id":"5aa89b9ac2801ee9096d3895517af220821556dca3b4b1360ee813fb023959f7","id":74334495,"location_subtype":"","month":"2019-05"},{"category":"burglary","location_type":"Force","location":{"latitude":"51.375145","street":{"id":928703,"name":"On or near Addiscombe Road"},"longitude":"-0.077863"},"context":"","outcome_status":{"category":"Status update unavailable","date":"2019-09"},"persistent_id":"8f0636b87ab717e9dc70df3dcb45dd8069e465e5ba919f99d4755812c2bbf742","id":74297193,"location_subtype":"","month":"2019-05"},{"category":"burglary","location_type":"Force","location":{"latitude":"51.390730","street":{"id":930893,"name":"On or near Woodside Avenue"},"longitude":"-0.066948"},"context":"","outcome_status":{"category":"Status update unavailable","date":"2019-09"},"persistent_id":"eba0f5fc11c4a32425de564ad2cac83290aab9c5dba27c7a7846ec16c019fcf0","id":74322106,"location_subtype":"","month":"2019-05"},{"category":"burglary","location_type":"Force","location":{"latitude":"51.381010","street":{"id":928655,"name":"On or near Sundridge Road"},"longitude":"-0.075735"},"context":"","outcome_status":{"category":"Status update unavailable","date":"2019-09"},"persistent_id":"0591bbba8f6ec1df1c0e13976f9f03c008e87ca61a0a96bdd35f89c55ca44b1e","id":74322506,"location_subtype":"","month":"2019-05"},{"category":"burglary","location_type":"Force","location":{"latitude":"51.388327","street":{"id":930738,"name":"On or near Bullrush Close"},"longitude":"-0.089284"},"context":"","outcome_status":{"category":"Status update unavailable","date":"2019-09"},"persistent_id":"0703ef338d3f0f3d090e5ef5178f40b6c4791fa8c19dec62b91d510715eddaea","id":74296448,"location_subtype":"","month":"2019-05"},{"category":"burglary","location_type":"Force","location":{"latitude":"51.382030","street":{"id":928681,"name":"On or near Supermarket"},"longitude":"-0.070001"},"context":"","outcome_status":{"category":"Court result unavailable","date":"2019-11"},"persistent_id":"7d2d3dd2f791ac97caa8da8611549835b0d4542bd99cef99cee7932f290bfd9b","id":74304530,"location_subtype":"","month":"2019-05"},{"category":"burglary","location_type":"Force","location":{"latitude":"51.373502","street":{"id":928844,"name":"On or near Altyre Road"},"longitude":"-0.091754"},"context":"","outcome_status":{"category":"Status update unavailable","date":"2019-09"},"persistent_id":"9b3f4c632e83abd3d1f54873611c3ba7e4fb26073369b707e7f1a096a27f1cd1","id":74291061,"location_subtype":"","month":"2019-05"},{"category":"burglary","location_type":"Force","location":{"latitude":"51.382030","street":{"id":928681,"name":"On or near Supermarket"},"longitude":"-0.070001"},"context":"","outcome_status":{"category":"Status update unavailable","date":"2019-09"},"persistent_id":"4732c4cb37ac4deffd915367844f24f3218faf92c5c8d6ad149dc7aea5abc3cc","id":74323415,"location_subtype":"","month":"2019-05"},{"category":"burglary","location_type":"Force","location":{"latitude":"51.377391","street":{"id":928852,"name":"On or near Parking Area"},"longitude":"-0.095300"},"context":"","outcome_status":{"category":"Status update unavailable","date":"2019-09"},"persistent_id":"7275c714cf7406a695fd3d19859aada8cb8359b3850d232ef2e66edd8a462602","id":74311531,"location_subtype":"","month":"2019-05"},{"category":"burglary","location_type":"Force","location":{"latitude":"51.377442","street":{"id":928506,"name":"On or near Selwood Road"},"longitude":"-0.066042"},"context":"","outcome_status":{"category":"Status update unavailable","date":"2019-09"},"persistent_id":"88a0075d447aecbcb18025334ad973b2d886bdc1cf328022bad64b0ce2ceb648","id":74319198,"location_subtype":"","month":"2019-05"},{"category":"burglary","location_type":"Force","location":{"latitude":"51.373604","street":{"id":928706,"name":"On or near Turnpike Link"},"longitude":"-0.085328"},"context":"","outcome_status":{"category":"Status update unavailable","date":"2019-09"},"persistent_id":"04e07e1014631a25eeaa3f6d40d6e7a4ac2b59507975c5acefabe682dc984266","id":74303795,"location_subtype":"","month":"2019-05"},{"category":"burglary","location_type":"BTP","location":{"latitude":"51.375700","street":{"id":1488327,"name":"East Croydon (station)"},"longitude":"-0.092507"},"context":"","outcome_status":{"category":"Status update unavailable","date":"2019-09"},"persistent_id":"","id":88718071,"location_subtype":"STATION","month":"2019-05"},{"category":"burglary","location_type":"Force","location":{"latitude":"51.373604","street":{"id":928706,"name":"On or near Turnpike Link"},"longitude":"-0.085328"},"context":"","outcome_status":{"category":"Status update unavailable","date":"2019-09"},"persistent_id":"e0c14c6b6fe5bea6ea6c8cff1634fa36a260303af7e6a76d425c6482e97c5e34","id":74352697,"location_subtype":"","month":"2019-05"},{"category":"burglary","location_type":"Force","location":{"latitude":"51.390730","street":{"id":930893,"name":"On or near Woodside Avenue"},"longitude":"-0.066948"},"context":"","outcome_status":{"category":"Status update unavailable","date":"2019-09"},"persistent_id":"b4aa6a20d3d6f085a0ae48dbed4dd250538500fe009cebae1a2cb2da0553f81e","id":74335539,"location_subtype":"","month":"2019-05"},{"category":"burglary","location_type":"Force","location":{"latitude":"51.388574","street":{"id":930829,"name":"On or near Selhurst New Road"},"longitude":"-0.088440"},"context":"","outcome_status":{"category":"Status update unavailable","date":"2019-09"},"persistent_id":"463ac274fb62d495780a791ea8c3e4ed81e00bf6962be725f78b203cb840f1a4","id":74363221,"location_subtype":"","month":"2019-05"},{"category":"burglary","location_type":"Force","location":{"latitude":"51.378860","street":{"id":928639,"name":"On or near Crabtree Walk"},"longitude":"-0.075696"},"context":"","outcome_status":{"category":"Status update unavailable","date":"2019-09"},"persistent_id":"cbbfd574e124fb4a6ac293ac29ee1776d18bb3139d1f602ff87a250cda229bf8","id":74293967,"location_subtype":"","month":"2019-05"},{"category":"burglary","location_type":"Force","location":{"latitude":"51.379297","street":{"id":928508,"name":"On or near Craven Road"},"longitude":"-0.066725"},"context":"","outcome_status":{"category":"Status update unavailable","date":"2019-09"},"persistent_id":"1af3f1254b977e158e198659f20109968928a6a3275e410edfe1395a7ab18623","id":74336476,"location_subtype":"","month":"2019-05"},{"category":"burglary","location_type":"Force","location":{"latitude":"51.383436","street":{"id":928728,"name":"On or near Blackhorse Lane"},"longitude":"-0.069626"},"context":"","outcome_status":{"category":"Status update unavailable","date":"2019-09"},"persistent_id":"4ab9dbeb02ecb7d50a92e9bd2a6f32d6ab18de4043fb39a19cf67a4986adade5","id":74332841,"location_subtype":"","month":"2019-05"},{"category":"burglary","location_type":"Force","location":{"latitude":"51.388485","street":{"id":930841,"name":"On or near Rees Gardens"},"longitude":"-0.078627"},"context":"","outcome_status":{"category":"Status update unavailable","date":"2019-09"},"persistent_id":"0efdf30e85e433d8af2b1398ea233474f8db0f971cd235a9a9b2adfea6c748f2","id":74357994,"location_subtype":"","month":"2019-05"},{"category":"burglary","location_type":"Force","location":{"latitude":"51.377006","street":{"id":928696,"name":"On or near Elgin Road"},"longitude":"-0.079452"},"context":"","outcome_status":{"category":"Status update unavailable","date":"2019-09"},"persistent_id":"d203db277e51368977ddccc1f4f46de5eba38cfdd9a6d8a20529c05c353c0c79","id":74332859,"location_subtype":"","month":"2019-05"},{"category":"burglary","location_type":"Force","location":{"latitude":"51.377196","street":{"id":928700,"name":"On or near Ashburton Road"},"longitude":"-0.074573"},"context":"","outcome_status":{"category":"Status update unavailable","date":"2019-09"},"persistent_id":"20f884a4e7bb3f96dda30e6b68b2614bb5c2579bc2cc2f1c156db24f0562de7f","id":74298398,"location_subtype":"","month":"2019-05"},{"category":"burglary","location_type":"Force","location":{"latitude":"51.376334","street":{"id":928699,"name":"On or near Carlyle Road"},"longitude":"-0.070873"},"context":"","outcome_status":{"category":"Status update unavailable","date":"2019-09"},"persistent_id":"b5a43e0f9064e085e775c4f97e0d499aa67d86288f9dda4b3270905f0a15012c","id":74359991,"location_subtype":"","month":"2019-05"},{"category":"burglary","location_type":"Force","location":{"latitude":"51.387309","street":{"id":930834,"name":"On or near Canal Walk"},"longitude":"-0.083146"},"context":"","outcome_status":{"category":"Status update unavailable","date":"2019-09"},"persistent_id":"70c9a6ddd16d62a8806c9177a54a570ab321b052d6bff50c3d0cc45172c66f42","id":74358768,"location_subtype":"","month":"2019-05"},{"category":"criminal-damage-arson","location_type":"Force","location":{"latitude":"51.390417","street":{"id":930896,"name":"On or near Southcote Road"},"longitude":"-0.062677"},"context":"","outcome_status":{"category":"Status update unavailable","date":"2019-09"},"persistent_id":"c6af6c0941dc55ada6c275962e5f2da734431e18a146c5a6f55b29f656f35cca","id":74329254,"location_subtype":"","month":"2019-05"},{"category":"criminal-damage-arson","location_type":"Force","location":{"latitude":"51.391819","street":{"id":930902,"name":"On or near Macclesfield Road"},"longitude":"-0.060462"},"context":"","outcome_status":{"category":"Investigation complete; no suspect identified","date":"2020-03"},"persistent_id":"9f692857195d1c670dea3dd6d073d977d8484f0852ce8e5f031957bd10753832","id":74332128,"location_subtype":"","month":"2019-05"},{"category":"criminal-damage-arson","location_type":"BTP","location":{"latitude":"51.375700","street":{"id":1488327,"name":"East Croydon (station)"},"longitude":"-0.092507"},"context":"","outcome_status":{"category":"Status update unavailable","date":"2019-09"},"persistent_id":"","id":88718072,"location_subtype":"STATION","month":"2019-05"},{"category":"criminal-damage-arson","location_type":"BTP","location":{"latitude":"51.375700","street":{"id":1488327,"name":"East Croydon (station)"},"longitude":"-0.092507"},"context":"","outcome_status":{"category":"Status update unavailable","date":"2019-09"},"persistent_id":"","id":88718073,"location_subtype":"STATION","month":"2019-05"},{"category":"criminal-damage-arson","location_type":"BTP","location":{"latitude":"51.375700","street":{"id":1488327,"name":"East Croydon (station)"},"longitude":"-0.092507"},"context":"","outcome_status":{"category":"Status update unavailable","date":"2019-09"},"persistent_id":"","id":88718074,"location_subtype":"STATION","month":"2019-05"},{"category":"criminal-damage-arson","location_type":"Force","location":{"latitude":"51.374502","street":{"id":928583,"name":"On or near Eldon Avenue"},"longitude":"-0.055246"},"context":"","outcome_status":{"category":"Status update unavailable","date":"2019-09"},"persistent_id":"5a18ad69c14e3352e67e42a314fa8de3dc6aad16b42830d575113cd7268ea8fc","id":74308291,"location_subtype":"","month":"2019-05"},{"category":"criminal-damage-arson","location_type":"Force","location":{"latitude":"51.366750","street":{"id":927336,"name":"On or near Rushmead Close"},"longitude":"-0.083042"},"context":"","outcome_status":{"category":"Status update unavailable","date":"2019-09"},"persistent_id":"33afc46c85dfe6f118c565a825f9063abb60ea5cb61391685a6925c25d1744a4","id":74369295,"location_subtype":"","month":"2019-05"},{"category":"criminal-damage-arson","location_type":"Force","location":{"latitude":"51.382712","street":{"id":928825,"name":"On or near Milton Avenue"},"longitude":"-0.091874"},"context":"","outcome_status":{"category":"Status update unavailable","date":"2019-09"},"persistent_id":"9c61e99fa201cca2666957ea073096a0a0e82bd7b1dd2cc56eef2faf2d68ee2f","id":74366376,"location_subtype":"","month":"2019-05"},{"category":"criminal-damage-arson","location_type":"Force","location":{"latitude":"51.381563","street":{"id":928526,"name":"On or near Supermarket"},"longitude":"-0.062908"},"context":"","outcome_status":{"category":"Status update unavailable","date":"2019-09"},"persistent_id":"2b356203d6d8881e4bae7063dba9861c86475123812ab3e66903e169b6beca6e","id":74360730,"location_subtype":"","month":"2019-05"},{"category":"criminal-damage-arson","location_type":"Force","location":{"latitude":"51.379394","street":{"id":928796,"name":"On or near Sydenham Road"},"longitude":"-0.095174"},"context":"","outcome_status":{"category":"Status update unavailable","date":"2019-09"},"persistent_id":"d82c08d6691427eee7edb212b07b445859424e47bdbe7b202dd5cab1250cb512","id":74322903,"location_subtype":"","month":"2019-05"},{"category":"criminal-damage-arson","location_type":"Force","location":{"latitude":"51.388157","street":{"id":930861,"name":"On or near Beckford Road"},"longitude":"-0.076714"},"context":"","outcome_status":{"category":"Status update unavailable","date":"2019-09"},"persistent_id":"05c0fd3d77429ebf86501e7e2b7109764ef96e55f2654c86ab2abea181b876cb","id":74358635,"location_subtype":"","month":"2019-05"},{"category":"criminal-damage-arson","location_type":"Force","location":{"latitude":"51.393322","street":{"id":930754,"name":"On or near Merton Road"},"longitude":"-0.075233"},"context":"","outcome_status":{"category":"Local resolution","date":"2019-05"},"persistent_id":"f87c5657c4ee127197337412f805c58b0151e66c1773b7a81dbcbef786d32113","id":74366687,"location_subtype":"","month":"2019-05"},{"category":"criminal-damage-arson","location_type":"Force","location":{"latitude":"51.379257","street":{"id":928786,"name":"On or near John's Terrace"},"longitude":"-0.090107"},"context":"","outcome_status":{"category":"Status update unavailable","date":"2019-09"},"persistent_id":"4e2835e144f5664ccbf7cdea330dcb90f8b85d0fef63f589781124f9ed39baf7","id":74303230,"location_subtype":"","month":"2019-05"},{"category":"criminal-damage-arson","location_type":"Force","location":{"latitude":"51.390789","street":{"id":930895,"name":"On or near Tudor Road"},"longitude":"-0.061828"},"context":"","outcome_status":{"category":"Status update unavailable","date":"2019-09"},"persistent_id":"ba617e5ba36e55ee9b1761a97ddba919b56663cee3f6909b695e0f79c9d7037c","id":74349182,"location_subtype":"","month":"2019-05"},{"category":"criminal-damage-arson","location_type":"Force","location":{"latitude":"51.393048","street":{"id":930759,"name":"On or near Greenmead Close"},"longitude":"-0.071737"},"context":"","outcome_status":{"category":"Investigation complete; no suspect identified","date":"2020-03"},"persistent_id":"4bee4bcaa536b5d587d9a887637e1c322d4f383dc0a2492ba013f03ed28298e8","id":74338295,"location_subtype":"","month":"2019-05"},{"category":"criminal-damage-arson","location_type":"Force","location":{"latitude":"51.380486","street":{"id":928834,"name":"On or near Alpha Road"},"longitude":"-0.089323"},"context":"","outcome_status":{"category":"Status update unavailable","date":"2019-09"},"persistent_id":"cf4bdcc0ab00b8f83153fed8c94468d4a96e8aad7a7ad8f7de9634048ece6bf6","id":74337218,"location_subtype":"","month":"2019-05"},{"category":"criminal-damage-arson","location_type":"Force","location":{"latitude":"51.380486","street":{"id":928834,"name":"On or near Alpha Road"},"longitude":"-0.089323"},"context":"","outcome_status":{"category":"Status update unavailable","date":"2019-09"},"persistent_id":"a0775c7b1ef0700139eeb3003fd8bae6705f2010b5bace5a2afee5786fa05a69","id":74297419,"location_subtype":"","month":"2019-05"},{"category":"criminal-damage-arson","location_type":"Force","location":{"latitude":"51.388716","street":{"id":930864,"name":"On or near Backley Gardens"},"longitude":"-0.073500"},"context":"","outcome_status":{"category":"Status update unavailable","date":"2019-09"},"persistent_id":"394334ccadbfd15ab525c22c2b39a47e672c850c037a7a72acf66e47703b14f1","id":74298961,"location_subtype":"","month":"2019-05"},{"category":"criminal-damage-arson","location_type":"Force","location":{"latitude":"51.387090","street":{"id":930928,"name":"On or near Ritchie Road"},"longitude":"-0.063263"},"context":"","outcome_status":{"category":"Status update unavailable","date":"2019-09"},"persistent_id":"6775209c9f11333a76ff10b0bbb2e0ef546e1f0c7547eea16f4cd2ab49a9d264","id":74299452,"location_subtype":"","month":"2019-05"},{"category":"criminal-damage-arson","location_type":"Force","location":{"latitude":"51.391598","street":{"id":930907,"name":"On or near Cobden Road"},"longitude":"-0.067256"},"context":"","outcome_status":{"category":"Status update unavailable","date":"2019-09"},"persistent_id":"8a903b442f2f29d5711df65aa00e2da8bf5e418b8146a7ebf0c2a013b4201f14","id":74324611,"location_subtype":"","month":"2019-05"},{"category":"criminal-damage-arson","location_type":"Force","location":{"latitude":"51.381597","street":{"id":928618,"name":"On or near Morland Avenue"},"longitude":"-0.085756"},"context":"","outcome_status":{"category":"Status update unavailable","date":"2019-09"},"persistent_id":"f198b3e2460ff378305014dfc82002209b49f6dbeab765854b7d4dd1f9cba996","id":74326859,"location_subtype":"","month":"2019-05"},{"category":"criminal-damage-arson","location_type":"Force","location":{"latitude":"51.392978","street":{"id":930761,"name":"On or near Enmore Road"},"longitude":"-0.069627"},"context":"","outcome_status":{"category":"Status update unavailable","date":"2019-09"},"persistent_id":"0db0dde2e4656e582ef37a1bb5c6eea669cf4b2e29989a85bbdb42e7bf8c7b79","id":74334188,"location_subtype":"","month":"2019-05"},{"category":"drugs","location_type":"Force","location":{"latitude":"51.375406","street":{"id":928694,"name":"On or near Fryston Avenue"},"longitude":"-0.069087"},"context":"","outcome_status":{"category":"Local resolution","date":"2019-08"},"persistent_id":"b6911f3430d8f007664237932b75c573282f45787f2fe5fb72f4ce1f5060ebf4","id":74338121,"location_subtype":"","month":"2019-05"},{"category":"drugs","location_type":"BTP","location":{"latitude":"51.375700","street":{"id":1488327,"name":"East Croydon (station)"},"longitude":"-0.092507"},"context":"","outcome_status":{"category":"Status update unavailable","date":"2019-09"},"persistent_id":"","id":88718079,"location_subtype":"STATION","month":"2019-05"},{"category":"drugs","location_type":"Force","location":{"latitude":"51.375888","street":{"id":928843,"name":"On or near Blake Road"},"longitude":"-0.089169"},"context":"","outcome_status":{"category":"Local resolution","date":"2019-06"},"persistent_id":"23c9fc33b1e69a65cdbfd9c5f6597ec69043cec55af666eda03961751bd0f914","id":74334902,"location_subtype":"","month":"2019-05"},{"category":"drugs","location_type":"Force","location":{"latitude":"51.391598","street":{"id":930907,"name":"On or near Cobden Road"},"longitude":"-0.067256"},"context":"","outcome_status":{"category":"Local resolution","date":"2019-06"},"persistent_id":"993db150b9d3bce4ca9b0801ad7a1921083f4f1b6c67b714dff774bfb4cd7877","id":74359622,"location_subtype":"","month":"2019-05"},{"category":"drugs","location_type":"Force","location":{"latitude":"51.374977","street":{"id":928848,"name":"On or near Theatre\/concert Hall"},"longitude":"-0.094006"},"context":"","outcome_status":{"category":"Investigation complete; no suspect identified","date":"2020-03"},"persistent_id":"b6cf130fd7a995cc4b2600e38a61af336a503e8d4ff5062ef02725fa18ebef4a","id":74334601,"location_subtype":"","month":"2019-05"},{"category":"drugs","location_type":"Force","location":{"latitude":"51.375888","street":{"id":928843,"name":"On or near Blake Road"},"longitude":"-0.089169"},"context":"","outcome_status":{"category":"Local resolution","date":"2019-06"},"persistent_id":"134324a7470f9ba116250c465aad548d3b1c9d7a028e4b1373ea1101bf9a15ed","id":74330558,"location_subtype":"","month":"2019-05"},{"category":"drugs","location_type":"Force","location":{"latitude":"51.387947","street":{"id":930733,"name":"On or near Owen Close"},"longitude":"-0.090837"},"context":"","outcome_status":{"category":"Court result unavailable","date":"2020-03"},"persistent_id":"4211b2e08dd9c8ebf734bb4b9bbbed1af2491fbb31172953aff2e21e904cd322","id":74359350,"location_subtype":"","month":"2019-05"},{"category":"drugs","location_type":"BTP","location":{"latitude":"51.375700","street":{"id":1488327,"name":"East Croydon (station)"},"longitude":"-0.092507"},"context":"","outcome_status":{"category":"Status update unavailable","date":"2019-09"},"persistent_id":"","id":88718078,"location_subtype":"STATION","month":"2019-05"},{"category":"drugs","location_type":"Force","location":{"latitude":"51.381352","street":{"id":928821,"name":"On or near St James's Road"},"longitude":"-0.091730"},"context":"","outcome_status":{"category":"Status update unavailable","date":"2019-09"},"persistent_id":"19a43a210ede8055fb5544b9ebdeb2658f1da6d08e3144d972c2853d1651a3f5","id":74360032,"location_subtype":"","month":"2019-05"},{"category":"drugs","location_type":"Force","location":{"latitude":"51.377305","street":{"id":928644,"name":"On or near Ashburton Close"},"longitude":"-0.074123"},"context":"","outcome_status":{"category":"Local resolution","date":"2019-05"},"persistent_id":"13847896bd63ceab5434a483a098097cd2f14f369ae9f3d80a7fcf3f7c1ba9e3","id":74352602,"location_subtype":"","month":"2019-05"},{"category":"drugs","location_type":"Force","location":{"latitude":"51.381117","street":{"id":928622,"name":"On or near Freemasons Place"},"longitude":"-0.088880"},"context":"","outcome_status":{"category":"Local resolution","date":"2019-06"},"persistent_id":"a300a8d6e3c3fad4706f3a6957161f1bcc8fba679042c7a6369d726104ee8418","id":74335523,"location_subtype":"","month":"2019-05"},{"category":"drugs","location_type":"Force","location":{"latitude":"51.373502","street":{"id":928844,"name":"On or near Altyre Road"},"longitude":"-0.091754"},"context":"","outcome_status":{"category":"Local resolution","date":"2019-05"},"persistent_id":"145736d7bf95c64f79695ff71d6506502dfece92d3389786340da9766eb4f2f6","id":74322299,"location_subtype":"","month":"2019-05"},{"category":"drugs","location_type":"Force","location":{"latitude":"51.391598","street":{"id":930907,"name":"On or near Cobden Road"},"longitude":"-0.067256"},"context":"","outcome_status":{"category":"Court result unavailable","date":"2020-09"},"persistent_id":"526fcfb9051b2e94ce53e1917d854e75814bd59c2ba53b58c4151d5d9650352e","id":74325237,"location_subtype":"","month":"2019-05"},{"category":"drugs","location_type":"Force","location":{"latitude":"51.387466","street":{"id":930951,"name":"On or near Keats Way"},"longitude":"-0.056622"},"context":"","outcome_status":{"category":"Offender given penalty notice","date":"2019-05"},"persistent_id":"665594b282e10c67b4beef058a2e91b71aed34c7280cd4b5c336e1751e1424de","id":74327972,"location_subtype":"","month":"2019-05"},{"category":"drugs","location_type":"Force","location":{"latitude":"51.390435","street":{"id":930871,"name":"On or near Shoreham Close"},"longitude":"-0.058896"},"context":"","outcome_status":{"category":"Status update unavailable","date":"2019-09"},"persistent_id":"1f2cf07e725ed5ad4e58da3c12d3755684da9405f59a6fb170a33ebbae16e253","id":74372547,"location_subtype":"","month":"2019-05"},{"category":"drugs","location_type":"Force","location":{"latitude":"51.371882","street":{"id":927404,"name":"On or near Oaks Lane"},"longitude":"-0.056118"},"context":"","outcome_status":{"category":"Local resolution","date":"2019-05"},"persistent_id":"c39f5e77352330f5602aa3f6a983283ea6c4fcd62c311bb188ec8f2ece9fb922","id":74312443,"location_subtype":"","month":"2019-05"},{"category":"drugs","location_type":"Force","location":{"latitude":"51.377006","street":{"id":928696,"name":"On or near Elgin Road"},"longitude":"-0.079452"},"context":"","outcome_status":{"category":"Investigation complete; no suspect identified","date":"2020-03"},"persistent_id":"1d1aace8b6b328a7a24672c0e51549dc20923026629553f944b1bbf6ecc72546","id":74296072,"location_subtype":"","month":"2019-05"},{"category":"drugs","location_type":"Force","location":{"latitude":"51.386658","street":{"id":930927,"name":"On or near Spring Lane"},"longitude":"-0.063756"},"context":"","outcome_status":{"category":"Offender given a caution","date":"2019-06"},"persistent_id":"fd49001d28c762ed2a44e8f7e65734bd6433c2631cda11e3242c5cdfbf6b59a1","id":74369762,"location_subtype":"","month":"2019-05"},{"category":"drugs","location_type":"Force","location":{"latitude":"51.377391","street":{"id":928852,"name":"On or near Parking Area"},"longitude":"-0.095300"},"context":"","outcome_status":{"category":"Local resolution","date":"2019-05"},"persistent_id":"82e5536559a0413b9cc0fdc1b27c4ab6673007e7d3e202ffed10f004ffc73717","id":74327973,"location_subtype":"","month":"2019-05"},{"category":"drugs","location_type":"Force","location":{"latitude":"51.388812","street":{"id":930825,"name":"On or near Canal Walk"},"longitude":"-0.080999"},"context":"","outcome_status":{"category":"Offender given a caution","date":"2019-05"},"persistent_id":"9bea8d3522cee7a77bfa4c1366732400f5164d8e9dae0d35b1b6a389438e1ee2","id":74303180,"location_subtype":"","month":"2019-05"},{"category":"drugs","location_type":"BTP","location":{"latitude":"51.384900","street":{"id":1488448,"name":"Blackhorse Lane (tram Stop)"},"longitude":"-0.070351"},"context":"","outcome_status":{"category":"Status update unavailable","date":"2019-09"},"persistent_id":"","id":88720894,"location_subtype":"TRAMLINK","month":"2019-05"},{"category":"drugs","location_type":"Force","location":{"latitude":"51.390674","street":{"id":930773,"name":"On or near Akabusi Close"},"longitude":"-0.075013"},"context":"","outcome_status":{"category":"Local resolution","date":"2019-05"},"persistent_id":"410594c8b859497520c2440c22c80e813a6f9ee96313335b39b94c1ea19408e1","id":74336586,"location_subtype":"","month":"2019-05"},{"category":"other-theft","location_type":"Force","location":{"latitude":"51.379425","street":{"id":928604,"name":"On or near Lower Addiscombe Road"},"longitude":"-0.082168"},"context":"","outcome_status":{"category":"Investigation complete; no suspect identified","date":"2020-04"},"persistent_id":"ca9a21d4095df1e9cfe5d06c6e0d5cc8b9459327f8b7d1436ba08246e5142189","id":74338656,"location_subtype":"","month":"2019-05"},{"category":"other-theft","location_type":"Force","location":{"latitude":"51.386849","street":{"id":930830,"name":"On or near Roden Gardens"},"longitude":"-0.088540"},"context":"","outcome_status":{"category":"Status update unavailable","date":"2019-09"},"persistent_id":"0c9f7ea8c31400effa3e4a8278c402b029d765849be8ab337ae6a18f704c4102","id":74307751,"location_subtype":"","month":"2019-05"},{"category":"other-theft","location_type":"Force","location":{"latitude":"51.381563","street":{"id":928526,"name":"On or near Supermarket"},"longitude":"-0.062908"},"context":"","outcome_status":{"category":"Status update unavailable","date":"2019-09"},"persistent_id":"606d5d6507e5787605e974ce5e0af3ef084a3fce33030d08bc3aea7d5ac10d5d","id":74307856,"location_subtype":"","month":"2019-05"},{"category":"other-theft","location_type":"Force","location":{"latitude":"51.376660","street":{"id":928578,"name":"On or near Shirley Road"},"longitude":"-0.059522"},"context":"","outcome_status":{"category":"Status update unavailable","date":"2019-09"},"persistent_id":"31b95fee3f3c90c488a9adc8249621dac5c657bba983d10e66a40276c43813b2","id":74358905,"location_subtype":"","month":"2019-05"},{"category":"other-theft","location_type":"Force","location":{"latitude":"51.372495","street":{"id":927340,"name":"On or near Park Hill Road"},"longitude":"-0.087385"},"context":"","outcome_status":{"category":"Status update unavailable","date":"2019-09"},"persistent_id":"8bbc3afd640c89cd5ee6314e1465f5ce319437b44f734d2732a263d1a1ce8a0f","id":74363883,"location_subtype":"","month":"2019-05"},{"category":"other-theft","location_type":"Force","location":{"latitude":"51.381050","street":{"id":928658,"name":"On or near Pavement Square"},"longitude":"-0.072716"},"context":"","outcome_status":{"category":"Status update unavailable","date":"2019-09"},"persistent_id":"f5b34d173f3d2b153b9238bfd7ed45889e367171064da382c51901868a49e510","id":74290609,"location_subtype":"","month":"2019-05"},{"category":"other-theft","location_type":"Force","location":{"latitude":"51.377006","street":{"id":928696,"name":"On or near Elgin Road"},"longitude":"-0.079452"},"context":"","outcome_status":{"category":"Status update unavailable","date":"2019-09"},"persistent_id":"dfc304b062ccc07874a1e7523213da02ae85c706fee93cf46b19bab24bef47ed","id":74296074,"location_subtype":"","month":"2019-05"},{"category":"other-theft","location_type":"Force","location":{"latitude":"51.376660","street":{"id":928578,"name":"On or near Shirley Road"},"longitude":"-0.059522"},"context":"","outcome_status":{"category":"Status update unavailable","date":"2019-09"},"persistent_id":"5a863a8c52daa5df1b2b3bf94c3efd80f3fc36453f4e4f9a23894b1350891d77","id":74302453,"location_subtype":"","month":"2019-05"},{"category":"other-theft","location_type":"Force","location":{"latitude":"51.377391","street":{"id":928852,"name":"On or near Parking Area"},"longitude":"-0.095300"},"context":"","outcome_status":{"category":"Status update unavailable","date":"2019-09"},"persistent_id":"c86caae5760ea392818430873e0bc6f3c530e9dfc52fc5114a55a690e84cfcbe","id":74292497,"location_subtype":"","month":"2019-05"},{"category":"other-theft","location_type":"Force","location":{"latitude":"51.376660","street":{"id":928578,"name":"On or near Shirley Road"},"longitude":"-0.059522"},"context":"","outcome_status":{"category":"Status update unavailable","date":"2019-09"},"persistent_id":"7707212faaa4f275bc99115b8ffbb148ebf33d39743a54d62d9943e91f502bce","id":74292999,"location_subtype":"","month":"2019-05"},{"category":"other-theft","location_type":"Force","location":{"latitude":"51.374977","street":{"id":928848,"name":"On or near Theatre\/concert Hall"},"longitude":"-0.094006"},"context":"","outcome_status":{"category":"Status update unavailable","date":"2019-09"},"persistent_id":"0c5c46ac70f3e4384d232c892c3d5553538700a06fabaae64f4944db8144a22d","id":74308315,"location_subtype":"","month":"2019-05"},{"category":"other-theft","location_type":"Force","location":{"latitude":"51.393322","street":{"id":930754,"name":"On or near Merton Road"},"longitude":"-0.075233"},"context":"","outcome_status":{"category":"Status update unavailable","date":"2019-09"},"persistent_id":"9c4fea6dfe07cda1ab767b46d09ed5d29749267c21b39943f149d326ba13ca78","id":74310039,"location_subtype":"","month":"2019-05"},{"category":"other-theft","location_type":"Force","location":{"latitude":"51.374977","street":{"id":928848,"name":"On or near Theatre\/concert Hall"},"longitude":"-0.094006"},"context":"","outcome_status":{"category":"Status update unavailable","date":"2019-09"},"persistent_id":"62b6418bc71c51111787942203f5f2f608c67e508c2216954b8a4f05b2038282","id":74309628,"location_subtype":"","month":"2019-05"},{"category":"other-theft","location_type":"Force","location":{"latitude":"51.381050","street":{"id":928658,"name":"On or near Pavement Square"},"longitude":"-0.072716"},"context":"","outcome_status":{"category":"Status update unavailable","date":"2019-09"},"persistent_id":"eaa69e0b7ae43610c6bce22be17ca7e62662b4a44e4a436c989d6e793c42f6b4","id":74315054,"location_subtype":"","month":"2019-05"},{"category":"other-theft","location_type":"Force","location":{"latitude":"51.383273","street":{"id":928668,"name":"On or near Coniston Road"},"longitude":"-0.072838"},"context":"","outcome_status":{"category":"Investigation complete; no suspect identified","date":"2020-03"},"persistent_id":"5f87dba8e392e6729f805b97fac24affc5847bbbc4a082459842e942c9ec3b82","id":74335892,"location_subtype":"","month":"2019-05"},{"category":"other-theft","location_type":"Force","location":{"latitude":"51.377364","street":{"id":928635,"name":"On or near Mulberry Lane"},"longitude":"-0.077138"},"context":"","outcome_status":{"category":"Status update unavailable","date":"2019-09"},"persistent_id":"ee81602122f96ecab25c6140e05b71b7a3f74018db6dd94a1f3eac0719fc38bb","id":74336333,"location_subtype":"","month":"2019-05"},{"category":"other-theft","location_type":"Force","location":{"latitude":"51.381223","street":{"id":928524,"name":"On or near Blackthorne Avenue"},"longitude":"-0.059775"},"context":"","outcome_status":{"category":"Status update unavailable","date":"2019-09"},"persistent_id":"b32a56e1bbb04651b2d9111ba0888c8496d5e3c6a483a0e27151988ce9a2a1f2","id":74331322,"location_subtype":"","month":"2019-05"},{"category":"other-theft","location_type":"Force","location":{"latitude":"51.377816","street":{"id":928603,"name":"On or near Oval Road"},"longitude":"-0.088845"},"context":"","outcome_status":{"category":"Investigation complete; no suspect identified","date":"2020-03"},"persistent_id":"e951a4c411401dc52d6ee439787f893aae345f8ada9ee5177a53037a57739245","id":74335331,"location_subtype":"","month":"2019-05"},{"category":"other-theft","location_type":"Force","location":{"latitude":"51.384372","street":{"id":928665,"name":"On or near Gowlland Close"},"longitude":"-0.075120"},"context":"","outcome_status":{"category":"Status update unavailable","date":"2019-09"},"persistent_id":"81fe39f81c73364e3e22a6ffdbc7a9f4ed0fba33dc3461bb73ee6f1a96975007","id":74344389,"location_subtype":"","month":"2019-05"},{"category":"other-theft","location_type":"Force","location":{"latitude":"51.381563","street":{"id":928526,"name":"On or near Supermarket"},"longitude":"-0.062908"},"context":"","outcome_status":{"category":"Status update unavailable","date":"2019-09"},"persistent_id":"61a59b50b06190cc0dedd43a3dcd3bec269660561c8d90033757fd266c894420","id":74354368,"location_subtype":"","month":"2019-05"},{"category":"other-theft","location_type":"Force","location":{"latitude":"51.393622","street":{"id":930753,"name":"On or near Percy Road"},"longitude":"-0.074890"},"context":"","outcome_status":{"category":"Status update unavailable","date":"2019-09"},"persistent_id":"da152e520374f4c68da4315e9ca8b2ae91ed2eaebfe249c68c74bf4c99dd6f3d","id":74354439,"location_subtype":"","month":"2019-05"},{"category":"other-theft","location_type":"Force","location":{"latitude":"51.374764","street":{"id":928836,"name":"On or near Pedestrian Subway"},"longitude":"-0.091386"},"context":"","outcome_status":{"category":"Status update unavailable","date":"2019-09"},"persistent_id":"9eba9840eb0196ce12a09bb4156c6d672af015de832281c16ac474366c11184f","id":74349938,"location_subtype":"","month":"2019-05"},{"category":"other-theft","location_type":"Force","location":{"latitude":"51.374977","street":{"id":928848,"name":"On or near Theatre\/concert Hall"},"longitude":"-0.094006"},"context":"","outcome_status":{"category":"Status update unavailable","date":"2019-09"},"persistent_id":"6f41d08ca737a938dc82a68b1b937ccd679547c113ecee71add38df5664b5f50","id":74349939,"location_subtype":"","month":"2019-05"},{"category":"other-theft","location_type":"Force","location":{"latitude":"51.374016","street":{"id":928716,"name":"On or near Garrick Crescent"},"longitude":"-0.088529"},"context":"","outcome_status":{"category":"Status update unavailable","date":"2019-09"},"persistent_id":"5bbed3af21fecfad6241fd9aab27347a3da88fe86f573ac15c972ed1a3a94e97","id":74351998,"location_subtype":"","month":"2019-05"},{"category":"other-theft","location_type":"Force","location":{"latitude":"51.376660","street":{"id":928578,"name":"On or near Shirley Road"},"longitude":"-0.059522"},"context":"","outcome_status":{"category":"Status update unavailable","date":"2019-09"},"persistent_id":"a319ab7d8cde9dc23a077938ad8dd614c6cb11f7b069d297f6f6240887c0b7c9","id":74367923,"location_subtype":"","month":"2019-05"},{"category":"other-theft","location_type":"Force","location":{"latitude":"51.381563","street":{"id":928526,"name":"On or near Supermarket"},"longitude":"-0.062908"},"context":"","outcome_status":{"category":"Status update unavailable","date":"2019-09"},"persistent_id":"4750b11ed13e38f696b5afdff2a105e042086c00845435dd0aac65cf0b3a0398","id":74368302,"location_subtype":"","month":"2019-05"},{"category":"other-theft","location_type":"Force","location":{"latitude":"51.374977","street":{"id":928848,"name":"On or near Theatre\/concert Hall"},"longitude":"-0.094006"},"context":"","outcome_status":{"category":"Status update unavailable","date":"2019-09"},"persistent_id":"002c97649f68db26f2e46cd3dae13d52e2a7f692b635145ca1f9dbeb5d285516","id":74371337,"location_subtype":"","month":"2019-05"},{"category":"other-theft","location_type":"BTP","location":{"latitude":"51.375700","street":{"id":1488327,"name":"East Croydon (station)"},"longitude":"-0.092507"},"context":"","outcome_status":{"category":"Status update unavailable","date":"2019-09"},"persistent_id":"","id":88718077,"location_subtype":"STATION","month":"2019-05"},{"category":"other-theft","location_type":"BTP","location":{"latitude":"51.375700","street":{"id":1488327,"name":"East Croydon (station)"},"longitude":"-0.092507"},"context":"","outcome_status":{"category":"Status update unavailable","date":"2019-09"},"persistent_id":"","id":88718076,"location_subtype":"STATION","month":"2019-05"},{"category":"other-theft","location_type":"BTP","location":{"latitude":"51.375700","street":{"id":1488327,"name":"East Croydon (station)"},"longitude":"-0.092507"},"context":"","outcome_status":{"category":"Status update unavailable","date":"2019-09"},"persistent_id":"","id":88718075,"location_subtype":"STATION","month":"2019-05"},{"category":"other-theft","location_type":"Force","location":{"latitude":"51.382175","street":{"id":928525,"name":"On or near Sports\/recreation Area"},"longitude":"-0.062422"},"context":"","outcome_status":{"category":"Investigation complete; no suspect identified","date":"2020-03"},"persistent_id":"4200b11c199bd13b684fc1d2cb6cffeae292944e9e4dcae33ac6d2cc2b5d874d","id":74329550,"location_subtype":"","month":"2019-05"},{"category":"other-theft","location_type":"Force","location":{"latitude":"51.375127","street":{"id":928704,"name":"On or near Addiscombe Road"},"longitude":"-0.080594"},"context":"","outcome_status":{"category":"Investigation complete; no suspect identified","date":"2020-03"},"persistent_id":"8b81e8be4213947eca316a853ebd8fae30c62a5a23521e2d60cc46dd7698151f","id":74305232,"location_subtype":"","month":"2019-05"},{"category":"other-theft","location_type":"Force","location":{"latitude":"51.381352","street":{"id":928821,"name":"On or near St James's Road"},"longitude":"-0.091730"},"context":"","outcome_status":{"category":"Investigation complete; no suspect identified","date":"2020-03"},"persistent_id":"d652a7ebcaeac576633dd939badac94e880ab7310de78d308dfd02112c90573d","id":74293605,"location_subtype":"","month":"2019-05"},{"category":"other-theft","location_type":"Force","location":{"latitude":"51.379425","street":{"id":928604,"name":"On or near Lower Addiscombe Road"},"longitude":"-0.082168"},"context":"","outcome_status":{"category":"Investigation complete; no suspect identified","date":"2020-03"},"persistent_id":"a480db014927de70642dc571b8ca0fa29bb5ec5c9e44a0f96029369b4e1303a1","id":74371357,"location_subtype":"","month":"2019-05"},{"category":"other-theft","location_type":"Force","location":{"latitude":"51.379425","street":{"id":928604,"name":"On or near Lower Addiscombe Road"},"longitude":"-0.082168"},"context":"","outcome_status":{"category":"Court result unavailable","date":"2020-01"},"persistent_id":"68eba4db03a7d52866867bba0d8599596a58e66d2a38a527bdf22878476f50d2","id":74338813,"location_subtype":"","month":"2019-05"},{"category":"possession-of-weapons","location_type":"Force","location":{"latitude":"51.385350","street":{"id":928820,"name":"On or near Sydenham Road"},"longitude":"-0.092569"},"context":"","outcome_status":{"category":"Status update unavailable","date":"2019-09"},"persistent_id":"dbbd5c1071c354473cbaae59d56d6ba1f5a0de988afac50842b971bec1f526bf","id":74309283,"location_subtype":"","month":"2019-05"},{"category":"possession-of-weapons","location_type":"Force","location":{"latitude":"51.374977","street":{"id":928848,"name":"On or near Theatre\/concert Hall"},"longitude":"-0.094006"},"context":"","outcome_status":{"category":"Status update unavailable","date":"2019-09"},"persistent_id":"af2c1624bb79ca0b3954d1110f4ae1eff64135ffa693ec923b09ced1cd56e3f7","id":74340223,"location_subtype":"","month":"2019-05"},{"category":"possession-of-weapons","location_type":"Force","location":{"latitude":"51.385727","street":{"id":930854,"name":"On or near Elmers Road"},"longitude":"-0.070033"},"context":"","outcome_status":{"category":"Investigation complete; no suspect identified","date":"2020-04"},"persistent_id":"f0404a923e4c5fc793d8aa392c7527159db1bc499e923654ce35265931106fe3","id":74335343,"location_subtype":"","month":"2019-05"},{"category":"possession-of-weapons","location_type":"Force","location":{"latitude":"51.385614","street":{"id":930867,"name":"On or near Alderton Road"},"longitude":"-0.075197"},"context":"","outcome_status":{"category":"Offender sent to prison","date":"2019-05"},"persistent_id":"b830a3fe41eb8fec6fe0aff5bb92495d1f185f46fca27f1da8fbe429b4b53f80","id":74358301,"location_subtype":"","month":"2019-05"},{"category":"possession-of-weapons","location_type":"Force","location":{"latitude":"51.389423","street":{"id":930863,"name":"On or near Becket Close"},"longitude":"-0.070582"},"context":"","outcome_status":{"category":"Status update unavailable","date":"2019-09"},"persistent_id":"9fe80bfd41e54cddff7582b32de278434399f907d12f1089b7635e2c6fc59882","id":74340724,"location_subtype":"","month":"2019-05"},{"category":"public-order","location_type":"BTP","location":{"latitude":"51.375700","street":{"id":1488327,"name":"East Croydon (station)"},"longitude":"-0.092507"},"context":"","outcome_status":{"category":"Status update unavailable","date":"2019-09"},"persistent_id":"","id":88718081,"location_subtype":"STATION","month":"2019-05"},{"category":"public-order","location_type":"BTP","location":{"latitude":"51.375700","street":{"id":1488327,"name":"East Croydon (station)"},"longitude":"-0.092507"},"context":"","outcome_status":{"category":"Status update unavailable","date":"2019-09"},"persistent_id":"","id":88718080,"location_subtype":"STATION","month":"2019-05"},{"category":"public-order","location_type":"Force","location":{"latitude":"51.387309","street":{"id":930834,"name":"On or near Canal Walk"},"longitude":"-0.083146"},"context":"","outcome_status":{"category":"Status update unavailable","date":"2019-09"},"persistent_id":"c864efbded804cbd0cade4397baa903daf3bde63a84fcb6c3a72bc9c877a2b20","id":74351286,"location_subtype":"","month":"2019-05"},{"category":"public-order","location_type":"Force","location":{"latitude":"51.380735","street":{"id":928680,"name":"On or near Supermarket"},"longitude":"-0.072700"},"context":"","outcome_status":{"category":"Investigation complete; no suspect identified","date":"2020-03"},"persistent_id":"4ed8e25fb4e19b76b8e76e1b60c950c041f4f56368b165e56d58eda7b7839382","id":74317741,"location_subtype":"","month":"2019-05"},{"category":"public-order","location_type":"Force","location":{"latitude":"51.388716","street":{"id":930864,"name":"On or near Backley Gardens"},"longitude":"-0.073500"},"context":"","outcome_status":{"category":"Investigation complete; no suspect identified","date":"2020-03"},"persistent_id":"ca7789a3f5c92dd5dbb32e3542def152c0cfc20b81a7c10acfa2782d6c379287","id":74321724,"location_subtype":"","month":"2019-05"},{"category":"public-order","location_type":"BTP","location":{"latitude":"51.375700","street":{"id":1488327,"name":"East Croydon (station)"},"longitude":"-0.092507"},"context":"","outcome_status":{"category":"Status update unavailable","date":"2019-09"},"persistent_id":"","id":88718087,"location_subtype":"STATION","month":"2019-05"},{"category":"public-order","location_type":"BTP","location":{"latitude":"51.375700","street":{"id":1488327,"name":"East Croydon (station)"},"longitude":"-0.092507"},"context":"","outcome_status":{"category":"Status update unavailable","date":"2019-09"},"persistent_id":"","id":88718085,"location_subtype":"STATION","month":"2019-05"},{"category":"public-order","location_type":"BTP","location":{"latitude":"51.375700","street":{"id":1488327,"name":"East Croydon (station)"},"longitude":"-0.092507"},"context":"","outcome_status":{"category":"Status update unavailable","date":"2019-09"},"persistent_id":"","id":88718084,"location_subtype":"STATION","month":"2019-05"},{"category":"public-order","location_type":"BTP","location":{"latitude":"51.375700","street":{"id":1488327,"name":"East Croydon (station)"},"longitude":"-0.092507"},"context":"","outcome_status":{"category":"Status update unavailable","date":"2019-09"},"persistent_id":"","id":88718083,"location_subtype":"STATION","month":"2019-05"},{"category":"public-order","location_type":"BTP","location":{"latitude":"51.375700","street":{"id":1488327,"name":"East Croydon (station)"},"longitude":"-0.092507"},"context":"","outcome_status":{"category":"Status update unavailable","date":"2019-09"},"persistent_id":"","id":88718082,"location_subtype":"STATION","month":"2019-05"},{"category":"public-order","location_type":"Force","location":{"latitude":"51.388327","street":{"id":930738,"name":"On or near Bullrush Close"},"longitude":"-0.089284"},"context":"","outcome_status":{"category":"Status update unavailable","date":"2019-09"},"persistent_id":"62677f688308769fccf014e191670c9c0efdb41b68b700bfd698d7e4f569ad31","id":74311746,"location_subtype":"","month":"2019-05"},{"category":"public-order","location_type":"Force","location":{"latitude":"51.385156","street":{"id":928675,"name":"On or near Blackhorse Lane"},"longitude":"-0.071379"},"context":"","outcome_status":{"category":"Status update unavailable","date":"2019-09"},"persistent_id":"5fcbaca4f2cc208cd246c3ea83f50a7ff8d24c51d5879f9bbcec75d12441bdf3","id":74351755,"location_subtype":"","month":"2019-05"},{"category":"public-order","location_type":"Force","location":{"latitude":"51.386658","street":{"id":930927,"name":"On or near Spring Lane"},"longitude":"-0.063756"},"context":"","outcome_status":{"category":"Status update unavailable","date":"2019-09"},"persistent_id":"4a6a0f0ace238f1721c128a964291a3cec30b31dd4b2d160de4643874b54fb2e","id":74364188,"location_subtype":"","month":"2019-05"},{"category":"public-order","location_type":"Force","location":{"latitude":"51.385156","street":{"id":928675,"name":"On or near Blackhorse Lane"},"longitude":"-0.071379"},"context":"","outcome_status":{"category":"Status update unavailable","date":"2019-09"},"persistent_id":"d5470c015db679414a98073170826ab24ca9da06e514a940e7b609a53a5646b1","id":74290880,"location_subtype":"","month":"2019-05"},{"category":"public-order","location_type":"Force","location":{"latitude":"51.381352","street":{"id":928821,"name":"On or near St James's Road"},"longitude":"-0.091730"},"context":"","outcome_status":{"category":"Status update unavailable","date":"2019-09"},"persistent_id":"02133115cdbe0ba03b4db55172fff9778c50cc506d1baadbccc31c08ad100009","id":74321171,"location_subtype":"","month":"2019-05"},{"category":"public-order","location_type":"Force","location":{"latitude":"51.393140","street":{"id":930764,"name":"On or near Denmark Road"},"longitude":"-0.068039"},"context":"","outcome_status":{"category":"Status update unavailable","date":"2019-09"},"persistent_id":"1b1a82f7169703f4cb7ff350ffd9719d6a6e66dff291aac144c3321157c3f737","id":74338122,"location_subtype":"","month":"2019-05"},{"category":"public-order","location_type":"Force","location":{"latitude":"51.374764","street":{"id":928836,"name":"On or near Pedestrian Subway"},"longitude":"-0.091386"},"context":"","outcome_status":{"category":"Investigation complete; no suspect identified","date":"2020-03"},"persistent_id":"994e9d0683194b7f5b3cb40fd64d34dfffd5091260bdf8170057928b8f9a3a7f","id":74330871,"location_subtype":"","month":"2019-05"},{"category":"public-order","location_type":"Force","location":{"latitude":"51.373567","street":{"id":928839,"name":"On or near Hazledean Road"},"longitude":"-0.091895"},"context":"","outcome_status":{"category":"Investigation complete; no suspect identified","date":"2020-03"},"persistent_id":"f60c3d105c85e2e70116973352344d764eaba98669cf401254b3ac8b55e48994","id":74346507,"location_subtype":"","month":"2019-05"},{"category":"public-order","location_type":"Force","location":{"latitude":"51.383517","street":{"id":928828,"name":"On or near Grenaby Avenue"},"longitude":"-0.094341"},"context":"","outcome_status":{"category":"Offender given penalty notice","date":"2019-05"},"persistent_id":"2f66ff015efa116e1a7ed7f829db87bdccb6bb1a7300a5c66a75a1197d299a49","id":74299887,"location_subtype":"","month":"2019-05"},{"category":"public-order","location_type":"Force","location":{"latitude":"51.383950","street":{"id":928623,"name":"On or near Exeter Road"},"longitude":"-0.082295"},"context":"","outcome_status":{"category":"Investigation complete; no suspect identified","date":"2020-03"},"persistent_id":"5e0148e7cc96aea388fd2d68291e6d2cda4d01a5fdfc2f51dc2d6a6782f849d0","id":74299883,"location_subtype":"","month":"2019-05"},{"category":"public-order","location_type":"Force","location":{"latitude":"51.381597","street":{"id":928620,"name":"On or near Gordon Crescent"},"longitude":"-0.082508"},"context":"","outcome_status":{"category":"Status update unavailable","date":"2019-09"},"persistent_id":"33f28b788fd84ea8242d7bf92bcfc8e5f04503fc2437b5307ad86cddaef160d8","id":74322218,"location_subtype":"","month":"2019-05"},{"category":"public-order","location_type":"Force","location":{"latitude":"51.384010","street":{"id":928913,"name":"On or near Gladstone Road"},"longitude":"-0.091475"},"context":"","outcome_status":{"category":"Status update unavailable","date":"2019-09"},"persistent_id":"689b3db872ce80bca6a5a4019615b517b14d8f9b0046f103595ada09658a618a","id":74330161,"location_subtype":"","month":"2019-05"},{"category":"public-order","location_type":"Force","location":{"latitude":"51.386664","street":{"id":930839,"name":"On or near Sonning Road"},"longitude":"-0.072293"},"context":"","outcome_status":{"category":"Investigation complete; no suspect identified","date":"2020-03"},"persistent_id":"4cc5d214e0c15e4fa0a732d8a6760bba4cb2f558fcc9ce45d1bc56a424e052da","id":74322412,"location_subtype":"","month":"2019-05"},{"category":"public-order","location_type":"Force","location":{"latitude":"51.374502","street":{"id":928583,"name":"On or near Eldon Avenue"},"longitude":"-0.055246"},"context":"","outcome_status":{"category":"Status update unavailable","date":"2019-09"},"persistent_id":"ba93bbd627d91f1a6840a37f3304623cd9d96f665c7e8ecb89b9cd846e37f6b8","id":74345529,"location_subtype":"","month":"2019-05"},{"category":"public-order","location_type":"Force","location":{"latitude":"51.381666","street":{"id":928629,"name":"On or near Alexandra Place"},"longitude":"-0.087793"},"context":"","outcome_status":{"category":"Status update unavailable","date":"2019-09"},"persistent_id":"84c536c032116141f54134106bb22fc8b5072c894267eb1cbcad5114b33e016a","id":74295955,"location_subtype":"","month":"2019-05"},{"category":"public-order","location_type":"Force","location":{"latitude":"51.374502","street":{"id":928583,"name":"On or near Eldon Avenue"},"longitude":"-0.055246"},"context":"","outcome_status":{"category":"Status update unavailable","date":"2019-09"},"persistent_id":"ba93bbd627d91f1a6840a37f3304623cd9d96f665c7e8ecb89b9cd846e37f6b8","id":74345530,"location_subtype":"","month":"2019-05"},{"category":"public-order","location_type":"Force","location":{"latitude":"51.389017","street":{"id":930930,"name":"On or near Malling Close"},"longitude":"-0.059618"},"context":"","outcome_status":{"category":"Status update unavailable","date":"2019-09"},"persistent_id":"506ef4d8e65bb39f938af0141396ff932ca9d0f4609012b437867eba30f5187f","id":74344320,"location_subtype":"","month":"2019-05"},{"category":"public-order","location_type":"Force","location":{"latitude":"51.393140","street":{"id":930764,"name":"On or near Denmark Road"},"longitude":"-0.068039"},"context":"","outcome_status":{"category":"Status update unavailable","date":"2019-09"},"persistent_id":"e5341daaa39dab4a7d665eb65a3dc344fedd9a5b53d5c63a30efe577cfde266e","id":74336230,"location_subtype":"","month":"2019-05"},{"category":"public-order","location_type":"Force","location":{"latitude":"51.378860","street":{"id":928639,"name":"On or near Crabtree Walk"},"longitude":"-0.075696"},"context":"","outcome_status":{"category":"Investigation complete; no suspect identified","date":"2020-06"},"persistent_id":"2083a74c0f75db4ee3f3ac75279154eb39bd61b9766c8c2ac2e545664af5517b","id":74337010,"location_subtype":"","month":"2019-05"},{"category":"public-order","location_type":"Force","location":{"latitude":"51.382175","street":{"id":928525,"name":"On or near Sports\/recreation Area"},"longitude":"-0.062422"},"context":"","outcome_status":{"category":"Local resolution","date":"2019-09"},"persistent_id":"6a614f0fc355a23fd768d69a309ca1c0dff165a7b84baec5de12f3c77d9c7f49","id":74307893,"location_subtype":"","month":"2019-05"},{"category":"public-order","location_type":"BTP","location":{"latitude":"51.383519","street":{"id":1489545,"name":"Addiscombe (tram Stop)"},"longitude":"-0.076837"},"context":"","outcome_status":{"category":"Status update unavailable","date":"2019-09"},"persistent_id":"","id":88721792,"location_subtype":"TRAMLINK","month":"2019-05"},{"category":"public-order","location_type":"BTP","location":{"latitude":"51.374900","street":{"id":1488452,"name":"East Croydon (tram Stop)"},"longitude":"-0.092657"},"context":"","outcome_status":{"category":"Status update unavailable","date":"2019-09"},"persistent_id":"","id":88721599,"location_subtype":"TRAMLINK","month":"2019-05"},{"category":"public-order","location_type":"BTP","location":{"latitude":"51.374900","street":{"id":1488452,"name":"East Croydon (tram Stop)"},"longitude":"-0.092657"},"context":"","outcome_status":{"category":"Status update unavailable","date":"2019-09"},"persistent_id":"","id":88721598,"location_subtype":"TRAMLINK","month":"2019-05"},{"category":"public-order","location_type":"Force","location":{"latitude":"51.376660","street":{"id":928578,"name":"On or near Shirley Road"},"longitude":"-0.059522"},"context":"","outcome_status":{"category":"Court result unavailable","date":"2019-11"},"persistent_id":"f1ebfaf46aa70bb53cddf564746978eb419f8ee2173e5aee82ead16aadeea9db","id":74318071,"location_subtype":"","month":"2019-05"},{"category":"public-order","location_type":"BTP","location":{"latitude":"51.375700","street":{"id":1488327,"name":"East Croydon (station)"},"longitude":"-0.092507"},"context":"","outcome_status":{"category":"Status update unavailable","date":"2019-09"},"persistent_id":"","id":88718089,"location_subtype":"STATION","month":"2019-05"},{"category":"public-order","location_type":"BTP","location":{"latitude":"51.375700","street":{"id":1488327,"name":"East Croydon (station)"},"longitude":"-0.092507"},"context":"","outcome_status":{"category":"Status update unavailable","date":"2019-09"},"persistent_id":"","id":88718088,"location_subtype":"STATION","month":"2019-05"},{"category":"public-order","location_type":"BTP","location":{"latitude":"51.375700","street":{"id":1488327,"name":"East Croydon (station)"},"longitude":"-0.092507"},"context":"","outcome_status":{"category":"Status update unavailable","date":"2019-09"},"persistent_id":"","id":88718086,"location_subtype":"STATION","month":"2019-05"},{"category":"robbery","location_type":"Force","location":{"latitude":"51.385132","street":{"id":928651,"name":"On or near Tenterden Road"},"longitude":"-0.068865"},"context":"","outcome_status":{"category":"Investigation complete; no suspect identified","date":"2020-03"},"persistent_id":"3c837f35e5ee1d355d6c0afd23fb0a356b8db32d8d1bfa23f0a56e373bc107d1","id":74334488,"location_subtype":"","month":"2019-05"},{"category":"robbery","location_type":"Force","location":{"latitude":"51.374977","street":{"id":928848,"name":"On or near Theatre\/concert Hall"},"longitude":"-0.094006"},"context":"","outcome_status":{"category":"Status update unavailable","date":"2019-09"},"persistent_id":"08d530d652649b18422aa7abf3d7df3651150069bfe74737c0d1d22a358c318a","id":74350659,"location_subtype":"","month":"2019-05"},{"category":"robbery","location_type":"Force","location":{"latitude":"51.374764","street":{"id":928836,"name":"On or near Pedestrian Subway"},"longitude":"-0.091386"},"context":"","outcome_status":{"category":"Investigation complete; no suspect identified","date":"2020-03"},"persistent_id":"08264f55799d866dea3fbcb4bb917dd67270f9195779433f4ea04c694920fb3f","id":74309098,"location_subtype":"","month":"2019-05"},{"category":"robbery","location_type":"Force","location":{"latitude":"51.381352","street":{"id":928821,"name":"On or near St James's Road"},"longitude":"-0.091730"},"context":"","outcome_status":{"category":"Status update unavailable","date":"2019-09"},"persistent_id":"a75393de8adda3a5b9b43ec49dd714190a1e78c4ccf103b59fdc9c65d0e97b9e","id":74291548,"location_subtype":"","month":"2019-05"},{"category":"robbery","location_type":"Force","location":{"latitude":"51.383436","street":{"id":928728,"name":"On or near Blackhorse Lane"},"longitude":"-0.069626"},"context":"","outcome_status":{"category":"Status update unavailable","date":"2019-09"},"persistent_id":"d351fdc51b2e1c85ebfa15ea103fbfc4c1f27180fd49f28e8436535179f2c856","id":74338672,"location_subtype":"","month":"2019-05"},{"category":"robbery","location_type":"Force","location":{"latitude":"51.376527","street":{"id":928861,"name":"On or near Dingwall Road"},"longitude":"-0.095293"},"context":"","outcome_status":{"category":"Status update unavailable","date":"2019-09"},"persistent_id":"074537bbf517fa0043ccd085cf41bc5c55c9118efd008950607b9ced371d245c","id":74309310,"location_subtype":"","month":"2019-05"},{"category":"robbery","location_type":"Force","location":{"latitude":"51.393848","street":{"id":930763,"name":"On or near Elborough Road"},"longitude":"-0.072235"},"context":"","outcome_status":{"category":"Investigation complete; no suspect identified","date":"2020-03"},"persistent_id":"7d0daa045b8ea9a59d79c1abed89dffebd47eca348285f43dc76e25f93dd6341","id":74295954,"location_subtype":"","month":"2019-05"},{"category":"robbery","location_type":"Force","location":{"latitude":"51.374764","street":{"id":928836,"name":"On or near Pedestrian Subway"},"longitude":"-0.091386"},"context":"","outcome_status":{"category":"Status update unavailable","date":"2019-09"},"persistent_id":"4fe5d7115edc3265c4b98a2ff75814333872fc846b0a59cf34394ac934096f5a","id":74350784,"location_subtype":"","month":"2019-05"},{"category":"robbery","location_type":"Force","location":{"latitude":"51.390889","street":{"id":930767,"name":"On or near Christie Drive"},"longitude":"-0.074990"},"context":"","outcome_status":{"category":"Status update unavailable","date":"2019-09"},"persistent_id":"d826ce11547aa46840e0c06e043173a960ac475a59a3cf3d12f5dacfbd396353","id":74332022,"location_subtype":"","month":"2019-05"},{"category":"robbery","location_type":"Force","location":{"latitude":"51.378819","street":{"id":928507,"name":"On or near Peabody Close"},"longitude":"-0.061242"},"context":"","outcome_status":{"category":"Status update unavailable","date":"2019-09"},"persistent_id":"4f48afd73c0eb685a46c88cce4ea4b57c906fce3398dfa8944e75202de59b01c","id":74314909,"location_subtype":"","month":"2019-05"},{"category":"robbery","location_type":"Force","location":{"latitude":"51.383414","street":{"id":928621,"name":"On or near Fullerton Road"},"longitude":"-0.081426"},"context":"","outcome_status":{"category":"Investigation complete; no suspect identified","date":"2020-03"},"persistent_id":"6b318af13a39ce34b625dc05dd5d95d5826b885906e3e983d042839c0ba7299c","id":74357484,"location_subtype":"","month":"2019-05"},{"category":"robbery","location_type":"Force","location":{"latitude":"51.376660","street":{"id":928578,"name":"On or near Shirley Road"},"longitude":"-0.059522"},"context":"","outcome_status":{"category":"Status update unavailable","date":"2019-09"},"persistent_id":"e8032279b6594cf85addae3fcdfdf7d14d3b8c6925ad01f49454e525ca05d9d3","id":74331278,"location_subtype":"","month":"2019-05"},{"category":"robbery","location_type":"Force","location":{"latitude":"51.376527","street":{"id":928861,"name":"On or near Dingwall Road"},"longitude":"-0.095293"},"context":"","outcome_status":{"category":"Status update unavailable","date":"2019-09"},"persistent_id":"66edd70350de8c818063a52990cc2cf18a35c3436e6cf81987e4a6384ff7a6a9","id":74339852,"location_subtype":"","month":"2019-05"},{"category":"robbery","location_type":"Force","location":{"latitude":"51.374502","street":{"id":928583,"name":"On or near Eldon Avenue"},"longitude":"-0.055246"},"context":"","outcome_status":{"category":"Investigation complete; no suspect identified","date":"2020-06"},"persistent_id":"d6514ac6f16ebdba3fffa2a22121c6933ad9ee00140f10dddeb0d13423a14a3f","id":74299403,"location_subtype":"","month":"2019-05"},{"category":"robbery","location_type":"Force","location":{"latitude":"51.387368","street":{"id":930857,"name":"On or near Davies Close"},"longitude":"-0.075238"},"context":"","outcome_status":{"category":"Status update unavailable","date":"2019-09"},"persistent_id":"26fb09342c27a3aa1ec8430e3d9d1cf3c1df974aaa7b1d4c9aa6ee587ac7e3e1","id":74336280,"location_subtype":"","month":"2019-05"},{"category":"robbery","location_type":"Force","location":{"latitude":"51.380986","street":{"id":928826,"name":"On or near Lambert's Place"},"longitude":"-0.091299"},"context":"","outcome_status":{"category":"Status update unavailable","date":"2019-09"},"persistent_id":"535264ee331df66a6ea7512df49f918a0d586893f44fb0512d115afc2646bbd2","id":74296312,"location_subtype":"","month":"2019-05"},{"category":"shoplifting","location_type":"Force","location":{"latitude":"51.380735","street":{"id":928680,"name":"On or near Supermarket"},"longitude":"-0.072700"},"context":"","outcome_status":{"category":"Local resolution","date":"2019-05"},"persistent_id":"80574a1b648239a49d44da434b15bfd989040b32da2cf04be7e6daa548bdc007","id":74296786,"location_subtype":"","month":"2019-05"},{"category":"shoplifting","location_type":"Force","location":{"latitude":"51.388327","street":{"id":930738,"name":"On or near Bullrush Close"},"longitude":"-0.089284"},"context":"","outcome_status":{"category":"Status update unavailable","date":"2019-09"},"persistent_id":"cf038c1aa70199f1f082fec7beff84b01165ca88c962815546dd3aefea615b52","id":74331457,"location_subtype":"","month":"2019-05"},{"category":"shoplifting","location_type":"Force","location":{"latitude":"51.381050","street":{"id":928658,"name":"On or near Pavement Square"},"longitude":"-0.072716"},"context":"","outcome_status":{"category":"Court result unavailable","date":"2019-12"},"persistent_id":"a7abde54c87aa7375101d9473cc218b6c812e0c562b6ef91004ea7ba3a46550c","id":74352103,"location_subtype":"","month":"2019-05"},{"category":"shoplifting","location_type":"Force","location":{"latitude":"51.382030","street":{"id":928681,"name":"On or near Supermarket"},"longitude":"-0.070001"},"context":"","outcome_status":{"category":"Status update unavailable","date":"2019-09"},"persistent_id":"1af92242689f02c0328ef1be70a20ee1ffd82e2ebbe8aae504149001a5b8472d","id":74292173,"location_subtype":"","month":"2019-05"},{"category":"shoplifting","location_type":"Force","location":{"latitude":"51.381969","street":{"id":928521,"name":"On or near Elmgrove Road"},"longitude":"-0.064658"},"context":"","outcome_status":{"category":"Status update unavailable","date":"2019-09"},"persistent_id":"c7374d70f3d1d67debb9c1e19ac7b1b36aee916e85ca8e7027c81b209a29b58e","id":74324082,"location_subtype":"","month":"2019-05"},{"category":"shoplifting","location_type":"Force","location":{"latitude":"51.379425","street":{"id":928604,"name":"On or near Lower Addiscombe Road"},"longitude":"-0.082168"},"context":"","outcome_status":{"category":"Offender given a caution","date":"2019-06"},"persistent_id":"e0ee37ec4f46dd521425e3de568a30916279c8fbd57a312d9651f59acebf6660","id":74337448,"location_subtype":"","month":"2019-05"},{"category":"shoplifting","location_type":"Force","location":{"latitude":"51.381050","street":{"id":928658,"name":"On or near Pavement Square"},"longitude":"-0.072716"},"context":"","outcome_status":{"category":"Status update unavailable","date":"2019-09"},"persistent_id":"c4d8a854ef27d42e3a09b889f474d19d802ae6534b1acca8cd6a1b9fbbde398d","id":74313869,"location_subtype":"","month":"2019-05"},{"category":"shoplifting","location_type":"Force","location":{"latitude":"51.388327","street":{"id":930738,"name":"On or near Bullrush Close"},"longitude":"-0.089284"},"context":"","outcome_status":{"category":"Status update unavailable","date":"2019-09"},"persistent_id":"62677f688308769fccf014e191670c9c0efdb41b68b700bfd698d7e4f569ad31","id":74310095,"location_subtype":"","month":"2019-05"},{"category":"shoplifting","location_type":"Force","location":{"latitude":"51.388574","street":{"id":930829,"name":"On or near Selhurst New Road"},"longitude":"-0.088440"},"context":"","outcome_status":{"category":"Status update unavailable","date":"2019-09"},"persistent_id":"16b0b122276d041c33bd6041e8e35226838061ae8665c4c4aac098e50c0a5da8","id":74295841,"location_subtype":"","month":"2019-05"},{"category":"theft-from-the-person","location_type":"Force","location":{"latitude":"51.374977","street":{"id":928848,"name":"On or near Theatre\/concert Hall"},"longitude":"-0.094006"},"context":"","outcome_status":{"category":"Status update unavailable","date":"2019-09"},"persistent_id":"fc8c4a29160fdaba217e3ae3d50cd85a0ab4816df613bf97197c3b924634d261","id":74321377,"location_subtype":"","month":"2019-05"},{"category":"theft-from-the-person","location_type":"BTP","location":{"latitude":"51.375700","street":{"id":1488327,"name":"East Croydon (station)"},"longitude":"-0.092507"},"context":"","outcome_status":{"category":"Status update unavailable","date":"2019-09"},"persistent_id":"","id":88718091,"location_subtype":"STATION","month":"2019-05"},{"category":"theft-from-the-person","location_type":"BTP","location":{"latitude":"51.375700","street":{"id":1488327,"name":"East Croydon (station)"},"longitude":"-0.092507"},"context":"","outcome_status":{"category":"Status update unavailable","date":"2019-09"},"persistent_id":"","id":88718092,"location_subtype":"STATION","month":"2019-05"},{"category":"theft-from-the-person","location_type":"BTP","location":{"latitude":"51.375700","street":{"id":1488327,"name":"East Croydon (station)"},"longitude":"-0.092507"},"context":"","outcome_status":{"category":"Status update unavailable","date":"2019-09"},"persistent_id":"","id":88718090,"location_subtype":"STATION","month":"2019-05"},{"category":"vehicle-crime","location_type":"Force","location":{"latitude":"51.381999","street":{"id":928670,"name":"On or near Capri Road"},"longitude":"-0.076297"},"context":"","outcome_status":{"category":"Status update unavailable","date":"2019-09"},"persistent_id":"52bfbd9ec48d157147d8e81a6d28a27493e3f05079b58faaa49d2382d772ad82","id":74296982,"location_subtype":"","month":"2019-05"},{"category":"vehicle-crime","location_type":"Force","location":{"latitude":"51.373113","street":{"id":928688,"name":"On or near Paul Gardens"},"longitude":"-0.080061"},"context":"","outcome_status":{"category":"Status update unavailable","date":"2019-09"},"persistent_id":"0e0000eed573a3d6d3d1b8f8b948e1d0d603c7452ec379be8f7d4b7daa7dd7bf","id":74295877,"location_subtype":"","month":"2019-05"},{"category":"vehicle-crime","location_type":"Force","location":{"latitude":"51.387999","street":{"id":930859,"name":"On or near Coe Avenue"},"longitude":"-0.072036"},"context":"","outcome_status":{"category":"Status update unavailable","date":"2019-09"},"persistent_id":"2026f07065cdb8d384a2ce2394242a803a5bc7fc870a264346e787ffc9967c2b","id":74297376,"location_subtype":"","month":"2019-05"},{"category":"vehicle-crime","location_type":"Force","location":{"latitude":"51.381999","street":{"id":928670,"name":"On or near Capri Road"},"longitude":"-0.076297"},"context":"","outcome_status":{"category":"Status update unavailable","date":"2019-09"},"persistent_id":"02485db896bba89c78fc0790567e555d66d406f99db6662fea4bed76a9aff438","id":74335367,"location_subtype":"","month":"2019-05"},{"category":"vehicle-crime","location_type":"Force","location":{"latitude":"51.378368","street":{"id":928530,"name":"On or near Primrose Lane"},"longitude":"-0.055700"},"context":"","outcome_status":{"category":"Status update unavailable","date":"2019-09"},"persistent_id":"2259b1aa0a083169ab05355fb57fdc8c9d3ceb5bcaf1e16cbf646de713cbab9b","id":74291021,"location_subtype":"","month":"2019-05"},{"category":"vehicle-crime","location_type":"Force","location":{"latitude":"51.390730","street":{"id":930893,"name":"On or near Woodside Avenue"},"longitude":"-0.066948"},"context":"","outcome_status":{"category":"Status update unavailable","date":"2019-09"},"persistent_id":"174e9ef5864a5d62f34b7f99fe7e1915ad76fdcff7f12926996008733ff3bcbf","id":74333353,"location_subtype":"","month":"2019-05"},{"category":"vehicle-crime","location_type":"Force","location":{"latitude":"51.375207","street":{"id":928726,"name":"On or near Addiscombe Road"},"longitude":"-0.086022"},"context":"","outcome_status":{"category":"Status update unavailable","date":"2019-09"},"persistent_id":"bd3a3e2332b944e87119c5a8b29f8eff05889ff1d100166a08d635f4da9bd14b","id":74344228,"location_subtype":"","month":"2019-05"},{"category":"vehicle-crime","location_type":"Force","location":{"latitude":"51.387602","street":{"id":930853,"name":"On or near Goodhew Road"},"longitude":"-0.074682"},"context":"","outcome_status":{"category":"Status update unavailable","date":"2019-09"},"persistent_id":"b55748c8ab8ff27a102fc5c0d81f23d63ee5376f6d2ce2abdb67499ad39c963b","id":74344253,"location_subtype":"","month":"2019-05"},{"category":"vehicle-crime","location_type":"Force","location":{"latitude":"51.376660","street":{"id":928578,"name":"On or near Shirley Road"},"longitude":"-0.059522"},"context":"","outcome_status":{"category":"Status update unavailable","date":"2019-09"},"persistent_id":"050597083e0c8fb612bfef0f62c10276cb71444ee0c22d09ec3c5611b25a3abe","id":74344469,"location_subtype":"","month":"2019-05"},{"category":"vehicle-crime","location_type":"Force","location":{"latitude":"51.382563","street":{"id":928518,"name":"On or near Lower Addiscombe Road"},"longitude":"-0.067364"},"context":"","outcome_status":{"category":"Status update unavailable","date":"2019-09"},"persistent_id":"d7f549ac9e60ec441547d7c271c28fd4c3243d61452dd349d998176686ccd570","id":74319073,"location_subtype":"","month":"2019-05"},{"category":"vehicle-crime","location_type":"Force","location":{"latitude":"51.372293","street":{"id":928592,"name":"On or near Upfield"},"longitude":"-0.066273"},"context":"","outcome_status":{"category":"Status update unavailable","date":"2019-09"},"persistent_id":"fbf4c6a6d197954ca502626d498908db689b306fb2eed8661704656b8c064269","id":74352393,"location_subtype":"","month":"2019-05"},{"category":"vehicle-crime","location_type":"Force","location":{"latitude":"51.380486","street":{"id":928834,"name":"On or near Alpha Road"},"longitude":"-0.089323"},"context":"","outcome_status":{"category":"Status update unavailable","date":"2019-09"},"persistent_id":"50825fea1c7f4e21a1f8fc37d2dc1ec4e993db5a0bb15271c4cd75cebf99aa30","id":74293743,"location_subtype":"","month":"2019-05"},{"category":"vehicle-crime","location_type":"Force","location":{"latitude":"51.367844","street":{"id":927324,"name":"On or near Weaver Close"},"longitude":"-0.082292"},"context":"","outcome_status":{"category":"Status update unavailable","date":"2019-09"},