[{"category":"anti-social-behaviour","location_type":"Force","location":{"latitude":"51.504344","street":{"id":951858,"name":"On or near Manton Avenue"},"longitude":"-0.329202"},"context":"","outcome_status":null,"persistent_id":"","id":74270756,"location_subtype":"","month":"2019-05"},{"category":"anti-social-behaviour","location_type":"Force","location":{"latitude":"51.488295","street":{"id":950877,"name":"On or near Boston Manor Road"},"longitude":"-0.313642"},"context":"","outcome_status":null,"persistent_id":"","id":74283816,"location_subtype":"","month":"2019-05"},{"category":"anti-social-behaviour","location_type":"Force","location":{"latitude":"51.484193","street":{"id":950990,"name":"On or near Hazel Close"},"longitude":"-0.317898"},"context":"","outcome_status":null,"persistent_id":"","id":74283818,"location_subtype":"","month":"2019-05"},{"category":"anti-social-behaviour","location_type":"Force","location":{"latitude":"51.496002","street":{"id":951897,"name":"On or near Boston Manor Road"},"longitude":"-0.324940"},"context":"","outcome_status":null,"persistent_id":"","id":74283833,"location_subtype":"","month":"2019-05"},{"category":"anti-social-behaviour","location_type":"Force","location":{"latitude":"51.496002","street":{"id":951897,"name":"On or near Boston Manor Road"},"longitude":"-0.324940"},"context":"","outcome_status":null,"persistent_id":"","id":74283836,"location_subtype":"","month":"2019-05"},{"category":"anti-social-behaviour","location_type":"Force","location":{"latitude":"51.481774","street":{"id":944722,"name":"On or near Otterburn Gardens"},"longitude":"-0.328630"},"context":"","outcome_status":null,"persistent_id":"","id":74283858,"location_subtype":"","month":"2019-05"},{"category":"anti-social-behaviour","location_type":"Force","location":{"latitude":"51.484410","street":{"id":950998,"name":"On or near Syon Lane"},"longitude":"-0.331198"},"context":"","outcome_status":null,"persistent_id":"","id":74283868,"location_subtype":"","month":"2019-05"},{"category":"anti-social-behaviour","location_type":"Force","location":{"latitude":"51.509329","street":{"id":958106,"name":"On or near Tawny Close"},"longitude":"-0.320561"},"context":"","outcome_status":null,"persistent_id":"","id":74270662,"location_subtype":"","month":"2019-05"},{"category":"anti-social-behaviour","location_type":"Force","location":{"latitude":"51.509856","street":{"id":958100,"name":"On or near Parking Area"},"longitude":"-0.322242"},"context":"","outcome_status":null,"persistent_id":"","id":74270688,"location_subtype":"","month":"2019-05"},{"category":"anti-social-behaviour","location_type":"Force","location":{"latitude":"51.509856","street":{"id":958100,"name":"On or near Parking Area"},"longitude":"-0.322242"},"context":"","outcome_status":null,"persistent_id":"","id":74270694,"location_subtype":"","month":"2019-05"},{"category":"anti-social-behaviour","location_type":"Force","location":{"latitude":"51.509873","street":{"id":958111,"name":"On or near Leeland Road"},"longitude":"-0.323452"},"context":"","outcome_status":null,"persistent_id":"","id":74270705,"location_subtype":"","month":"2019-05"},{"category":"anti-social-behaviour","location_type":"Force","location":{"latitude":"51.501568","street":{"id":951847,"name":"On or near Boston Road"},"longitude":"-0.330024"},"context":"","outcome_status":null,"persistent_id":"","id":74270757,"location_subtype":"","month":"2019-05"},{"category":"anti-social-behaviour","location_type":"Force","location":{"latitude":"51.506588","street":{"id":951867,"name":"On or near Dean's Road"},"longitude":"-0.333342"},"context":"","outcome_status":null,"persistent_id":"","id":74270765,"location_subtype":"","month":"2019-05"},{"category":"anti-social-behaviour","location_type":"Force","location":{"latitude":"51.503135","street":{"id":951881,"name":"On or near Lambourn Close"},"longitude":"-0.335226"},"context":"","outcome_status":null,"persistent_id":"","id":74270781,"location_subtype":"","month":"2019-05"},{"category":"anti-social-behaviour","location_type":"Force","location":{"latitude":"51.505362","street":{"id":951740,"name":"On or near St Mark's Road"},"longitude":"-0.340058"},"context":"","outcome_status":null,"persistent_id":"","id":74271091,"location_subtype":"","month":"2019-05"},{"category":"anti-social-behaviour","location_type":"Force","location":{"latitude":"51.493724","street":{"id":950936,"name":"On or near Apple Garth"},"longitude":"-0.302277"},"context":"","outcome_status":null,"persistent_id":"","id":74283780,"location_subtype":"","month":"2019-05"},{"category":"anti-social-behaviour","location_type":"Force","location":{"latitude":"51.493138","street":{"id":950929,"name":"On or near Cherry Garth"},"longitude":"-0.303365"},"context":"","outcome_status":null,"persistent_id":"","id":74283803,"location_subtype":"","month":"2019-05"},{"category":"anti-social-behaviour","location_type":"Force","location":{"latitude":"51.489717","street":{"id":950916,"name":"On or near Layton Road"},"longitude":"-0.304356"},"context":"","outcome_status":null,"persistent_id":"","id":74283804,"location_subtype":"","month":"2019-05"},{"category":"anti-social-behaviour","location_type":"Force","location":{"latitude":"51.493976","street":{"id":950978,"name":"On or near Boston Gardens"},"longitude":"-0.322277"},"context":"","outcome_status":null,"persistent_id":"","id":74283820,"location_subtype":"","month":"2019-05"},{"category":"anti-social-behaviour","location_type":"Force","location":{"latitude":"51.483425","street":{"id":951000,"name":"On or near Petrol Station"},"longitude":"-0.328382"},"context":"","outcome_status":null,"persistent_id":"","id":74283857,"location_subtype":"","month":"2019-05"},{"category":"anti-social-behaviour","location_type":"Force","location":{"latitude":"51.509856","street":{"id":958100,"name":"On or near Parking Area"},"longitude":"-0.322242"},"context":"","outcome_status":null,"persistent_id":"","id":74270695,"location_subtype":"","month":"2019-05"},{"category":"anti-social-behaviour","location_type":"Force","location":{"latitude":"51.509856","street":{"id":958100,"name":"On or near Parking Area"},"longitude":"-0.322242"},"context":"","outcome_status":null,"persistent_id":"","id":74270696,"location_subtype":"","month":"2019-05"},{"category":"anti-social-behaviour","location_type":"Force","location":{"latitude":"51.509856","street":{"id":958100,"name":"On or near Parking Area"},"longitude":"-0.322242"},"context":"","outcome_status":null,"persistent_id":"","id":74270697,"location_subtype":"","month":"2019-05"},{"category":"anti-social-behaviour","location_type":"Force","location":{"latitude":"51.509856","street":{"id":958100,"name":"On or near Parking Area"},"longitude":"-0.322242"},"context":"","outcome_status":null,"persistent_id":"","id":74270698,"location_subtype":"","month":"2019-05"},{"category":"anti-social-behaviour","location_type":"Force","location":{"latitude":"51.509856","street":{"id":958100,"name":"On or near Parking Area"},"longitude":"-0.322242"},"context":"","outcome_status":null,"persistent_id":"","id":74270699,"location_subtype":"","month":"2019-05"},{"category":"anti-social-behaviour","location_type":"Force","location":{"latitude":"51.509856","street":{"id":958100,"name":"On or near Parking Area"},"longitude":"-0.322242"},"context":"","outcome_status":null,"persistent_id":"","id":74270700,"location_subtype":"","month":"2019-05"},{"category":"anti-social-behaviour","location_type":"Force","location":{"latitude":"51.509856","street":{"id":958100,"name":"On or near Parking Area"},"longitude":"-0.322242"},"context":"","outcome_status":null,"persistent_id":"","id":74270701,"location_subtype":"","month":"2019-05"},{"category":"anti-social-behaviour","location_type":"Force","location":{"latitude":"51.509856","street":{"id":958100,"name":"On or near Parking Area"},"longitude":"-0.322242"},"context":"","outcome_status":null,"persistent_id":"","id":74270702,"location_subtype":"","month":"2019-05"},{"category":"anti-social-behaviour","location_type":"Force","location":{"latitude":"51.506776","street":{"id":951802,"name":"On or near Sydney Road"},"longitude":"-0.323147"},"context":"","outcome_status":null,"persistent_id":"","id":74270703,"location_subtype":"","month":"2019-05"},{"category":"anti-social-behaviour","location_type":"Force","location":{"latitude":"51.506776","street":{"id":951802,"name":"On or near Sydney Road"},"longitude":"-0.323147"},"context":"","outcome_status":null,"persistent_id":"","id":74270704,"location_subtype":"","month":"2019-05"},{"category":"anti-social-behaviour","location_type":"Force","location":{"latitude":"51.506536","street":{"id":951837,"name":"On or near Adelaide Road"},"longitude":"-0.324021"},"context":"","outcome_status":null,"persistent_id":"","id":74270708,"location_subtype":"","month":"2019-05"},{"category":"anti-social-behaviour","location_type":"Force","location":{"latitude":"51.510138","street":{"id":958116,"name":"On or near Broadway"},"longitude":"-0.324335"},"context":"","outcome_status":null,"persistent_id":"","id":74270721,"location_subtype":"","month":"2019-05"},{"category":"anti-social-behaviour","location_type":"Force","location":{"latitude":"51.508131","street":{"id":951807,"name":"On or near Regina Road"},"longitude":"-0.324236"},"context":"","outcome_status":null,"persistent_id":"","id":74270722,"location_subtype":"","month":"2019-05"},{"category":"anti-social-behaviour","location_type":"Force","location":{"latitude":"51.508131","street":{"id":951807,"name":"On or near Regina Road"},"longitude":"-0.324236"},"context":"","outcome_status":null,"persistent_id":"","id":74270723,"location_subtype":"","month":"2019-05"},{"category":"anti-social-behaviour","location_type":"Force","location":{"latitude":"51.509244","street":{"id":958110,"name":"On or near Leeland Terrace"},"longitude":"-0.324094"},"context":"","outcome_status":null,"persistent_id":"","id":74270724,"location_subtype":"","month":"2019-05"},{"category":"anti-social-behaviour","location_type":"Force","location":{"latitude":"51.509244","street":{"id":958110,"name":"On or near Leeland Terrace"},"longitude":"-0.324094"},"context":"","outcome_status":null,"persistent_id":"","id":74270725,"location_subtype":"","month":"2019-05"},{"category":"anti-social-behaviour","location_type":"Force","location":{"latitude":"51.508131","street":{"id":951807,"name":"On or near Regina Road"},"longitude":"-0.324236"},"context":"","outcome_status":null,"persistent_id":"","id":74270726,"location_subtype":"","month":"2019-05"},{"category":"anti-social-behaviour","location_type":"Force","location":{"latitude":"51.508131","street":{"id":951807,"name":"On or near Regina Road"},"longitude":"-0.324236"},"context":"","outcome_status":null,"persistent_id":"","id":74270727,"location_subtype":"","month":"2019-05"},{"category":"anti-social-behaviour","location_type":"Force","location":{"latitude":"51.508131","street":{"id":951807,"name":"On or near Regina Road"},"longitude":"-0.324236"},"context":"","outcome_status":null,"persistent_id":"","id":74270728,"location_subtype":"","month":"2019-05"},{"category":"anti-social-behaviour","location_type":"Force","location":{"latitude":"51.495733","street":{"id":951890,"name":"On or near Boston Vale"},"longitude":"-0.326290"},"context":"","outcome_status":null,"persistent_id":"","id":74270734,"location_subtype":"","month":"2019-05"},{"category":"anti-social-behaviour","location_type":"Force","location":{"latitude":"51.496267","street":{"id":951888,"name":"On or near Wellmeadow Road"},"longitude":"-0.326515"},"context":"","outcome_status":null,"persistent_id":"","id":74270738,"location_subtype":"","month":"2019-05"},{"category":"anti-social-behaviour","location_type":"Force","location":{"latitude":"51.508279","street":{"id":951862,"name":"On or near Grosvenor Road"},"longitude":"-0.328323"},"context":"","outcome_status":null,"persistent_id":"","id":74270747,"location_subtype":"","month":"2019-05"},{"category":"anti-social-behaviour","location_type":"Force","location":{"latitude":"51.503677","street":{"id":951865,"name":"On or near Elthorne Avenue"},"longitude":"-0.329097"},"context":"","outcome_status":null,"persistent_id":"","id":74270752,"location_subtype":"","month":"2019-05"},{"category":"anti-social-behaviour","location_type":"Force","location":{"latitude":"51.503677","street":{"id":951865,"name":"On or near Elthorne Avenue"},"longitude":"-0.329097"},"context":"","outcome_status":null,"persistent_id":"","id":74270753,"location_subtype":"","month":"2019-05"},{"category":"anti-social-behaviour","location_type":"Force","location":{"latitude":"51.487300","street":{"id":950860,"name":"On or near Sidney Gardens"},"longitude":"-0.308882"},"context":"","outcome_status":null,"persistent_id":"","id":74283812,"location_subtype":"","month":"2019-05"},{"category":"anti-social-behaviour","location_type":"Force","location":{"latitude":"51.506292","street":{"id":951878,"name":"On or near Montague Road"},"longitude":"-0.334030"},"context":"","outcome_status":null,"persistent_id":"","id":74270772,"location_subtype":"","month":"2019-05"},{"category":"anti-social-behaviour","location_type":"Force","location":{"latitude":"51.502776","street":{"id":951873,"name":"On or near Townholm Crescent"},"longitude":"-0.333971"},"context":"","outcome_status":null,"persistent_id":"","id":74270776,"location_subtype":"","month":"2019-05"},{"category":"anti-social-behaviour","location_type":"Force","location":{"latitude":"51.503135","street":{"id":951881,"name":"On or near Lambourn Close"},"longitude":"-0.335226"},"context":"","outcome_status":null,"persistent_id":"","id":74270779,"location_subtype":"","month":"2019-05"},{"category":"anti-social-behaviour","location_type":"Force","location":{"latitude":"51.503135","street":{"id":951881,"name":"On or near Lambourn Close"},"longitude":"-0.335226"},"context":"","outcome_status":null,"persistent_id":"","id":74270780,"location_subtype":"","month":"2019-05"},{"category":"anti-social-behaviour","location_type":"Force","location":{"latitude":"51.504599","street":{"id":951744,"name":"On or near Rosebank Road"},"longitude":"-0.338256"},"context":"","outcome_status":null,"persistent_id":"","id":74271088,"location_subtype":"","month":"2019-05"},{"category":"anti-social-behaviour","location_type":"Force","location":{"latitude":"51.505362","street":{"id":951740,"name":"On or near St Mark's Road"},"longitude":"-0.340058"},"context":"","outcome_status":null,"persistent_id":"","id":74271092,"location_subtype":"","month":"2019-05"},{"category":"anti-social-behaviour","location_type":"Force","location":{"latitude":"51.500178","street":{"id":951733,"name":"On or near Sports\/recreation Area"},"longitude":"-0.342912"},"context":"","outcome_status":null,"persistent_id":"","id":74271137,"location_subtype":"","month":"2019-05"},{"category":"anti-social-behaviour","location_type":"Force","location":{"latitude":"51.509856","street":{"id":958100,"name":"On or near Parking Area"},"longitude":"-0.322242"},"context":"","outcome_status":null,"persistent_id":"","id":74270678,"location_subtype":"","month":"2019-05"},{"category":"anti-social-behaviour","location_type":"Force","location":{"latitude":"51.503659","street":{"id":951988,"name":"On or near St Aidan's Road"},"longitude":"-0.315870"},"context":"","outcome_status":null,"persistent_id":"","id":74270623,"location_subtype":"","month":"2019-05"},{"category":"anti-social-behaviour","location_type":"Force","location":{"latitude":"51.485027","street":{"id":950997,"name":"On or near Syon Lane"},"longitude":"-0.332904"},"context":"","outcome_status":null,"persistent_id":"","id":74283871,"location_subtype":"","month":"2019-05"},{"category":"anti-social-behaviour","location_type":"Force","location":{"latitude":"51.495716","street":{"id":952036,"name":"On or near Occupation Lane"},"longitude":"-0.303802"},"context":"","outcome_status":null,"persistent_id":"","id":74283791,"location_subtype":"","month":"2019-05"},{"category":"anti-social-behaviour","location_type":"Force","location":{"latitude":"51.495716","street":{"id":952036,"name":"On or near Occupation Lane"},"longitude":"-0.303802"},"context":"","outcome_status":null,"persistent_id":"","id":74283792,"location_subtype":"","month":"2019-05"},{"category":"anti-social-behaviour","location_type":"Force","location":{"latitude":"51.495716","street":{"id":952036,"name":"On or near Occupation Lane"},"longitude":"-0.303802"},"context":"","outcome_status":null,"persistent_id":"","id":74283793,"location_subtype":"","month":"2019-05"},{"category":"anti-social-behaviour","location_type":"Force","location":{"latitude":"51.495716","street":{"id":952036,"name":"On or near Occupation Lane"},"longitude":"-0.303802"},"context":"","outcome_status":null,"persistent_id":"","id":74283794,"location_subtype":"","month":"2019-05"},{"category":"anti-social-behaviour","location_type":"Force","location":{"latitude":"51.493976","street":{"id":950978,"name":"On or near Boston Gardens"},"longitude":"-0.322277"},"context":"","outcome_status":null,"persistent_id":"","id":74283825,"location_subtype":"","month":"2019-05"},{"category":"anti-social-behaviour","location_type":"Force","location":{"latitude":"51.489717","street":{"id":950916,"name":"On or near Layton Road"},"longitude":"-0.304356"},"context":"","outcome_status":null,"persistent_id":"","id":74283797,"location_subtype":"","month":"2019-05"},{"category":"anti-social-behaviour","location_type":"Force","location":{"latitude":"51.493138","street":{"id":950929,"name":"On or near Cherry Garth"},"longitude":"-0.303365"},"context":"","outcome_status":null,"persistent_id":"","id":74283798,"location_subtype":"","month":"2019-05"},{"category":"anti-social-behaviour","location_type":"Force","location":{"latitude":"51.493138","street":{"id":950929,"name":"On or near Cherry Garth"},"longitude":"-0.303365"},"context":"","outcome_status":null,"persistent_id":"","id":74283799,"location_subtype":"","month":"2019-05"},{"category":"anti-social-behaviour","location_type":"Force","location":{"latitude":"51.493138","street":{"id":950929,"name":"On or near Cherry Garth"},"longitude":"-0.303365"},"context":"","outcome_status":null,"persistent_id":"","id":74283800,"location_subtype":"","month":"2019-05"},{"category":"anti-social-behaviour","location_type":"Force","location":{"latitude":"51.493138","street":{"id":950929,"name":"On or near Cherry Garth"},"longitude":"-0.303365"},"context":"","outcome_status":null,"persistent_id":"","id":74283801,"location_subtype":"","month":"2019-05"},{"category":"anti-social-behaviour","location_type":"Force","location":{"latitude":"51.493138","street":{"id":950929,"name":"On or near Cherry Garth"},"longitude":"-0.303365"},"context":"","outcome_status":null,"persistent_id":"","id":74283802,"location_subtype":"","month":"2019-05"},{"category":"anti-social-behaviour","location_type":"Force","location":{"latitude":"51.489717","street":{"id":950916,"name":"On or near Layton Road"},"longitude":"-0.304356"},"context":"","outcome_status":null,"persistent_id":"","id":74283805,"location_subtype":"","month":"2019-05"},{"category":"anti-social-behaviour","location_type":"Force","location":{"latitude":"51.489717","street":{"id":950916,"name":"On or near Layton Road"},"longitude":"-0.304356"},"context":"","outcome_status":null,"persistent_id":"","id":74283806,"location_subtype":"","month":"2019-05"},{"category":"anti-social-behaviour","location_type":"Force","location":{"latitude":"51.489717","street":{"id":950916,"name":"On or near Layton Road"},"longitude":"-0.304356"},"context":"","outcome_status":null,"persistent_id":"","id":74283807,"location_subtype":"","month":"2019-05"},{"category":"anti-social-behaviour","location_type":"Force","location":{"latitude":"51.490992","street":{"id":950895,"name":"On or near M4"},"longitude":"-0.306081"},"context":"","outcome_status":null,"persistent_id":"","id":74283808,"location_subtype":"","month":"2019-05"},{"category":"anti-social-behaviour","location_type":"Force","location":{"latitude":"51.493649","street":{"id":950864,"name":"On or near Junction Road"},"longitude":"-0.307668"},"context":"","outcome_status":null,"persistent_id":"","id":74283809,"location_subtype":"","month":"2019-05"},{"category":"anti-social-behaviour","location_type":"Force","location":{"latitude":"51.493649","street":{"id":950864,"name":"On or near Junction Road"},"longitude":"-0.307668"},"context":"","outcome_status":null,"persistent_id":"","id":74283810,"location_subtype":"","month":"2019-05"},{"category":"anti-social-behaviour","location_type":"Force","location":{"latitude":"51.507313","street":{"id":951885,"name":"On or near Boston Road"},"longitude":"-0.337537"},"context":"","outcome_status":null,"persistent_id":"","id":74271084,"location_subtype":"","month":"2019-05"},{"category":"anti-social-behaviour","location_type":"Force","location":{"latitude":"51.500276","street":{"id":951902,"name":"On or near Sycamore Avenue"},"longitude":"-0.303849"},"context":"","outcome_status":null,"persistent_id":"","id":74270418,"location_subtype":"","month":"2019-05"},{"category":"anti-social-behaviour","location_type":"Force","location":{"latitude":"51.500193","street":{"id":951907,"name":"On or near Olive Road"},"longitude":"-0.304371"},"context":"","outcome_status":null,"persistent_id":"","id":74270420,"location_subtype":"","month":"2019-05"},{"category":"anti-social-behaviour","location_type":"Force","location":{"latitude":"51.500193","street":{"id":951907,"name":"On or near Olive Road"},"longitude":"-0.304371"},"context":"","outcome_status":null,"persistent_id":"","id":74270421,"location_subtype":"","month":"2019-05"},{"category":"anti-social-behaviour","location_type":"Force","location":{"latitude":"51.500193","street":{"id":951907,"name":"On or near Olive Road"},"longitude":"-0.304371"},"context":"","outcome_status":null,"persistent_id":"","id":74270422,"location_subtype":"","month":"2019-05"},{"category":"anti-social-behaviour","location_type":"Force","location":{"latitude":"51.500011","street":{"id":951971,"name":"On or near Supermarket"},"longitude":"-0.306078"},"context":"","outcome_status":null,"persistent_id":"","id":74270431,"location_subtype":"","month":"2019-05"},{"category":"anti-social-behaviour","location_type":"Force","location":{"latitude":"51.494833","street":{"id":952031,"name":"On or near Darwin Road"},"longitude":"-0.305549"},"context":"","outcome_status":null,"persistent_id":"","id":74270432,"location_subtype":"","month":"2019-05"},{"category":"anti-social-behaviour","location_type":"Force","location":{"latitude":"51.503890","street":{"id":951989,"name":"On or near South Ealing Road"},"longitude":"-0.306943"},"context":"","outcome_status":null,"persistent_id":"","id":74270437,"location_subtype":"","month":"2019-05"},{"category":"anti-social-behaviour","location_type":"Force","location":{"latitude":"51.503890","street":{"id":951989,"name":"On or near South Ealing Road"},"longitude":"-0.306943"},"context":"","outcome_status":null,"persistent_id":"","id":74270438,"location_subtype":"","month":"2019-05"},{"category":"anti-social-behaviour","location_type":"Force","location":{"latitude":"51.503890","street":{"id":951989,"name":"On or near South Ealing Road"},"longitude":"-0.306943"},"context":"","outcome_status":null,"persistent_id":"","id":74270439,"location_subtype":"","month":"2019-05"},{"category":"anti-social-behaviour","location_type":"Force","location":{"latitude":"51.502869","street":{"id":951994,"name":"On or near Lothair Road"},"longitude":"-0.307831"},"context":"","outcome_status":null,"persistent_id":"","id":74270440,"location_subtype":"","month":"2019-05"},{"category":"anti-social-behaviour","location_type":"Force","location":{"latitude":"51.495057","street":{"id":952020,"name":"On or near Junction Road"},"longitude":"-0.308610"},"context":"","outcome_status":null,"persistent_id":"","id":74270442,"location_subtype":"","month":"2019-05"},{"category":"anti-social-behaviour","location_type":"Force","location":{"latitude":"51.493688","street":{"id":950870,"name":"On or near Darwin Road"},"longitude":"-0.309092"},"context":"","outcome_status":null,"persistent_id":"","id":74270444,"location_subtype":"","month":"2019-05"},{"category":"anti-social-behaviour","location_type":"Force","location":{"latitude":"51.493688","street":{"id":950870,"name":"On or near Darwin Road"},"longitude":"-0.309092"},"context":"","outcome_status":null,"persistent_id":"","id":74270445,"location_subtype":"","month":"2019-05"},{"category":"anti-social-behaviour","location_type":"Force","location":{"latitude":"51.493688","street":{"id":950870,"name":"On or near Darwin Road"},"longitude":"-0.309092"},"context":"","outcome_status":null,"persistent_id":"","id":74270446,"location_subtype":"","month":"2019-05"},{"category":"anti-social-behaviour","location_type":"Force","location":{"latitude":"51.496831","street":{"id":952015,"name":"On or near Radbourne Avenue"},"longitude":"-0.310013"},"context":"","outcome_status":null,"persistent_id":"","id":74270451,"location_subtype":"","month":"2019-05"},{"category":"anti-social-behaviour","location_type":"Force","location":{"latitude":"51.496831","street":{"id":952015,"name":"On or near Radbourne Avenue"},"longitude":"-0.310013"},"context":"","outcome_status":null,"persistent_id":"","id":74270452,"location_subtype":"","month":"2019-05"},{"category":"anti-social-behaviour","location_type":"Force","location":{"latitude":"51.500510","street":{"id":951948,"name":"On or near Overdale Road"},"longitude":"-0.312615"},"context":"","outcome_status":null,"persistent_id":"","id":74270461,"location_subtype":"","month":"2019-05"},{"category":"anti-social-behaviour","location_type":"Force","location":{"latitude":"51.507025","street":{"id":951983,"name":"On or near Waldemar Avenue"},"longitude":"-0.312907"},"context":"","outcome_status":null,"persistent_id":"","id":74270462,"location_subtype":"","month":"2019-05"},{"category":"anti-social-behaviour","location_type":"Force","location":{"latitude":"51.495694","street":{"id":952023,"name":"On or near Gumleigh Road"},"longitude":"-0.314118"},"context":"","outcome_status":null,"persistent_id":"","id":74270464,"location_subtype":"","month":"2019-05"},{"category":"anti-social-behaviour","location_type":"Force","location":{"latitude":"51.500512","street":{"id":951959,"name":"On or near Cranmer Avenue"},"longitude":"-0.316490"},"context":"","outcome_status":null,"persistent_id":"","id":74270625,"location_subtype":"","month":"2019-05"},{"category":"anti-social-behaviour","location_type":"Force","location":{"latitude":"51.501704","street":{"id":951796,"name":"On or near Altenburg Avenue"},"longitude":"-0.317484"},"context":"","outcome_status":null,"persistent_id":"","id":74270627,"location_subtype":"","month":"2019-05"},{"category":"anti-social-behaviour","location_type":"Force","location":{"latitude":"51.501704","street":{"id":951796,"name":"On or near Altenburg Avenue"},"longitude":"-0.317484"},"context":"","outcome_status":null,"persistent_id":"","id":74270628,"location_subtype":"","month":"2019-05"},{"category":"anti-social-behaviour","location_type":"Force","location":{"latitude":"51.505409","street":{"id":951826,"name":"On or near Dudley Gardens"},"longitude":"-0.316843"},"context":"","outcome_status":null,"persistent_id":"","id":74270639,"location_subtype":"","month":"2019-05"},{"category":"anti-social-behaviour","location_type":"Force","location":{"latitude":"51.496458","street":{"id":951900,"name":"On or near Sports\/recreation Area"},"longitude":"-0.317274"},"context":"","outcome_status":null,"persistent_id":"","id":74270641,"location_subtype":"","month":"2019-05"},{"category":"anti-social-behaviour","location_type":"Force","location":{"latitude":"51.496458","street":{"id":951900,"name":"On or near Sports\/recreation Area"},"longitude":"-0.317274"},"context":"","outcome_status":null,"persistent_id":"","id":74270642,"location_subtype":"","month":"2019-05"},{"category":"anti-social-behaviour","location_type":"Force","location":{"latitude":"51.505387","street":{"id":951825,"name":"On or near Glenfield Road"},"longitude":"-0.318443"},"context":"","outcome_status":null,"persistent_id":"","id":74270655,"location_subtype":"","month":"2019-05"},{"category":"anti-social-behaviour","location_type":"Force","location":{"latitude":"51.509329","street":{"id":958106,"name":"On or near Tawny Close"},"longitude":"-0.320561"},"context":"","outcome_status":null,"persistent_id":"","id":74270657,"location_subtype":"","month":"2019-05"},{"category":"anti-social-behaviour","location_type":"Force","location":{"latitude":"51.508547","street":{"id":958108,"name":"On or near Regina Terrace"},"longitude":"-0.322477"},"context":"","outcome_status":null,"persistent_id":"","id":74270667,"location_subtype":"","month":"2019-05"},{"category":"anti-social-behaviour","location_type":"Force","location":{"latitude":"51.503887","street":{"id":951827,"name":"On or near Clementine Close"},"longitude":"-0.322389"},"context":"","outcome_status":null,"persistent_id":"","id":74270670,"location_subtype":"","month":"2019-05"},{"category":"anti-social-behaviour","location_type":"Force","location":{"latitude":"51.507531","street":{"id":951800,"name":"On or near Westfield Road"},"longitude":"-0.322543"},"context":"","outcome_status":null,"persistent_id":"","id":74270671,"location_subtype":"","month":"2019-05"},{"category":"anti-social-behaviour","location_type":"Force","location":{"latitude":"51.508547","street":{"id":958108,"name":"On or near Regina Terrace"},"longitude":"-0.322477"},"context":"","outcome_status":null,"persistent_id":"","id":74270672,"location_subtype":"","month":"2019-05"},{"category":"anti-social-behaviour","location_type":"Force","location":{"latitude":"51.508547","street":{"id":958108,"name":"On or near Regina Terrace"},"longitude":"-0.322477"},"context":"","outcome_status":null,"persistent_id":"","id":74270673,"location_subtype":"","month":"2019-05"},{"category":"anti-social-behaviour","location_type":"Force","location":{"latitude":"51.509856","street":{"id":958100,"name":"On or near Parking Area"},"longitude":"-0.322242"},"context":"","outcome_status":null,"persistent_id":"","id":74270675,"location_subtype":"","month":"2019-05"},{"category":"anti-social-behaviour","location_type":"Force","location":{"latitude":"51.509856","street":{"id":958100,"name":"On or near Parking Area"},"longitude":"-0.322242"},"context":"","outcome_status":null,"persistent_id":"","id":74270676,"location_subtype":"","month":"2019-05"},{"category":"anti-social-behaviour","location_type":"Force","location":{"latitude":"51.509856","street":{"id":958100,"name":"On or near Parking Area"},"longitude":"-0.322242"},"context":"","outcome_status":null,"persistent_id":"","id":74270677,"location_subtype":"","month":"2019-05"},{"category":"anti-social-behaviour","location_type":"Force","location":{"latitude":"51.509856","street":{"id":958100,"name":"On or near Parking Area"},"longitude":"-0.322242"},"context":"","outcome_status":null,"persistent_id":"","id":74270679,"location_subtype":"","month":"2019-05"},{"category":"anti-social-behaviour","location_type":"Force","location":{"latitude":"51.509856","street":{"id":958100,"name":"On or near Parking Area"},"longitude":"-0.322242"},"context":"","outcome_status":null,"persistent_id":"","id":74270680,"location_subtype":"","month":"2019-05"},{"category":"anti-social-behaviour","location_type":"Force","location":{"latitude":"51.509856","street":{"id":958100,"name":"On or near Parking Area"},"longitude":"-0.322242"},"context":"","outcome_status":null,"persistent_id":"","id":74270681,"location_subtype":"","month":"2019-05"},{"category":"anti-social-behaviour","location_type":"Force","location":{"latitude":"51.509856","street":{"id":958100,"name":"On or near Parking Area"},"longitude":"-0.322242"},"context":"","outcome_status":null,"persistent_id":"","id":74270682,"location_subtype":"","month":"2019-05"},{"category":"anti-social-behaviour","location_type":"Force","location":{"latitude":"51.509856","street":{"id":958100,"name":"On or near Parking Area"},"longitude":"-0.322242"},"context":"","outcome_status":null,"persistent_id":"","id":74270683,"location_subtype":"","month":"2019-05"},{"category":"anti-social-behaviour","location_type":"Force","location":{"latitude":"51.509856","street":{"id":958100,"name":"On or near Parking Area"},"longitude":"-0.322242"},"context":"","outcome_status":null,"persistent_id":"","id":74270684,"location_subtype":"","month":"2019-05"},{"category":"anti-social-behaviour","location_type":"Force","location":{"latitude":"51.509856","street":{"id":958100,"name":"On or near Parking Area"},"longitude":"-0.322242"},"context":"","outcome_status":null,"persistent_id":"","id":74270685,"location_subtype":"","month":"2019-05"},{"category":"anti-social-behaviour","location_type":"Force","location":{"latitude":"51.509856","street":{"id":958100,"name":"On or near Parking Area"},"longitude":"-0.322242"},"context":"","outcome_status":null,"persistent_id":"","id":74270686,"location_subtype":"","month":"2019-05"},{"category":"anti-social-behaviour","location_type":"Force","location":{"latitude":"51.509856","street":{"id":958100,"name":"On or near Parking Area"},"longitude":"-0.322242"},"context":"","outcome_status":null,"persistent_id":"","id":74270687,"location_subtype":"","month":"2019-05"},{"category":"anti-social-behaviour","location_type":"Force","location":{"latitude":"51.509856","street":{"id":958100,"name":"On or near Parking Area"},"longitude":"-0.322242"},"context":"","outcome_status":null,"persistent_id":"","id":74270689,"location_subtype":"","month":"2019-05"},{"category":"anti-social-behaviour","location_type":"Force","location":{"latitude":"51.509856","street":{"id":958100,"name":"On or near Parking Area"},"longitude":"-0.322242"},"context":"","outcome_status":null,"persistent_id":"","id":74270690,"location_subtype":"","month":"2019-05"},{"category":"anti-social-behaviour","location_type":"Force","location":{"latitude":"51.509856","street":{"id":958100,"name":"On or near Parking Area"},"longitude":"-0.322242"},"context":"","outcome_status":null,"persistent_id":"","id":74270691,"location_subtype":"","month":"2019-05"},{"category":"anti-social-behaviour","location_type":"Force","location":{"latitude":"51.509856","street":{"id":958100,"name":"On or near Parking Area"},"longitude":"-0.322242"},"context":"","outcome_status":null,"persistent_id":"","id":74270692,"location_subtype":"","month":"2019-05"},{"category":"anti-social-behaviour","location_type":"Force","location":{"latitude":"51.509856","street":{"id":958100,"name":"On or near Parking Area"},"longitude":"-0.322242"},"context":"","outcome_status":null,"persistent_id":"","id":74270693,"location_subtype":"","month":"2019-05"},{"category":"bicycle-theft","location_type":"Force","location":{"latitude":"51.481774","street":{"id":944722,"name":"On or near Otterburn Gardens"},"longitude":"-0.328630"},"context":"","outcome_status":{"category":"Status update unavailable","date":"2019-09"},"persistent_id":"e83027ce9b4930c112851a86a39af5bfb865851d4e38293b61cb9622051cae2d","id":74294048,"location_subtype":"","month":"2019-05"},{"category":"bicycle-theft","location_type":"Force","location":{"latitude":"51.509873","street":{"id":958111,"name":"On or near Leeland Road"},"longitude":"-0.323452"},"context":"","outcome_status":{"category":"Status update unavailable","date":"2019-09"},"persistent_id":"b17272ae5a4f05a6b819bc1b02a75b78fe3d88276be36e1a5d8539dd3ddbfc1f","id":74310218,"location_subtype":"","month":"2019-05"},{"category":"bicycle-theft","location_type":"Force","location":{"latitude":"51.497466","street":{"id":952034,"name":"On or near South Road"},"longitude":"-0.304198"},"context":"","outcome_status":{"category":"Status update unavailable","date":"2019-09"},"persistent_id":"58cbcc53ab9302065abfc1d5ee728cf5121a2c9bdfb41a7f02fdf8b1a43cb9e7","id":74370282,"location_subtype":"","month":"2019-05"},{"category":"bicycle-theft","location_type":"Force","location":{"latitude":"51.503626","street":{"id":951838,"name":"On or near Supermarket"},"longitude":"-0.317298"},"context":"","outcome_status":{"category":"Status update unavailable","date":"2019-09"},"persistent_id":"3e918bd10290f037620db35e51c8238774523bf908864f6359503083fa872389","id":74370868,"location_subtype":"","month":"2019-05"},{"category":"bicycle-theft","location_type":"Force","location":{"latitude":"51.483425","street":{"id":951000,"name":"On or near Petrol Station"},"longitude":"-0.328382"},"context":"","outcome_status":{"category":"Status update unavailable","date":"2019-09"},"persistent_id":"a4ad19814f9abd032c64e6b9c9d97195b815b99e9fb54c19fedfdeb39413533d","id":74354062,"location_subtype":"","month":"2019-05"},{"category":"bicycle-theft","location_type":"Force","location":{"latitude":"51.493122","street":{"id":950856,"name":"On or near Whitestile Road"},"longitude":"-0.308523"},"context":"","outcome_status":{"category":"Status update unavailable","date":"2019-09"},"persistent_id":"787d9a592783d5fa4738b10012d11d6dbc2a05e845a5ae4e74751f93bc7e5539","id":74300055,"location_subtype":"","month":"2019-05"},{"category":"bicycle-theft","location_type":"Force","location":{"latitude":"51.500193","street":{"id":951907,"name":"On or near Olive Road"},"longitude":"-0.304371"},"context":"","outcome_status":{"category":"Status update unavailable","date":"2019-09"},"persistent_id":"722c12b7491e40d7b8c926b3ccc6cac8f60bf9ace1123881d707f2879ce0918d","id":74330658,"location_subtype":"","month":"2019-05"},{"category":"burglary","location_type":"Force","location":{"latitude":"51.506536","street":{"id":951837,"name":"On or near Adelaide Road"},"longitude":"-0.324021"},"context":"","outcome_status":{"category":"Status update unavailable","date":"2019-09"},"persistent_id":"078f0af694c77ca21ee1ae6d7ceefec97cf76278dbebb9a28c59c72de4bb1577","id":74340374,"location_subtype":"","month":"2019-05"},{"category":"burglary","location_type":"Force","location":{"latitude":"51.508009","street":{"id":951882,"name":"On or near Jessamine Road"},"longitude":"-0.337123"},"context":"","outcome_status":{"category":"Status update unavailable","date":"2019-09"},"persistent_id":"420e8a6e44081bf7d8d0a440c28ed409187a80dbaec4fad6f71a2e11db043a10","id":74344197,"location_subtype":"","month":"2019-05"},{"category":"burglary","location_type":"Force","location":{"latitude":"51.497277","street":{"id":952026,"name":"On or near Chandos Avenue"},"longitude":"-0.307908"},"context":"","outcome_status":{"category":"Status update unavailable","date":"2019-09"},"persistent_id":"0d72068118cde32da90ece45c5c0894ab07dc712befed9457e3105f437b567c7","id":74298871,"location_subtype":"","month":"2019-05"},{"category":"burglary","location_type":"Force","location":{"latitude":"51.487300","street":{"id":950860,"name":"On or near Sidney Gardens"},"longitude":"-0.308882"},"context":"","outcome_status":{"category":"Status update unavailable","date":"2019-09"},"persistent_id":"3f4882f79c3ffae36b24eb7b224f86214540fa77bc47cb8ae3ff4d32779d0695","id":74359028,"location_subtype":"","month":"2019-05"},{"category":"burglary","location_type":"Force","location":{"latitude":"51.491822","street":{"id":950881,"name":"On or near Avenue Road"},"longitude":"-0.309435"},"context":"","outcome_status":{"category":"Status update unavailable","date":"2019-09"},"persistent_id":"de706de91aefaa286ed18605e34d3c3797168af7ff01a9520bf9b3beb9c285a8","id":74294580,"location_subtype":"","month":"2019-05"},{"category":"burglary","location_type":"Force","location":{"latitude":"51.484410","street":{"id":950998,"name":"On or near Syon Lane"},"longitude":"-0.331198"},"context":"","outcome_status":{"category":"Status update unavailable","date":"2019-09"},"persistent_id":"bbf6c3b1ad0c77f11c742d11cfb49cdb7e020e341cbbc0fae25629d231228ea1","id":74345214,"location_subtype":"","month":"2019-05"},{"category":"burglary","location_type":"Force","location":{"latitude":"51.507354","street":{"id":951817,"name":"On or near Loveday Road"},"longitude":"-0.317708"},"context":"","outcome_status":{"category":"Status update unavailable","date":"2019-09"},"persistent_id":"64508a3f28998584fdc621a78d7823e9e4bb8eacb43a8557e770bbf3b1d59244","id":74305906,"location_subtype":"","month":"2019-05"},{"category":"burglary","location_type":"Force","location":{"latitude":"51.487111","street":{"id":950858,"name":"On or near The Dell"},"longitude":"-0.310070"},"context":"","outcome_status":{"category":"Status update unavailable","date":"2019-09"},"persistent_id":"9cd5368dbee275557b3489ec8bdabccb3bfd31a784caf8a43d297313c2ef0c31","id":74356867,"location_subtype":"","month":"2019-05"},{"category":"burglary","location_type":"Force","location":{"latitude":"51.482309","street":{"id":950957,"name":"On or near Mulberry Crescent"},"longitude":"-0.316340"},"context":"","outcome_status":{"category":"Status update unavailable","date":"2019-09"},"persistent_id":"8eca27eb5c423a7e4d8416f3da1ec1e452b0e89c1ee62d471a5eb3f018cbb93b","id":74340378,"location_subtype":"","month":"2019-05"},{"category":"burglary","location_type":"Force","location":{"latitude":"51.495194","street":{"id":952030,"name":"On or near South Ealing Road"},"longitude":"-0.305623"},"context":"","outcome_status":{"category":"Status update unavailable","date":"2019-09"},"persistent_id":"6e919da3cc94a4daaa75906ddf11ca462ab0427759c2874452670207ada30bca","id":74330491,"location_subtype":"","month":"2019-05"},{"category":"burglary","location_type":"Force","location":{"latitude":"51.483079","street":{"id":950987,"name":"On or near Syon Gate Way"},"longitude":"-0.323657"},"context":"","outcome_status":{"category":"Status update unavailable","date":"2019-09"},"persistent_id":"ab045592da072b6787f1c872f38382f3c3ea468393161e2fc055e87916a71c64","id":74327570,"location_subtype":"","month":"2019-05"},{"category":"burglary","location_type":"Force","location":{"latitude":"51.506441","street":{"id":951828,"name":"On or near Chesham Terrace"},"longitude":"-0.321114"},"context":"","outcome_status":{"category":"Status update unavailable","date":"2019-09"},"persistent_id":"455fc6711a8c12c5c6eef95faba7d60bf98658da1bac600d3255eb33d4f52113","id":74326724,"location_subtype":"","month":"2019-05"},{"category":"burglary","location_type":"Force","location":{"latitude":"51.501406","street":{"id":951839,"name":"On or near Trumpers Way"},"longitude":"-0.336946"},"context":"","outcome_status":{"category":"Status update unavailable","date":"2019-09"},"persistent_id":"d0c055e175d865d3f8865495797acc7034fb6ee31a376fd0dcb8dc833f53cf74","id":74319481,"location_subtype":"","month":"2019-05"},{"category":"burglary","location_type":"Force","location":{"latitude":"51.485897","street":{"id":950977,"name":"On or near Supermarket"},"longitude":"-0.330150"},"context":"","outcome_status":{"category":"Status update unavailable","date":"2019-09"},"persistent_id":"92f1710ccfbd780bc2a9808240d69ebf0b776d8b4c7fa119ede75945223677d9","id":74365033,"location_subtype":"","month":"2019-05"},{"category":"burglary","location_type":"Force","location":{"latitude":"51.501864","street":{"id":951784,"name":"On or near Midhurst Road"},"longitude":"-0.322982"},"context":"","outcome_status":{"category":"Status update unavailable","date":"2019-09"},"persistent_id":"5b644179308cbcc93b9cf80f0f869d0ac847b3e90209dc985ce9065e85b15fbb","id":74316678,"location_subtype":"","month":"2019-05"},{"category":"burglary","location_type":"Force","location":{"latitude":"51.508921","street":{"id":958130,"name":"On or near Barchester Close"},"longitude":"-0.331700"},"context":"","outcome_status":{"category":"Status update unavailable","date":"2019-09"},"persistent_id":"cd3629a1be86b165a24e336e72c0549a89bdea62d7d846198b4cce2d7048c8ea","id":74316413,"location_subtype":"","month":"2019-05"},{"category":"burglary","location_type":"Force","location":{"latitude":"51.494786","street":{"id":952039,"name":"On or near Clayponds Gardens"},"longitude":"-0.302958"},"context":"","outcome_status":{"category":"Status update unavailable","date":"2019-09"},"persistent_id":"a350902fed608faa79cc127b0143f92d3defb6845c04f26043ab578b2e1d1d0a","id":74316139,"location_subtype":"","month":"2019-05"},{"category":"burglary","location_type":"Force","location":{"latitude":"51.502898","street":{"id":951860,"name":"On or near Jersey Road"},"longitude":"-0.327382"},"context":"","outcome_status":{"category":"Status update unavailable","date":"2019-09"},"persistent_id":"d890e2a92e5c3e0ba32b40a5aa80acc39a45364f381f3299edec26f79c427ac2","id":74315829,"location_subtype":"","month":"2019-05"},{"category":"burglary","location_type":"Force","location":{"latitude":"51.494352","street":{"id":950872,"name":"On or near Carlyle Road"},"longitude":"-0.309630"},"context":"","outcome_status":{"category":"Status update unavailable","date":"2019-09"},"persistent_id":"cdffc0feb08df87868a50ad9e8be354edfc5f0a2ea68983a5ed970bba02887f0","id":74313383,"location_subtype":"","month":"2019-05"},{"category":"burglary","location_type":"Force","location":{"latitude":"51.493976","street":{"id":950978,"name":"On or near Boston Gardens"},"longitude":"-0.322277"},"context":"","outcome_status":{"category":"Status update unavailable","date":"2019-09"},"persistent_id":"af96f32b08c21dff8976ff6a66840b25af84b36dcccce8253ec909b095972a93","id":74323165,"location_subtype":"","month":"2019-05"},{"category":"burglary","location_type":"Force","location":{"latitude":"51.489609","street":{"id":950853,"name":"On or near Windmill Road"},"longitude":"-0.308696"},"context":"","outcome_status":{"category":"Status update unavailable","date":"2019-09"},"persistent_id":"bc1e9f49577a5135e4fd69ccc442e2ee4961eb044cb0a0bd07e3cc38cabb04f7","id":74363136,"location_subtype":"","month":"2019-05"},{"category":"burglary","location_type":"Force","location":{"latitude":"51.494786","street":{"id":952039,"name":"On or near Clayponds Gardens"},"longitude":"-0.302958"},"context":"","outcome_status":{"category":"Status update unavailable","date":"2019-09"},"persistent_id":"721ac1a22c6a65f07ed9618aedf38fc719c1d95153e258267ca7ea8abfa379ab","id":74301691,"location_subtype":"","month":"2019-05"},{"category":"burglary","location_type":"Force","location":{"latitude":"51.494786","street":{"id":952039,"name":"On or near Clayponds Gardens"},"longitude":"-0.302958"},"context":"","outcome_status":{"category":"Status update unavailable","date":"2019-09"},"persistent_id":"217993dc42638d0d22f16b41f37d1facc4c7c70538ca446f6c0f6ffde1cf13c6","id":74303808,"location_subtype":"","month":"2019-05"},{"category":"burglary","location_type":"Force","location":{"latitude":"51.503921","street":{"id":951746,"name":"On or near Mallard Close"},"longitude":"-0.342459"},"context":"","outcome_status":{"category":"Status update unavailable","date":"2019-09"},"persistent_id":"f036107fa53b4a772bd5e7185a45e2523788270faddbf1428a537ef63c78ef82","id":74309094,"location_subtype":"","month":"2019-05"},{"category":"burglary","location_type":"Force","location":{"latitude":"51.488845","street":{"id":950876,"name":"On or near Boston Park Road"},"longitude":"-0.311850"},"context":"","outcome_status":{"category":"Status update unavailable","date":"2019-09"},"persistent_id":"ab200057e48cdc100ac92d98830e036fc7878e56b17184672214f81e2f63cb6e","id":74295289,"location_subtype":"","month":"2019-05"},{"category":"burglary","location_type":"Force","location":{"latitude":"51.493688","street":{"id":950870,"name":"On or near Darwin Road"},"longitude":"-0.309092"},"context":"","outcome_status":{"category":"Status update unavailable","date":"2019-09"},"persistent_id":"eaa6d9d437f914063e56837ebb31afa26b789ef6c4d590d7e7345081b64f14ad","id":74294571,"location_subtype":"","month":"2019-05"},{"category":"burglary","location_type":"Force","location":{"latitude":"51.490978","street":{"id":950869,"name":"On or near Eastbourne Road"},"longitude":"-0.308271"},"context":"","outcome_status":{"category":"Status update unavailable","date":"2019-09"},"persistent_id":"85c07470301233f9dfecd17852d4af644ccab30295b5a303d33362a65a7f76a7","id":74297861,"location_subtype":"","month":"2019-05"},{"category":"criminal-damage-arson","location_type":"Force","location":{"latitude":"51.489911","street":{"id":950894,"name":"On or near Brook Lane North"},"longitude":"-0.305934"},"context":"","outcome_status":{"category":"Status update unavailable","date":"2019-09"},"persistent_id":"a7e9766857c5f02be1e82c7195ada956d30378609955880e2ff95237f6cab839","id":74335199,"location_subtype":"","month":"2019-05"},{"category":"criminal-damage-arson","location_type":"Force","location":{"latitude":"51.485686","street":{"id":950859,"name":"On or near Somerset Road"},"longitude":"-0.309172"},"context":"","outcome_status":{"category":"Status update unavailable","date":"2019-09"},"persistent_id":"513e7be71595405339e0b704fabd90ff88df0ae5436bdc51e9cdba26e4e8b703","id":74341750,"location_subtype":"","month":"2019-05"},{"category":"criminal-damage-arson","location_type":"Force","location":{"latitude":"51.498810","street":{"id":951905,"name":"On or near Pope's Lane"},"longitude":"-0.303255"},"context":"","outcome_status":{"category":"Status update unavailable","date":"2019-09"},"persistent_id":"2d024558d0c92e6910d31b938552a0ff2b8b6a982984b65eea220d065c56ab3c","id":74311670,"location_subtype":"","month":"2019-05"},{"category":"criminal-damage-arson","location_type":"Force","location":{"latitude":"51.488274","street":{"id":950878,"name":"On or near Boston Manor Road"},"longitude":"-0.312807"},"context":"","outcome_status":{"category":"Status update unavailable","date":"2019-09"},"persistent_id":"8ba4c5ced1d98e019abb7d0ad15d2902136aaa6a7322cbc0a59891283a577b6e","id":74337111,"location_subtype":"","month":"2019-05"},{"category":"criminal-damage-arson","location_type":"Force","location":{"latitude":"51.490992","street":{"id":950895,"name":"On or near M4"},"longitude":"-0.306081"},"context":"","outcome_status":{"category":"Offender given a caution","date":"2019-05"},"persistent_id":"a59471a7d8404844a2948258de64f7d28ad33aae77809974807f7b88a22e4aea","id":74303491,"location_subtype":"","month":"2019-05"},{"category":"criminal-damage-arson","location_type":"Force","location":{"latitude":"51.494352","street":{"id":950872,"name":"On or near Carlyle Road"},"longitude":"-0.309630"},"context":"","outcome_status":{"category":"Status update unavailable","date":"2019-09"},"persistent_id":"79547c9d6433553bb6ea91dd66733d868ee5ce314b0590ae808c9efc92e848e9","id":74305297,"location_subtype":"","month":"2019-05"},{"category":"criminal-damage-arson","location_type":"Force","location":{"latitude":"51.488672","street":{"id":950874,"name":"On or near Brockshot Close"},"longitude":"-0.307982"},"context":"","outcome_status":{"category":"Status update unavailable","date":"2019-09"},"persistent_id":"bce165b53d5fa4844cacca4423bf18ca368a2b18357ef1ed6334463b061c0579","id":74333817,"location_subtype":"","month":"2019-05"},{"category":"criminal-damage-arson","location_type":"Force","location":{"latitude":"51.482309","street":{"id":950957,"name":"On or near Mulberry Crescent"},"longitude":"-0.316340"},"context":"","outcome_status":{"category":"Investigation complete; no suspect identified","date":"2020-03"},"persistent_id":"2b95bc03b8b890dfd0a055477a4a605c2727ee6ac726f8670f06bf7fd3fae1d7","id":74344285,"location_subtype":"","month":"2019-05"},{"category":"criminal-damage-arson","location_type":"Force","location":{"latitude":"51.490227","street":{"id":950873,"name":"On or near Burden Close"},"longitude":"-0.310416"},"context":"","outcome_status":{"category":"Status update unavailable","date":"2019-09"},"persistent_id":"6029cefc86bd1d42c7a2b65386404b862a837cf655fb77ca8122d38cb2c4f606","id":74337584,"location_subtype":"","month":"2019-05"},{"category":"criminal-damage-arson","location_type":"Force","location":{"latitude":"51.499887","street":{"id":951961,"name":"On or near Belsize Avenue"},"longitude":"-0.316182"},"context":"","outcome_status":{"category":"Status update unavailable","date":"2019-09"},"persistent_id":"3d0b4d59351247a5fe507cd03d8ce0b356394c2f0dd8cbb2b8195ffb9d448e1a","id":74333250,"location_subtype":"","month":"2019-05"},{"category":"criminal-damage-arson","location_type":"Force","location":{"latitude":"51.494833","street":{"id":952031,"name":"On or near Darwin Road"},"longitude":"-0.305549"},"context":"","outcome_status":{"category":"Status update unavailable","date":"2019-09"},"persistent_id":"455d6cefb25369eabe1ff4ef50b6c6c260f983a1a3fb571b77c4136012ea03e6","id":74294518,"location_subtype":"","month":"2019-05"},{"category":"criminal-damage-arson","location_type":"Force","location":{"latitude":"51.483519","street":{"id":950988,"name":"On or near Maple Grove"},"longitude":"-0.319838"},"context":"","outcome_status":{"category":"Status update unavailable","date":"2019-09"},"persistent_id":"db6f16a476a7aa75c6318d08cd0f9681aa7c7fcfba5c0a2262db7b33f9669773","id":74350574,"location_subtype":"","month":"2019-05"},{"category":"criminal-damage-arson","location_type":"Force","location":{"latitude":"51.486941","street":{"id":950871,"name":"On or near Church Walk"},"longitude":"-0.311402"},"context":"","outcome_status":{"category":"Local resolution","date":"2019-05"},"persistent_id":"34c6e1be3defbb06940ec61628ef502f28a5786ad5907ead941680cfd4908eac","id":74313446,"location_subtype":"","month":"2019-05"},{"category":"criminal-damage-arson","location_type":"Force","location":{"latitude":"51.488845","street":{"id":950876,"name":"On or near Boston Park Road"},"longitude":"-0.311850"},"context":"","outcome_status":{"category":"Status update unavailable","date":"2019-09"},"persistent_id":"c7dac641bb06eb38a169e62acc1995761a3309bb96bdf8ffa80b31477708d834","id":74297875,"location_subtype":"","month":"2019-05"},{"category":"criminal-damage-arson","location_type":"Force","location":{"latitude":"51.502284","street":{"id":951979,"name":"On or near Petrol Station"},"longitude":"-0.306570"},"context":"","outcome_status":{"category":"Status update unavailable","date":"2019-09"},"persistent_id":"2ee9069fbec0781a796cddd64237a5b9f464b18e8b66f52ffa503a30e4a7a6a1","id":74358895,"location_subtype":"","month":"2019-05"},{"category":"criminal-damage-arson","location_type":"Force","location":{"latitude":"51.497277","street":{"id":952026,"name":"On or near Chandos Avenue"},"longitude":"-0.307908"},"context":"","outcome_status":{"category":"Local resolution","date":"2019-10"},"persistent_id":"5d7b204b1baef05f606ba49dccf01bcb4565753722bb5c0584bce2e54f610ae1","id":74293774,"location_subtype":"","month":"2019-05"},{"category":"criminal-damage-arson","location_type":"Force","location":{"latitude":"51.498810","street":{"id":951905,"name":"On or near Pope's Lane"},"longitude":"-0.303255"},"context":"","outcome_status":{"category":"Status update unavailable","date":"2019-09"},"persistent_id":"83326323e62fc5f0ec65a51542edee8feb5b758cd53c6dce109e644da2aa62ef","id":74297604,"location_subtype":"","month":"2019-05"},{"category":"criminal-damage-arson","location_type":"Force","location":{"latitude":"51.495733","street":{"id":951890,"name":"On or near Boston Vale"},"longitude":"-0.326290"},"context":"","outcome_status":{"category":"Status update unavailable","date":"2019-09"},"persistent_id":"d5265423cb85cea57b2c158529f48e4aac490faca0d73025904d29f872907d02","id":74294519,"location_subtype":"","month":"2019-05"},{"category":"drugs","location_type":"Force","location":{"latitude":"51.509856","street":{"id":958100,"name":"On or near Parking Area"},"longitude":"-0.322242"},"context":"","outcome_status":{"category":"Local resolution","date":"2019-06"},"persistent_id":"80bc392b5f3b49b15899d1b28c7394569da306776aa6e172cf20fba772923892","id":74330149,"location_subtype":"","month":"2019-05"},{"category":"drugs","location_type":"Force","location":{"latitude":"51.500193","street":{"id":951907,"name":"On or near Olive Road"},"longitude":"-0.304371"},"context":"","outcome_status":{"category":"Investigation complete; no suspect identified","date":"2020-04"},"persistent_id":"7bc3f0ad475e1ca9c547d07a9c1d259fb336dcf13a714e8a55bff45ebdd4b732","id":74333187,"location_subtype":"","month":"2019-05"},{"category":"drugs","location_type":"Force","location":{"latitude":"51.508889","street":{"id":958003,"name":"On or near Churchfield Road"},"longitude":"-0.314971"},"context":"","outcome_status":{"category":"Local resolution","date":"2020-03"},"persistent_id":"93c0a35a08bd077a914128bec49687b432e3c0b794bc88136c617cb06cb05155","id":74346242,"location_subtype":"","month":"2019-05"},{"category":"drugs","location_type":"Force","location":{"latitude":"51.495288","street":{"id":952035,"name":"On or near Occupation Lane"},"longitude":"-0.301614"},"context":"","outcome_status":{"category":"Offender given a drugs possession warning","date":"2019-05"},"persistent_id":"6d27f554651f571dbb71af211606538b0c3a8ba382ba2a402be64df4fd853b3d","id":74364396,"location_subtype":"","month":"2019-05"},{"category":"drugs","location_type":"Force","location":{"latitude":"51.495716","street":{"id":952036,"name":"On or near Occupation Lane"},"longitude":"-0.303802"},"context":"","outcome_status":{"category":"Court result unavailable","date":"2019-12"},"persistent_id":"2091314432f3341f9430e855bda8d3309d70fd59757d2826f439156b5f0b4439","id":74297152,"location_subtype":"","month":"2019-05"},{"category":"drugs","location_type":"Force","location":{"latitude":"51.484193","street":{"id":950990,"name":"On or near Hazel Close"},"longitude":"-0.317898"},"context":"","outcome_status":{"category":"Local resolution","date":"2020-03"},"persistent_id":"874523b104fc68f5fd52f3a0ab4ed552d5762e7baa13744fce7ba82d8cc0f01a","id":74299021,"location_subtype":"","month":"2019-05"},{"category":"drugs","location_type":"Force","location":{"latitude":"51.492247","street":{"id":950981,"name":"On or near Park\/open Space"},"longitude":"-0.319561"},"context":"","outcome_status":{"category":"Local resolution","date":"2019-06"},"persistent_id":"43ca138987ce6b2e07a13f350260c6cb4ee219db1b43f8b22464642ff9c2c663","id":74299705,"location_subtype":"","month":"2019-05"},{"category":"drugs","location_type":"Force","location":{"latitude":"51.508921","street":{"id":958130,"name":"On or near Barchester Close"},"longitude":"-0.331700"},"context":"","outcome_status":{"category":"Status update unavailable","date":"2019-09"},"persistent_id":"718a7d4a80d1ad3297f14791f4c9c2f937e9da8f58c5a25491bffb517a9f9b7d","id":74292345,"location_subtype":"","month":"2019-05"},{"category":"drugs","location_type":"Force","location":{"latitude":"51.508921","street":{"id":958130,"name":"On or near Barchester Close"},"longitude":"-0.331700"},"context":"","outcome_status":{"category":"Status update unavailable","date":"2019-09"},"persistent_id":"718a7d4a80d1ad3297f14791f4c9c2f937e9da8f58c5a25491bffb517a9f9b7d","id":74292346,"location_subtype":"","month":"2019-05"},{"category":"drugs","location_type":"Force","location":{"latitude":"51.501568","street":{"id":951847,"name":"On or near Boston Road"},"longitude":"-0.330024"},"context":"","outcome_status":{"category":"Status update unavailable","date":"2019-09"},"persistent_id":"a870087240b827da384086d3f289834225e7130f84931826b21abdb008419b6f","id":74325246,"location_subtype":"","month":"2019-05"},{"category":"drugs","location_type":"Force","location":{"latitude":"51.508131","street":{"id":951807,"name":"On or near Regina Road"},"longitude":"-0.324236"},"context":"","outcome_status":{"category":"Status update unavailable","date":"2019-09"},"persistent_id":"2a1070acb2d887952bd81b3cf8e0d7e02fc89debc2155bf78b85c26d9cd1c5ed","id":74345688,"location_subtype":"","month":"2019-05"},{"category":"drugs","location_type":"Force","location":{"latitude":"51.500193","street":{"id":951907,"name":"On or near Olive Road"},"longitude":"-0.304371"},"context":"","outcome_status":{"category":"Offender given penalty notice","date":"2019-07"},"persistent_id":"d97f0ce567ef4ff25d104f6e33ad3be14d09958dbac699f15d66c3c1a6dca253","id":74322233,"location_subtype":"","month":"2019-05"},{"category":"drugs","location_type":"Force","location":{"latitude":"51.498015","street":{"id":951908,"name":"On or near North Road"},"longitude":"-0.304250"},"context":"","outcome_status":{"category":"Offender given penalty notice","date":"2019-05"},"persistent_id":"1888f5d06bf35c85c791569f948880eba9a2e895e8d50db80992d6a6fea3145f","id":74334929,"location_subtype":"","month":"2019-05"},{"category":"drugs","location_type":"Force","location":{"latitude":"51.502841","street":{"id":951863,"name":"On or near Elthorne Park Road"},"longitude":"-0.329732"},"context":"","outcome_status":{"category":"Local resolution","date":"2019-05"},"persistent_id":"4aed91e7fb7a53245d333a217db7f72d3dea070f14974e5d0a6784c51af0cdf8","id":74323687,"location_subtype":"","month":"2019-05"},{"category":"drugs","location_type":"Force","location":{"latitude":"51.509456","street":{"id":958117,"name":"On or near Supermarket"},"longitude":"-0.325066"},"context":"","outcome_status":{"category":"Local resolution","date":"2019-05"},"persistent_id":"48e5d669247d9da73fc20153d6fffb906626da35e8c5864e4024fd9610b29d07","id":74292852,"location_subtype":"","month":"2019-05"},{"category":"drugs","location_type":"Force","location":{"latitude":"51.509456","street":{"id":958117,"name":"On or near Supermarket"},"longitude":"-0.325066"},"context":"","outcome_status":{"category":"Offender given penalty notice","date":"2019-05"},"persistent_id":"7744d7193abe66d41e2a1f97ebe1cebc7e6e82c40ae33fd6f6944ec0e4e798af","id":74343435,"location_subtype":"","month":"2019-05"},{"category":"drugs","location_type":"Force","location":{"latitude":"51.490992","street":{"id":950895,"name":"On or near M4"},"longitude":"-0.306081"},"context":"","outcome_status":{"category":"Local resolution","date":"2019-05"},"persistent_id":"0e340f4fda85fd06fa5ab80d0c41b47eeaa36616f4c206d6a19d69618eed403e","id":74313614,"location_subtype":"","month":"2019-05"},{"category":"drugs","location_type":"Force","location":{"latitude":"51.504125","street":{"id":951977,"name":"On or near Church Place"},"longitude":"-0.305796"},"context":"","outcome_status":{"category":"Local resolution","date":"2019-07"},"persistent_id":"526f1dbd27841c29fb49ea684aa39f08aee247fe8433a881162b3da223e96941","id":74344942,"location_subtype":"","month":"2019-05"},{"category":"other-theft","location_type":"Force","location":{"latitude":"51.485897","street":{"id":950977,"name":"On or near Supermarket"},"longitude":"-0.330150"},"context":"","outcome_status":{"category":"Status update unavailable","date":"2019-09"},"persistent_id":"0e38fe10d1891620b703fcc9c99fa0bdfc82eacc6ad13866f4ebd7cc11ceaf18","id":74341489,"location_subtype":"","month":"2019-05"},{"category":"other-theft","location_type":"Force","location":{"latitude":"51.500851","street":{"id":951918,"name":"On or near Sports\/recreation Area"},"longitude":"-0.303252"},"context":"","outcome_status":{"category":"Investigation complete; no suspect identified","date":"2020-04"},"persistent_id":"1999e42bfb17c4b735e9bd9fa713f84d12cc05309d3d2c2290034748b27c35c6","id":74308334,"location_subtype":"","month":"2019-05"},{"category":"other-theft","location_type":"Force","location":{"latitude":"51.484193","street":{"id":950990,"name":"On or near Hazel Close"},"longitude":"-0.317898"},"context":"","outcome_status":{"category":"Investigation complete; no suspect identified","date":"2020-03"},"persistent_id":"6c61da5be29b6a2a06f6219b1da7017408d4d7b2d71a5fd727d845dc6a6dedf4","id":74330114,"location_subtype":"","month":"2019-05"},{"category":"other-theft","location_type":"Force","location":{"latitude":"51.504347","street":{"id":952006,"name":"On or near Church Lane"},"longitude":"-0.308035"},"context":"","outcome_status":{"category":"Status update unavailable","date":"2019-09"},"persistent_id":"36d7eed0d6fc85ee6724f749771fb74916884c0ed995954756eb929f0074636a","id":74325044,"location_subtype":"","month":"2019-05"},{"category":"other-theft","location_type":"Force","location":{"latitude":"51.494448","street":{"id":950921,"name":"On or near Greenlawn Lane"},"longitude":"-0.304411"},"context":"","outcome_status":{"category":"Investigation complete; no suspect identified","date":"2020-03"},"persistent_id":"43451ee0a9302e8276254c165ca9a16a71512591a888a00495dccbd4d847ddf0","id":74328776,"location_subtype":"","month":"2019-05"},{"category":"other-theft","location_type":"Force","location":{"latitude":"51.502284","street":{"id":951979,"name":"On or near Petrol Station"},"longitude":"-0.306570"},"context":"","outcome_status":{"category":"Investigation complete; no suspect identified","date":"2020-04"},"persistent_id":"fce7cc011becd06d991078a32f82b0ee5dcfe51e0ff6045dee086c774dc23fdc","id":74342712,"location_subtype":"","month":"2019-05"},{"category":"other-theft","location_type":"Force","location":{"latitude":"51.497466","street":{"id":952034,"name":"On or near South Road"},"longitude":"-0.304198"},"context":"","outcome_status":{"category":"Status update unavailable","date":"2019-09"},"persistent_id":"b75ea586d151ae6fa25814f893f6918239fb59632948bfa255001dccb2735bf8","id":74345408,"location_subtype":"","month":"2019-05"},{"category":"other-theft","location_type":"Force","location":{"latitude":"51.502284","street":{"id":951979,"name":"On or near Petrol Station"},"longitude":"-0.306570"},"context":"","outcome_status":{"category":"Status update unavailable","date":"2019-09"},"persistent_id":"951eec9b1b01f0b989b40678e464e9a2dbedc83f6c773493ccdf0f6e2b4a5419","id":74290525,"location_subtype":"","month":"2019-05"},{"category":"other-theft","location_type":"Force","location":{"latitude":"51.485897","street":{"id":950977,"name":"On or near Supermarket"},"longitude":"-0.330150"},"context":"","outcome_status":{"category":"Status update unavailable","date":"2019-09"},"persistent_id":"029006490dae71e8d5a35b531ef26404c91c693849cceb18936dcdd7596b8378","id":74294741,"location_subtype":"","month":"2019-05"},{"category":"other-theft","location_type":"Force","location":{"latitude":"51.484410","street":{"id":950998,"name":"On or near Syon Lane"},"longitude":"-0.331198"},"context":"","outcome_status":{"category":"Status update unavailable","date":"2019-09"},"persistent_id":"3fc2cac0543c1cce5cd2df7dde26ac56419fb5c3c946d2c8419e50c09b6d8ba5","id":74348526,"location_subtype":"","month":"2019-05"},{"category":"other-theft","location_type":"Force","location":{"latitude":"51.484410","street":{"id":950998,"name":"On or near Syon Lane"},"longitude":"-0.331198"},"context":"","outcome_status":{"category":"Status update unavailable","date":"2019-09"},"persistent_id":"7f0ad6c26c79bad6a2a6cd79969dcd8361375a7aa57a258e0ad12bc5e4fbe253","id":74348168,"location_subtype":"","month":"2019-05"},{"category":"other-theft","location_type":"Force","location":{"latitude":"51.502284","street":{"id":951979,"name":"On or near Petrol Station"},"longitude":"-0.306570"},"context":"","outcome_status":{"category":"Status update unavailable","date":"2019-09"},"persistent_id":"7c29a14262e7ef4ce0abff42da87f758f363f95d0cd2c379e32d6b191b469925","id":74323999,"location_subtype":"","month":"2019-05"},{"category":"other-theft","location_type":"Force","location":{"latitude":"51.502284","street":{"id":951979,"name":"On or near Petrol Station"},"longitude":"-0.306570"},"context":"","outcome_status":{"category":"Status update unavailable","date":"2019-09"},"persistent_id":"6170f5c5a07f89c26fc12c60c3135b441a61659a65be9fca4be51c1f51424123","id":74344918,"location_subtype":"","month":"2019-05"},{"category":"other-theft","location_type":"Force","location":{"latitude":"51.491680","street":{"id":950938,"name":"On or near Petrol Station"},"longitude":"-0.304572"},"context":"","outcome_status":{"category":"Investigation complete; no suspect identified","date":"2020-04"},"persistent_id":"d30d06aad8de4892d742a8994d1cb98bc06b2b9c8c769f489c6d14efc9c69b0a","id":74298410,"location_subtype":"","month":"2019-05"},{"category":"other-theft","location_type":"Force","location":{"latitude":"51.501768","street":{"id":951946,"name":"On or near South Ealing Road"},"longitude":"-0.306920"},"context":"","outcome_status":{"category":"Status update unavailable","date":"2019-09"},"persistent_id":"524ba837685bfb1e35ff17a58a424789dbe9983c88cd4c30705e0c45a9474af7","id":74344400,"location_subtype":"","month":"2019-05"},{"category":"other-theft","location_type":"Force","location":{"latitude":"51.495288","street":{"id":952035,"name":"On or near Occupation Lane"},"longitude":"-0.301614"},"context":"","outcome_status":{"category":"Status update unavailable","date":"2019-09"},"persistent_id":"1278166b6d8086de14b799c87e0109692efa57ac22642feffd082dcfceaf45da","id":74353788,"location_subtype":"","month":"2019-05"},{"category":"other-theft","location_type":"Force","location":{"latitude":"51.509456","street":{"id":958117,"name":"On or near Supermarket"},"longitude":"-0.325066"},"context":"","outcome_status":{"category":"Status update unavailable","date":"2019-09"},"persistent_id":"2745dccf516fc59c083a815647459880f9dd58eb8c1e4bd7ff9827c54db4d0ff","id":74327115,"location_subtype":"","month":"2019-05"},{"category":"other-theft","location_type":"Force","location":{"latitude":"51.485897","street":{"id":950977,"name":"On or near Supermarket"},"longitude":"-0.330150"},"context":"","outcome_status":{"category":"Investigation complete; no suspect identified","date":"2020-03"},"persistent_id":"f1ebce6fd281db22f375fdc0675e804966791b395d6324b1a815ac6219631f6e","id":74331728,"location_subtype":"","month":"2019-05"},{"category":"other-theft","location_type":"Force","location":{"latitude":"51.502841","street":{"id":951863,"name":"On or near Elthorne Park Road"},"longitude":"-0.329732"},"context":"","outcome_status":{"category":"Status update unavailable","date":"2019-09"},"persistent_id":"bee6871a9016ec7ff1a696c2da191700447ca3fc40651eb5adcf86d186b09eb3","id":74338558,"location_subtype":"","month":"2019-05"},{"category":"other-theft","location_type":"BTP","location":{"latitude":"51.499400","street":{"id":1488731,"name":"Northfields (lu Station)"},"longitude":"-0.314137"},"context":"","outcome_status":{"category":"Status update unavailable","date":"2019-09"},"persistent_id":"","id":88717120,"location_subtype":"LU STATION","month":"2019-05"},{"category":"other-theft","location_type":"Force","location":{"latitude":"51.485897","street":{"id":950977,"name":"On or near Supermarket"},"longitude":"-0.330150"},"context":"","outcome_status":{"category":"Status update unavailable","date":"2019-09"},"persistent_id":"c6b6e4dfb1f70a51384145098e50ee6870c100202236ddce4c97bf777cf3eea4","id":74339887,"location_subtype":"","month":"2019-05"},{"category":"other-theft","location_type":"Force","location":{"latitude":"51.490227","street":{"id":950873,"name":"On or near Burden Close"},"longitude":"-0.310416"},"context":"","outcome_status":{"category":"Status update unavailable","date":"2019-09"},"persistent_id":"9aceeb3c4fe0a21a1e3c5f6a3dbd27f6a10cd225c300c941cae48b845919250e","id":74313418,"location_subtype":"","month":"2019-05"},{"category":"other-theft","location_type":"Force","location":{"latitude":"51.504125","street":{"id":951977,"name":"On or near Church Place"},"longitude":"-0.305796"},"context":"","outcome_status":{"category":"Status update unavailable","date":"2019-09"},"persistent_id":"c4600812aa316686cdb746b0bd4bf6b1d7f5d76f177c2be556ef7ae808d27e82","id":74305601,"location_subtype":"","month":"2019-05"},{"category":"other-theft","location_type":"Force","location":{"latitude":"51.484410","street":{"id":950998,"name":"On or near Syon Lane"},"longitude":"-0.331198"},"context":"","outcome_status":{"category":"Status update unavailable","date":"2019-09"},"persistent_id":"bef5f7814ef60b2b6a2e704425be8fd4ecc2608bf03e3e63c26465e4c29dd14f","id":74368501,"location_subtype":"","month":"2019-05"},{"category":"other-theft","location_type":"Force","location":{"latitude":"51.510138","street":{"id":958116,"name":"On or near Broadway"},"longitude":"-0.324335"},"context":"","outcome_status":{"category":"Status update unavailable","date":"2019-09"},"persistent_id":"a0f8bb9bef0f7a4f2de791f2c2e1379dc18edcda2d429e9ea715e4b58c73edc7","id":74361679,"location_subtype":"","month":"2019-05"},{"category":"other-theft","location_type":"Force","location":{"latitude":"51.499887","street":{"id":951961,"name":"On or near Belsize Avenue"},"longitude":"-0.316182"},"context":"","outcome_status":{"category":"Status update unavailable","date":"2019-09"},"persistent_id":"5a6a0deb59c92d63aa0ac4265d2069b82b6fcb554e1a4f6edd191b82712d4f1e","id":74308381,"location_subtype":"","month":"2019-05"},{"category":"other-theft","location_type":"Force","location":{"latitude":"51.483320","street":{"id":950994,"name":"On or near Pedestrian Subway"},"longitude":"-0.326658"},"context":"","outcome_status":{"category":"Offender given a caution","date":"2019-06"},"persistent_id":"f23e1014dbb5dbf57246a7f73566f81ee12d939264bc4e42e26da67bd2bfde40","id":74297107,"location_subtype":"","month":"2019-05"},{"category":"other-theft","location_type":"Force","location":{"latitude":"51.501330","street":{"id":951955,"name":"On or near Dorset Road"},"longitude":"-0.309011"},"context":"","outcome_status":{"category":"Status update unavailable","date":"2019-09"},"persistent_id":"4287a1465a8a5114308c3d58f0a478341899fcaf71f8df3440b1746179134ed8","id":74293310,"location_subtype":"","month":"2019-05"},{"category":"other-theft","location_type":"Force","location":{"latitude":"51.485897","street":{"id":950977,"name":"On or near Supermarket"},"longitude":"-0.330150"},"context":"","outcome_status":{"category":"Status update unavailable","date":"2019-09"},"persistent_id":"083d38b1d93ea096d54353c6598bb968038f5d7d5e1fe918ee7a856d130c5bd5","id":74319986,"location_subtype":"","month":"2019-05"},{"category":"other-theft","location_type":"Force","location":{"latitude":"51.510138","street":{"id":958116,"name":"On or near Broadway"},"longitude":"-0.324335"},"context":"","outcome_status":{"category":"Status update unavailable","date":"2019-09"},"persistent_id":"afdb72193f9b59a0d794f41edd3b26bab81a340e1ab5d2fd838564fc8fe16231","id":74359770,"location_subtype":"","month":"2019-05"},{"category":"other-theft","location_type":"Force","location":{"latitude":"51.485897","street":{"id":950977,"name":"On or near Supermarket"},"longitude":"-0.330150"},"context":"","outcome_status":{"category":"Status update unavailable","date":"2019-09"},"persistent_id":"aabf478b0acd26948eef399420d7cc266fb110d9232a5d75db10af0fedb52a96","id":74322977,"location_subtype":"","month":"2019-05"},{"category":"other-theft","location_type":"Force","location":{"latitude":"51.488845","street":{"id":950876,"name":"On or near Boston Park Road"},"longitude":"-0.311850"},"context":"","outcome_status":{"category":"Status update unavailable","date":"2019-09"},"persistent_id":"75eb5d27c008521c9f391ad85175c9de5e1dabb2f18b53496351812138a9f0a1","id":74331745,"location_subtype":"","month":"2019-05"},{"category":"other-theft","location_type":"Force","location":{"latitude":"51.485897","street":{"id":950977,"name":"On or near Supermarket"},"longitude":"-0.330150"},"context":"","outcome_status":{"category":"Status update unavailable","date":"2019-09"},"persistent_id":"d97be61247a8ed72cecbc33c3baf6533a8bf2088cd82494e18a0aa4989d0648f","id":74332191,"location_subtype":"","month":"2019-05"},{"category":"other-theft","location_type":"Force","location":{"latitude":"51.503950","street":{"id":951806,"name":"On or near Salisbury Road"},"longitude":"-0.319879"},"context":"","outcome_status":{"category":"Investigation complete; no suspect identified","date":"2020-04"},"persistent_id":"c0d01d32d9d5e91c59da03f28c22aab916ad4cad2a0500b1bd3cb017fe518eda","id":74366554,"location_subtype":"","month":"2019-05"},{"category":"other-theft","location_type":"Force","location":{"latitude":"51.485897","street":{"id":950977,"name":"On or near Supermarket"},"longitude":"-0.330150"},"context":"","outcome_status":{"category":"Status update unavailable","date":"2019-09"},"persistent_id":"cbf66be2904381deb95a7b9d034c4b4cfeb03fafd66b58f1f420d2a83d30b79a","id":74334253,"location_subtype":"","month":"2019-05"},{"category":"possession-of-weapons","location_type":"Force","location":{"latitude":"51.501568","street":{"id":951847,"name":"On or near Boston Road"},"longitude":"-0.330024"},"context":"","outcome_status":{"category":"Court result unavailable","date":"2019-12"},"persistent_id":"a870087240b827da384086d3f289834225e7130f84931826b21abdb008419b6f","id":74328433,"location_subtype":"","month":"2019-05"},{"category":"possession-of-weapons","location_type":"Force","location":{"latitude":"51.494786","street":{"id":952039,"name":"On or near Clayponds Gardens"},"longitude":"-0.302958"},"context":"","outcome_status":{"category":"Offender given a caution","date":"2019-06"},"persistent_id":"a5191b49301b01185a6237d3ccd7a863541753f690ccfa6b155721da44125de9","id":74337699,"location_subtype":"","month":"2019-05"},{"category":"possession-of-weapons","location_type":"Force","location":{"latitude":"51.493875","street":{"id":950854,"name":"On or near Windmill Road"},"longitude":"-0.313998"},"context":"","outcome_status":{"category":"Investigation complete; no suspect identified","date":"2020-03"},"persistent_id":"5cdd4d2ee84d343c54ce36bda5d13f3708976e67d34bf875e33c25ed001083f5","id":74324903,"location_subtype":"","month":"2019-05"},{"category":"public-order","location_type":"Force","location":{"latitude":"51.510138","street":{"id":958116,"name":"On or near Broadway"},"longitude":"-0.324335"},"context":"","outcome_status":{"category":"Status update unavailable","date":"2019-09"},"persistent_id":"f2239a6041e93bd6f272cc57b55d1c598deb5e71024b9f76701cc3547f8dc5b4","id":74361575,"location_subtype":"","month":"2019-05"},{"category":"public-order","location_type":"Force","location":{"latitude":"51.485602","street":{"id":950970,"name":"On or near Harlequin Avenue"},"longitude":"-0.326488"},"context":"","outcome_status":{"category":"Investigation complete; no suspect identified","date":"2020-03"},"persistent_id":"74b394b7529167d6f9044097706d8fdd40797652e4ebee1467e88289dad3b632","id":74345331,"location_subtype":"","month":"2019-05"},{"category":"public-order","location_type":"Force","location":{"latitude":"51.503712","street":{"id":952003,"name":"On or near Coningsby Road"},"longitude":"-0.307684"},"context":"","outcome_status":{"category":"Investigation complete; no suspect identified","date":"2020-11"},"persistent_id":"4e842bc301988ae4816118a2c3ff8b1a330188f8077618811ef0df952bfcd11c","id":74315108,"location_subtype":"","month":"2019-05"},{"category":"public-order","location_type":"Force","location":{"latitude":"51.507913","street":{"id":951879,"name":"On or near Montague Avenue"},"longitude":"-0.334792"},"context":"","outcome_status":{"category":"Status update unavailable","date":"2019-09"},"persistent_id":"4917ce742507c7ab0a9c286d9e89c8b0f23a053ae8bb0d4469488fc6e1d818f6","id":74364896,"location_subtype":"","month":"2019-05"},{"category":"public-order","location_type":"Force","location":{"latitude":"51.483425","street":{"id":951000,"name":"On or near Petrol Station"},"longitude":"-0.328382"},"context":"","outcome_status":{"category":"Investigation complete; no suspect identified","date":"2020-03"},"persistent_id":"06d16fcf55a62fe5de79794f8963c691c500d6707fed7395f705e624ed48ad6a","id":74341743,"location_subtype":"","month":"2019-05"},{"category":"public-order","location_type":"Force","location":{"latitude":"51.504244","street":{"id":951871,"name":"On or near Petrol Station"},"longitude":"-0.333514"},"context":"","outcome_status":{"category":"Status update unavailable","date":"2019-09"},"persistent_id":"e7f66fbf7cd0c3114a76ef2b3b0fac488741ea5eb53ce8cecd5b981f6db0dbe2","id":74326021,"location_subtype":"","month":"2019-05"},{"category":"public-order","location_type":"Force","location":{"latitude":"51.508131","street":{"id":951807,"name":"On or near Regina Road"},"longitude":"-0.324236"},"context":"","outcome_status":{"category":"Status update unavailable","date":"2019-09"},"persistent_id":"aa97bc667ac6f179a1f2906e8ee214e309040065b529f366ce2116ee90c60532","id":74347583,"location_subtype":"","month":"2019-05"},{"category":"public-order","location_type":"Force","location":{"latitude":"51.497766","street":{"id":952018,"name":"On or near Little Ealing Lane"},"longitude":"-0.309374"},"context":"","outcome_status":{"category":"Status update unavailable","date":"2019-09"},"persistent_id":"0006e7af82634a0521923b9a49b0bcaaa5c54a1847d9731457e04590ea172b54","id":74306170,"location_subtype":"","month":"2019-05"},{"category":"public-order","location_type":"Force","location":{"latitude":"51.509873","street":{"id":958111,"name":"On or near Leeland Road"},"longitude":"-0.323452"},"context":"","outcome_status":{"category":"Status update unavailable","date":"2019-09"},"persistent_id":"960c01b3dbac902d7cbe5375e8eca6401901f7bc08a0aaa64b7c622ec285aee1","id":74372385,"location_subtype":"","month":"2019-05"},{"category":"public-order","location_type":"Force","location":{"latitude":"51.510030","street":{"id":958128,"name":"On or near Chignell Place"},"longitude":"-0.326256"},"context":"","outcome_status":{"category":"Status update unavailable","date":"2019-09"},"persistent_id":"bebc36e64f39d07b3fbfa08e66ecc1111ea3d20c3fc8562662fff10f01c955dc","id":74372641,"location_subtype":"","month":"2019-05"},{"category":"public-order","location_type":"Force","location":{"latitude":"51.509873","street":{"id":958111,"name":"On or near Leeland Road"},"longitude":"-0.323452"},"context":"","outcome_status":{"category":"Status update unavailable","date":"2019-09"},"persistent_id":"960c01b3dbac902d7cbe5375e8eca6401901f7bc08a0aaa64b7c622ec285aee1","id":74372383,"location_subtype":"","month":"2019-05"},{"category":"public-order","location_type":"BTP","location":{"latitude":"51.481700","street":{"id":1488042,"name":"Syon Lane (station)"},"longitude":"-0.325133"},"context":"","outcome_status":{"category":"Status update unavailable","date":"2019-09"},"persistent_id":"","id":88720976,"location_subtype":"STATION","month":"2019-05"},{"category":"public-order","location_type":"Force","location":{"latitude":"51.509993","street":{"id":958121,"name":"On or near Walsingham Road"},"longitude":"-0.326819"},"context":"","outcome_status":{"category":"Status update unavailable","date":"2019-09"},"persistent_id":"679161b431a7863b67a22e3475e63212c5e996634240af227867efc217e9d646","id":74316942,"location_subtype":"","month":"2019-05"},{"category":"public-order","location_type":"Force","location":{"latitude":"51.507006","street":{"id":951886,"name":"On or near Boston Road"},"longitude":"-0.337448"},"context":"","outcome_status":{"category":"Status update unavailable","date":"2019-09"},"persistent_id":"c8170b46bcda62bbe7d8f93dd9add3384ec15ab351a5b30d9c69aa477a0cbef0","id":74294429,"location_subtype":"","month":"2019-05"},{"category":"public-order","location_type":"BTP","location":{"latitude":"51.481700","street":{"id":1488042,"name":"Syon Lane (station)"},"longitude":"-0.325133"},"context":"","outcome_status":{"category":"Status update unavailable","date":"2019-09"},"persistent_id":"","id":88720977,"location_subtype":"STATION","month":"2019-05"},{"category":"public-order","location_type":"Force","location":{"latitude":"51.504447","street":{"id":951868,"name":"On or near Cumberland Road"},"longitude":"-0.330740"},"context":"","outcome_status":{"category":"Status update unavailable","date":"2019-09"},"persistent_id":"2f2a5b5d92934da2f8fc7e3d5eff0dbb875fdc93b2a02aff504cf8b35319c76c","id":74361015,"location_subtype":"","month":"2019-05"},{"category":"public-order","location_type":"Force","location":{"latitude":"51.499887","street":{"id":951961,"name":"On or near Belsize Avenue"},"longitude":"-0.316182"},"context":"","outcome_status":{"category":"Status update unavailable","date":"2019-09"},"persistent_id":"823ff414d6bc748194667c7db99d351ec6d801b3030f5c5d7dddbc0d1934b669","id":74311144,"location_subtype":"","month":"2019-05"},{"category":"public-order","location_type":"Force","location":{"latitude":"51.506441","street":{"id":951828,"name":"On or near Chesham Terrace"},"longitude":"-0.321114"},"context":"","outcome_status":{"category":"Status update unavailable","date":"2019-09"},"persistent_id":"1b7be8d044d40c42282f6efa69289250d8cd5b0717f329cc972d3e564beb089b","id":74341979,"location_subtype":"","month":"2019-05"},{"category":"public-order","location_type":"Force","location":{"latitude":"51.488672","street":{"id":950874,"name":"On or near Brockshot Close"},"longitude":"-0.307982"},"context":"","outcome_status":{"category":"Status update unavailable","date":"2019-09"},"persistent_id":"a71a2ed21811460c8f0da63ad582732bd69c902576dc68ec5488b6ae083b1e68","id":74301390,"location_subtype":"","month":"2019-05"},{"category":"public-order","location_type":"Force","location":{"latitude":"51.510030","street":{"id":958128,"name":"On or near Chignell Place"},"longitude":"-0.326256"},"context":"","outcome_status":{"category":"Status update unavailable","date":"2019-09"},"persistent_id":"dbd030eb69bba5c35626ae0e9d2f9143a93a20dc054791d514ee527246635532","id":74354319,"location_subtype":"","month":"2019-05"},{"category":"public-order","location_type":"Force","location":{"latitude":"51.484093","street":{"id":951003,"name":"On or near Braybourne Drive"},"longitude":"-0.336783"},"context":"","outcome_status":{"category":"Status update unavailable","date":"2019-09"},"persistent_id":"65426e91a5fe9b9d92a65cc375b719f36cd05635aec45f486dd42e027dfae982","id":74355660,"location_subtype":"","month":"2019-05"},{"category":"public-order","location_type":"Force","location":{"latitude":"51.498343","street":{"id":951848,"name":"On or near Boston Road"},"longitude":"-0.327087"},"context":"","outcome_status":{"category":"Status update unavailable","date":"2019-09"},"persistent_id":"7a6886d3eaba56d9fc175d561d5bfee6ca1506f5daa517d9382a3b2c96caef10","id":74354114,"location_subtype":"","month":"2019-05"},{"category":"public-order","location_type":"Force","location":{"latitude":"51.498343","street":{"id":951848,"name":"On or near Boston Road"},"longitude":"-0.327087"},"context":"","outcome_status":{"category":"Status update unavailable","date":"2019-09"},"persistent_id":"7a6886d3eaba56d9fc175d561d5bfee6ca1506f5daa517d9382a3b2c96caef10","id":74354113,"location_subtype":"","month":"2019-05"},{"category":"public-order","location_type":"Force","location":{"latitude":"51.505615","street":{"id":951869,"name":"On or near Croft Gardens"},"longitude":"-0.328132"},"context":"","outcome_status":{"category":"Court result unavailable","date":"2019-12"},"persistent_id":"5650c512225f394e8494347d909f00b90cbde1245380d7067051f13fc70a1634","id":74342732,"location_subtype":"","month":"2019-05"},{"category":"robbery","location_type":"Force","location":{"latitude":"51.509993","street":{"id":958121,"name":"On or near Walsingham Road"},"longitude":"-0.326819"},"context":"","outcome_status":{"category":"Status update unavailable","date":"2019-09"},"persistent_id":"e818a7352bd1c9a71a96f5798bfac4f620e0c369ec6b70e6833f61073d2c417b","id":74300230,"location_subtype":"","month":"2019-05"},{"category":"robbery","location_type":"Force","location":{"latitude":"51.485897","street":{"id":950977,"name":"On or near Supermarket"},"longitude":"-0.330150"},"context":"","outcome_status":{"category":"Status update unavailable","date":"2019-09"},"persistent_id":"0cef03b62df60f178d687942b0b1abdc09805203308de685fed7f6dbdb5a89b8","id":74300593,"location_subtype":"","month":"2019-05"},{"category":"robbery","location_type":"Force","location":{"latitude":"51.502841","street":{"id":951863,"name":"On or near Elthorne Park Road"},"longitude":"-0.329732"},"context":"","outcome_status":{"category":"Investigation complete; no suspect identified","date":"2020-05"},"persistent_id":"2e1a5341dc0be493996bde33d17e09ed237bdabf1e4e781ea8805dc08cff2f5b","id":74340002,"location_subtype":"","month":"2019-05"},{"category":"robbery","location_type":"Force","location":{"latitude":"51.498181","street":{"id":951777,"name":"On or near Sports\/recreation Area"},"longitude":"-0.344137"},"context":"","outcome_status":{"category":"Status update unavailable","date":"2019-09"},"persistent_id":"cd0d2258e68abf44f22e7233874b653918390704d5e21ce2a95f41df049c49c2","id":74363173,"location_subtype":"","month":"2019-05"},{"category":"robbery","location_type":"Force","location":{"latitude":"51.494643","street":{"id":950983,"name":"On or near Swyncombe Avenue"},"longitude":"-0.317369"},"context":"","outcome_status":{"category":"Investigation complete; no suspect identified","date":"2020-03"},"persistent_id":"d3a763c176642a1b4487ae490b8ec4349dcf27715558a29df896ad259924efea","id":74306211,"location_subtype":"","month":"2019-05"},{"category":"robbery","location_type":"Force","location":{"latitude":"51.503626","street":{"id":951838,"name":"On or near Supermarket"},"longitude":"-0.317298"},"context":"","outcome_status":{"category":"Status update unavailable","date":"2019-09"},"persistent_id":"bd8c4663d8918121f8e0aa87176462c395d8494ef5b8a34d03ef9290f3c2f750","id":74339182,"location_subtype":"","month":"2019-05"},{"category":"robbery","location_type":"Force","location":{"latitude":"51.504347","street":{"id":952006,"name":"On or near Church Lane"},"longitude":"-0.308035"},"context":"","outcome_status":{"category":"Status update unavailable","date":"2019-09"},"persistent_id":"53d11c10b620f17efe071a6d00c32d334ad7d03a29edc881f6570dc27fff3e8c","id":74353430,"location_subtype":"","month":"2019-05"},{"category":"robbery","location_type":"Force","location":{"latitude":"51.509856","street":{"id":958100,"name":"On or near Parking Area"},"longitude":"-0.322242"},"context":"","outcome_status":{"category":"Status update unavailable","date":"2019-09"},"persistent_id":"0dcc9b12bf2be55e2150f2bca67ce05900f9e51e66406a2889289bfc4ccd80ac","id":74294567,"location_subtype":"","month":"2019-05"},{"category":"robbery","location_type":"Force","location":{"latitude":"51.490992","street":{"id":950895,"name":"On or near M4"},"longitude":"-0.306081"},"context":"","outcome_status":{"category":"Status update unavailable","date":"2019-09"},"persistent_id":"90a8c6937b1b2a471d3c491c15ace0a4c891478da4c9c89a39ccca6166e680f6","id":74309950,"location_subtype":"","month":"2019-05"},{"category":"robbery","location_type":"Force","location":{"latitude":"51.502841","street":{"id":951863,"name":"On or near Elthorne Park Road"},"longitude":"-0.329732"},"context":"","outcome_status":{"category":"Court result unavailable","date":"2020-04"},"persistent_id":"83a6c996e7867aa90ec967369c631a505e3a956f84942676940568b3acce54b1","id":74341645,"location_subtype":"","month":"2019-05"},{"category":"shoplifting","location_type":"Force","location":{"latitude":"51.500954","street":{"id":951734,"name":"On or near Shopping Area"},"longitude":"-0.339959"},"context":"","outcome_status":{"category":"Status update unavailable","date":"2019-09"},"persistent_id":"3aecf69bf556f86218ef783f2adc3e112a1144be304cb56db5714b44c12302f4","id":74328580,"location_subtype":"","month":"2019-05"},{"category":"shoplifting","location_type":"Force","location":{"latitude":"51.510138","street":{"id":958116,"name":"On or near Broadway"},"longitude":"-0.324335"},"context":"","outcome_status":{"category":"Status update unavailable","date":"2019-09"},"persistent_id":"70a6f9973e9a45f38f0fbd169f4235acdd8957cb50090b8bfbd31fdd1fd21c24","id":74342144,"location_subtype":"","month":"2019-05"},{"category":"shoplifting","location_type":"Force","location":{"latitude":"51.509456","street":{"id":958117,"name":"On or near Supermarket"},"longitude":"-0.325066"},"context":"","outcome_status":{"category":"Status update unavailable","date":"2019-09"},"persistent_id":"02de3aa8fccdf22b5cf03191e0c919a48ac412e0362ea09a77d50fc0d74826e0","id":74347562,"location_subtype":"","month":"2019-05"},{"category":"shoplifting","location_type":"Force","location":{"latitude":"51.502284","street":{"id":951979,"name":"On or near Petrol Station"},"longitude":"-0.306570"},"context":"","outcome_status":{"category":"Status update unavailable","date":"2019-09"},"persistent_id":"a7b11b0989aa1773f676904ad261c7b6a8a42d2fdacb4a96dc1f2197f00d676f","id":74323212,"location_subtype":"","month":"2019-05"},{"category":"shoplifting","location_type":"Force","location":{"latitude":"51.500954","street":{"id":951734,"name":"On or near Shopping Area"},"longitude":"-0.339959"},"context":"","outcome_status":{"category":"Status update unavailable","date":"2019-09"},"persistent_id":"0f539c28b871a69a706a1b01865cfd1a88cf17ca17f6c59d27c003da7e4ef459","id":74330103,"location_subtype":"","month":"2019-05"},{"category":"shoplifting","location_type":"Force","location":{"latitude":"51.502284","street":{"id":951979,"name":"On or near Petrol Station"},"longitude":"-0.306570"},"context":"","outcome_status":{"category":"Status update unavailable","date":"2019-09"},"persistent_id":"2a803fb0b098103b4f28fc7b933832af0b8145f4a5c8dee429dee8d3618eb3ce","id":74317024,"location_subtype":"","month":"2019-05"},{"category":"shoplifting","location_type":"Force","location":{"latitude":"51.510138","street":{"id":958116,"name":"On or near Broadway"},"longitude":"-0.324335"},"context":"","outcome_status":{"category":"Status update unavailable","date":"2019-09"},"persistent_id":"21c157b3a8450ed02e6656d81be35db99580ca65a6e85124317e5e54d094b49c","id":74348943,"location_subtype":"","month":"2019-05"},{"category":"shoplifting","location_type":"Force","location":{"latitude":"51.500954","street":{"id":951734,"name":"On or near Shopping Area"},"longitude":"-0.339959"},"context":"","outcome_status":{"category":"Status update unavailable","date":"2019-09"},"persistent_id":"43cbdcfffabfea2733b6d818d794e4fb732d78adde63295b4cc7a54af21a92d2","id":74323599,"location_subtype":"","month":"2019-05"},{"category":"shoplifting","location_type":"Force","location":{"latitude":"51.508009","street":{"id":951882,"name":"On or near Jessamine Road"},"longitude":"-0.337123"},"context":"","outcome_status":{"category":"Status update unavailable","date":"2019-09"},"persistent_id":"7ab8d9321289376a305225fdc8cd5de0f14925a7a711641766a8d14cc6a3cb68","id":74363745,"location_subtype":"","month":"2019-05"},{"category":"shoplifting","location_type":"Force","location":{"latitude":"51.504244","street":{"id":951871,"name":"On or near Petrol Station"},"longitude":"-0.333514"},"context":"","outcome_status":{"category":"Status update unavailable","date":"2019-09"},"persistent_id":"d1af5d5fea0da564ce2ed1b87f80d46236a5572646fb45a2c0870a1ebf8c76be","id":74370648,"location_subtype":"","month":"2019-05"},{"category":"theft-from-the-person","location_type":"Force","location":{"latitude":"51.497466","street":{"id":952034,"name":"On or near South Road"},"longitude":"-0.304198"},"context":"","outcome_status":{"category":"Status update unavailable","date":"2019-09"},"persistent_id":"aa1360a9b96eac24f96d266fe5553261c5263af22ef887efb31558a1a662bf1f","id":74369557,"location_subtype":"","month":"2019-05"},{"category":"theft-from-the-person","location_type":"Force","location":{"latitude":"51.484410","street":{"id":950998,"name":"On or near Syon Lane"},"longitude":"-0.331198"},"context":"","outcome_status":{"category":"Status update unavailable","date":"2019-09"},"persistent_id":"22a597f25fd529b4a2c2d32bfc627de1d64f5af91a88324fc36f8e5776aafbe7","id":74340619,"location_subtype":"","month":"2019-05"},{"category":"theft-from-the-person","location_type":"Force","location":{"latitude":"51.504572","street":{"id":952042,"name":"On or near Felton Road"},"longitude":"-0.314958"},"context":"","outcome_status":{"category":"Status update unavailable","date":"2019-09"},"persistent_id":"8648f0ee8787e093d3fbddfa22d04532fef36641d955ad6a52935cecc9ca5e8d","id":74299665,"location_subtype":"","month":"2019-05"},{"category":"theft-from-the-person","location_type":"BTP","location":{"latitude":"51.499400","street":{"id":1488731,"name":"Northfields (lu Station)"},"longitude":"-0.314137"},"context":"","outcome_status":{"category":"Status update unavailable","date":"2019-09"},"persistent_id":"","id":88717121,"location_subtype":"LU STATION","month":"2019-05"},{"category":"theft-from-the-person","location_type":"BTP","location":{"latitude":"51.495800","street":{"id":1488710,"name":"Boston Manor (lu Station)"},"longitude":"-0.324817"},"context":"","outcome_status":{"category":"Status update unavailable","date":"2019-09"},"persistent_id":"","id":88717872,"location_subtype":"LU STATION","month":"2019-05"},{"category":"theft-from-the-person","location_type":"BTP","location":{"latitude":"51.495800","street":{"id":1488710,"name":"Boston Manor (lu Station)"},"longitude":"-0.324817"},"context":"","outcome_status":{"category":"Status update unavailable","date":"2019-09"},"persistent_id":"","id":88717873,"location_subtype":"LU STATION","month":"2019-05"},{"category":"theft-from-the-person","location_type":"Force","location":{"latitude":"51.500954","street":{"id":951734,"name":"On or near Shopping Area"},"longitude":"-0.339959"},"context":"","outcome_status":{"category":"Investigation complete; no suspect identified","date":"2020-04"},"persistent_id":"b208cf69a50309ab3c1ae644a4d3fb22e9d95196facbd27bb4542d4b193b8331","id":74338734,"location_subtype":"","month":"2019-05"},{"category":"theft-from-the-person","location_type":"Force","location":{"latitude":"51.498981","street":{"id":951949,"name":"On or near Northfield Avenue"},"longitude":"-0.314501"},"context":"","outcome_status":{"category":"Status update unavailable","date":"2019-09"},"persistent_id":"b3cca4d843c34cb1e58b2ba6dca488692c2e3e3d95d2b6cfda9597f531af7bd2","id":74313727,"location_subtype":"","month":"2019-05"},{"category":"theft-from-the-person","location_type":"Force","location":{"latitude":"51.509873","street":{"id":958111,"name":"On or near Leeland Road"},"longitude":"-0.323452"},"context":"","outcome_status":{"category":"Status update unavailable","date":"2019-09"},"persistent_id":"a840d39adface09275cc1bb94501ffe1ce2782b86401a656a8996fbb68f43a37","id":74322456,"location_subtype":"","month":"2019-05"},{"category":"vehicle-crime","location_type":"Force","location":{"latitude":"51.490978","street":{"id":950869,"name":"On or near Eastbourne Road"},"longitude":"-0.308271"},"context":"","outcome_status":{"category":"Status update unavailable","date":"2019-09"},"persistent_id":"91551e288ade348be397b6e7c980942f639a9f8bcfc2860726a03169e826f9ae","id":74333818,"location_subtype":"","month":"2019-05"},{"category":"vehicle-crime","location_type":"Force","location":{"latitude":"51.484382","street":{"id":950993,"name":"On or near Shopping Area"},"longitude":"-0.319835"},"context":"","outcome_status":{"category":"Status update unavailable","date":"2019-09"},"persistent_id":"814d4c223520085b427ab3e71fbffc836e99298a6b5dbd6fe5061da493f5167a","id":74304829,"location_subtype":"","month":"2019-05"},{"category":"vehicle-crime","location_type":"Force","location":{"latitude":"51.500923","street":{"id":951785,"name":"On or near Mervyn Road"},"longitude":"-0.323218"},"context":"","outcome_status":{"category":"Status update unavailable","date":"2019-09"},"persistent_id":"d72f0870a2ee5c9c438a62fc3fce86c265b5f0ab2b733da5994936976dcdd52a","id":74292638,"location_subtype":"","month":"2019-05"},{"category":"vehicle-crime","location_type":"Force","location":{"latitude":"51.487607","street":{"id":950976,"name":"On or near Sports\/recreation Area"},"longitude":"-0.332147"},"context":"","outcome_status":{"category":"Status update unavailable","date":"2019-09"},"persistent_id":"1385ef1a28cbeeb74a35d5d15d017f5dea7c354204e59fd94bbe0f8e0c36551f","id":74297527,"location_subtype":"","month":"2019-05"},{"category":"vehicle-crime","location_type":"Force","location":{"latitude":"51.504361","street":{"id":952001,"name":"On or near Elers Road"},"longitude":"-0.313380"},