[{"category":"anti-social-behaviour","location_type":"Force","location":{"latitude":"51.447915","street":{"id":939755,"name":"On or near Hanson Close"},"longitude":"-0.147126"},"context":"","outcome_status":null,"persistent_id":"","id":74269901,"location_subtype":"","month":"2019-05"},{"category":"anti-social-behaviour","location_type":"Force","location":{"latitude":"51.431345","street":{"id":937660,"name":"On or near Franciscan Road"},"longitude":"-0.153609"},"context":"","outcome_status":null,"persistent_id":"","id":74269949,"location_subtype":"","month":"2019-05"},{"category":"anti-social-behaviour","location_type":"Force","location":{"latitude":"51.430486","street":{"id":937504,"name":"On or near Rambler Close"},"longitude":"-0.144220"},"context":"","outcome_status":null,"persistent_id":"","id":74269880,"location_subtype":"","month":"2019-05"},{"category":"anti-social-behaviour","location_type":"Force","location":{"latitude":"51.431345","street":{"id":937660,"name":"On or near Franciscan Road"},"longitude":"-0.153609"},"context":"","outcome_status":null,"persistent_id":"","id":74269950,"location_subtype":"","month":"2019-05"},{"category":"anti-social-behaviour","location_type":"Force","location":{"latitude":"51.446910","street":{"id":939584,"name":"On or near Caistor Road"},"longitude":"-0.150146"},"context":"","outcome_status":null,"persistent_id":"","id":74269935,"location_subtype":"","month":"2019-05"},{"category":"anti-social-behaviour","location_type":"Force","location":{"latitude":"51.444433","street":{"id":939575,"name":"On or near Hildreth Street"},"longitude":"-0.151009"},"context":"","outcome_status":null,"persistent_id":"","id":74269943,"location_subtype":"","month":"2019-05"},{"category":"anti-social-behaviour","location_type":"Force","location":{"latitude":"51.440278","street":{"id":939673,"name":"On or near Cheriton Square"},"longitude":"-0.152155"},"context":"","outcome_status":null,"persistent_id":"","id":74269952,"location_subtype":"","month":"2019-05"},{"category":"anti-social-behaviour","location_type":"Force","location":{"latitude":"51.446910","street":{"id":939584,"name":"On or near Caistor Road"},"longitude":"-0.150146"},"context":"","outcome_status":null,"persistent_id":"","id":74269934,"location_subtype":"","month":"2019-05"},{"category":"anti-social-behaviour","location_type":"Force","location":{"latitude":"51.440278","street":{"id":939673,"name":"On or near Cheriton Square"},"longitude":"-0.152155"},"context":"","outcome_status":null,"persistent_id":"","id":74269953,"location_subtype":"","month":"2019-05"},{"category":"anti-social-behaviour","location_type":"Force","location":{"latitude":"51.443923","street":{"id":939591,"name":"On or near Shopping Area"},"longitude":"-0.152886"},"context":"","outcome_status":null,"persistent_id":"","id":74269955,"location_subtype":"","month":"2019-05"},{"category":"anti-social-behaviour","location_type":"Force","location":{"latitude":"51.443923","street":{"id":939591,"name":"On or near Shopping Area"},"longitude":"-0.152886"},"context":"","outcome_status":null,"persistent_id":"","id":74269956,"location_subtype":"","month":"2019-05"},{"category":"anti-social-behaviour","location_type":"Force","location":{"latitude":"51.446910","street":{"id":939584,"name":"On or near Caistor Road"},"longitude":"-0.150146"},"context":"","outcome_status":null,"persistent_id":"","id":74269933,"location_subtype":"","month":"2019-05"},{"category":"anti-social-behaviour","location_type":"Force","location":{"latitude":"51.446910","street":{"id":939584,"name":"On or near Caistor Road"},"longitude":"-0.150146"},"context":"","outcome_status":null,"persistent_id":"","id":74269932,"location_subtype":"","month":"2019-05"},{"category":"anti-social-behaviour","location_type":"Force","location":{"latitude":"51.443923","street":{"id":939591,"name":"On or near Shopping Area"},"longitude":"-0.152886"},"context":"","outcome_status":null,"persistent_id":"","id":74269957,"location_subtype":"","month":"2019-05"},{"category":"anti-social-behaviour","location_type":"Force","location":{"latitude":"51.443923","street":{"id":939591,"name":"On or near Shopping Area"},"longitude":"-0.152886"},"context":"","outcome_status":null,"persistent_id":"","id":74269958,"location_subtype":"","month":"2019-05"},{"category":"anti-social-behaviour","location_type":"Force","location":{"latitude":"51.443923","street":{"id":939591,"name":"On or near Shopping Area"},"longitude":"-0.152886"},"context":"","outcome_status":null,"persistent_id":"","id":74269959,"location_subtype":"","month":"2019-05"},{"category":"anti-social-behaviour","location_type":"Force","location":{"latitude":"51.446910","street":{"id":939584,"name":"On or near Caistor Road"},"longitude":"-0.150146"},"context":"","outcome_status":null,"persistent_id":"","id":74269931,"location_subtype":"","month":"2019-05"},{"category":"anti-social-behaviour","location_type":"Force","location":{"latitude":"51.443819","street":{"id":939588,"name":"On or near Bedford Hill"},"longitude":"-0.150285"},"context":"","outcome_status":null,"persistent_id":"","id":74269926,"location_subtype":"","month":"2019-05"},{"category":"anti-social-behaviour","location_type":"Force","location":{"latitude":"51.439213","street":{"id":937684,"name":"On or near Foxbourne Road"},"longitude":"-0.152442"},"context":"","outcome_status":null,"persistent_id":"","id":74269962,"location_subtype":"","month":"2019-05"},{"category":"anti-social-behaviour","location_type":"Force","location":{"latitude":"51.431345","street":{"id":937660,"name":"On or near Franciscan Road"},"longitude":"-0.153609"},"context":"","outcome_status":null,"persistent_id":"","id":74269963,"location_subtype":"","month":"2019-05"},{"category":"anti-social-behaviour","location_type":"Force","location":{"latitude":"51.445090","street":{"id":939577,"name":"On or near Harberson Road"},"longitude":"-0.149932"},"context":"","outcome_status":null,"persistent_id":"","id":74269924,"location_subtype":"","month":"2019-05"},{"category":"anti-social-behaviour","location_type":"Force","location":{"latitude":"51.441916","street":{"id":939663,"name":"On or near Ravenstone Street"},"longitude":"-0.152794"},"context":"","outcome_status":null,"persistent_id":"","id":74269971,"location_subtype":"","month":"2019-05"},{"category":"anti-social-behaviour","location_type":"Force","location":{"latitude":"51.430132","street":{"id":937705,"name":"On or near Molyneux Drive"},"longitude":"-0.151974"},"context":"","outcome_status":null,"persistent_id":"","id":74269944,"location_subtype":"","month":"2019-05"},{"category":"anti-social-behaviour","location_type":"Force","location":{"latitude":"51.430749","street":{"id":937657,"name":"On or near Macmillan Way"},"longitude":"-0.150612"},"context":"","outcome_status":null,"persistent_id":"","id":74269922,"location_subtype":"","month":"2019-05"},{"category":"anti-social-behaviour","location_type":"Force","location":{"latitude":"51.436482","street":{"id":937517,"name":"On or near Bushnell Road"},"longitude":"-0.149790"},"context":"","outcome_status":null,"persistent_id":"","id":74269918,"location_subtype":"","month":"2019-05"},{"category":"anti-social-behaviour","location_type":"Force","location":{"latitude":"51.445638","street":{"id":939582,"name":"On or near Chestnut Grove"},"longitude":"-0.154989"},"context":"","outcome_status":null,"persistent_id":"","id":74269974,"location_subtype":"","month":"2019-05"},{"category":"anti-social-behaviour","location_type":"Force","location":{"latitude":"51.448514","street":{"id":939564,"name":"On or near Ramsden Road"},"longitude":"-0.154355"},"context":"","outcome_status":null,"persistent_id":"","id":74269975,"location_subtype":"","month":"2019-05"},{"category":"anti-social-behaviour","location_type":"Force","location":{"latitude":"51.431219","street":{"id":937656,"name":"On or near Topsham Road"},"longitude":"-0.156491"},"context":"","outcome_status":null,"persistent_id":"","id":74270145,"location_subtype":"","month":"2019-05"},{"category":"anti-social-behaviour","location_type":"Force","location":{"latitude":"51.447824","street":{"id":939573,"name":"On or near Lochinvar Street"},"longitude":"-0.150512"},"context":"","outcome_status":null,"persistent_id":"","id":74269941,"location_subtype":"","month":"2019-05"},{"category":"anti-social-behaviour","location_type":"Force","location":{"latitude":"51.431219","street":{"id":937656,"name":"On or near Topsham Road"},"longitude":"-0.156491"},"context":"","outcome_status":null,"persistent_id":"","id":74270146,"location_subtype":"","month":"2019-05"},{"category":"anti-social-behaviour","location_type":"Force","location":{"latitude":"51.440304","street":{"id":939676,"name":"On or near Balham High Road"},"longitude":"-0.155478"},"context":"","outcome_status":null,"persistent_id":"","id":74270147,"location_subtype":"","month":"2019-05"},{"category":"anti-social-behaviour","location_type":"Force","location":{"latitude":"51.430167","street":{"id":937715,"name":"On or near Franciscan Road"},"longitude":"-0.156519"},"context":"","outcome_status":null,"persistent_id":"","id":74270151,"location_subtype":"","month":"2019-05"},{"category":"anti-social-behaviour","location_type":"Force","location":{"latitude":"51.446910","street":{"id":939584,"name":"On or near Caistor Road"},"longitude":"-0.150146"},"context":"","outcome_status":null,"persistent_id":"","id":74269936,"location_subtype":"","month":"2019-05"},{"category":"anti-social-behaviour","location_type":"Force","location":{"latitude":"51.447266","street":{"id":939581,"name":"On or near Churchcroft Close"},"longitude":"-0.155039"},"context":"","outcome_status":null,"persistent_id":"","id":74270155,"location_subtype":"","month":"2019-05"},{"category":"anti-social-behaviour","location_type":"Force","location":{"latitude":"51.441265","street":{"id":939662,"name":"On or near Rowfant Road"},"longitude":"-0.157166"},"context":"","outcome_status":null,"persistent_id":"","id":74270157,"location_subtype":"","month":"2019-05"},{"category":"anti-social-behaviour","location_type":"Force","location":{"latitude":"51.434505","street":{"id":937678,"name":"On or near Netherfield Road"},"longitude":"-0.157265"},"context":"","outcome_status":null,"persistent_id":"","id":74270159,"location_subtype":"","month":"2019-05"},{"category":"anti-social-behaviour","location_type":"Force","location":{"latitude":"51.445315","street":{"id":939562,"name":"On or near Tantallon Road"},"longitude":"-0.157319"},"context":"","outcome_status":null,"persistent_id":"","id":74270160,"location_subtype":"","month":"2019-05"},{"category":"anti-social-behaviour","location_type":"Force","location":{"latitude":"51.448350","street":{"id":939571,"name":"On or near Nightingale Square"},"longitude":"-0.156521"},"context":"","outcome_status":null,"persistent_id":"","id":74270161,"location_subtype":"","month":"2019-05"},{"category":"anti-social-behaviour","location_type":"Force","location":{"latitude":"51.448350","street":{"id":939571,"name":"On or near Nightingale Square"},"longitude":"-0.156521"},"context":"","outcome_status":null,"persistent_id":"","id":74270162,"location_subtype":"","month":"2019-05"},{"category":"anti-social-behaviour","location_type":"Force","location":{"latitude":"51.446249","street":{"id":939579,"name":"On or near Fernside Road"},"longitude":"-0.158433"},"context":"","outcome_status":null,"persistent_id":"","id":74270164,"location_subtype":"","month":"2019-05"},{"category":"anti-social-behaviour","location_type":"Force","location":{"latitude":"51.436848","street":{"id":937691,"name":"On or near Chetwode Road"},"longitude":"-0.159876"},"context":"","outcome_status":null,"persistent_id":"","id":74270169,"location_subtype":"","month":"2019-05"},{"category":"anti-social-behaviour","location_type":"Force","location":{"latitude":"51.436848","street":{"id":937691,"name":"On or near Chetwode Road"},"longitude":"-0.159876"},"context":"","outcome_status":null,"persistent_id":"","id":74270170,"location_subtype":"","month":"2019-05"},{"category":"anti-social-behaviour","location_type":"Force","location":{"latitude":"51.438176","street":{"id":937671,"name":"On or near Trinity Crescent"},"longitude":"-0.159722"},"context":"","outcome_status":null,"persistent_id":"","id":74270171,"location_subtype":"","month":"2019-05"},{"category":"anti-social-behaviour","location_type":"Force","location":{"latitude":"51.451073","street":{"id":939602,"name":"On or near Sudbrooke Road"},"longitude":"-0.158642"},"context":"","outcome_status":null,"persistent_id":"","id":74270172,"location_subtype":"","month":"2019-05"},{"category":"anti-social-behaviour","location_type":"Force","location":{"latitude":"51.445090","street":{"id":939577,"name":"On or near Harberson Road"},"longitude":"-0.149932"},"context":"","outcome_status":null,"persistent_id":"","id":74269917,"location_subtype":"","month":"2019-05"},{"category":"anti-social-behaviour","location_type":"Force","location":{"latitude":"51.442115","street":{"id":939661,"name":"On or near Sarsfeld Road"},"longitude":"-0.160887"},"context":"","outcome_status":null,"persistent_id":"","id":74270181,"location_subtype":"","month":"2019-05"},{"category":"anti-social-behaviour","location_type":"Force","location":{"latitude":"51.430788","street":{"id":937614,"name":"On or near Blakenham Road"},"longitude":"-0.161673"},"context":"","outcome_status":null,"persistent_id":"","id":74270182,"location_subtype":"","month":"2019-05"},{"category":"anti-social-behaviour","location_type":"Force","location":{"latitude":"51.447064","street":{"id":923986,"name":"On or near Airedale Road"},"longitude":"-0.160516"},"context":"","outcome_status":null,"persistent_id":"","id":74270186,"location_subtype":"","month":"2019-05"},{"category":"anti-social-behaviour","location_type":"Force","location":{"latitude":"51.455822","street":{"id":942909,"name":"On or near Chatto Road"},"longitude":"-0.160451"},"context":"","outcome_status":null,"persistent_id":"","id":74270187,"location_subtype":"","month":"2019-05"},{"category":"anti-social-behaviour","location_type":"Force","location":{"latitude":"51.431640","street":{"id":937607,"name":"On or near Lessingham Avenue"},"longitude":"-0.162646"},"context":"","outcome_status":null,"persistent_id":"","id":74270189,"location_subtype":"","month":"2019-05"},{"category":"anti-social-behaviour","location_type":"Force","location":{"latitude":"51.435153","street":{"id":937668,"name":"On or near Upper Tooting Road"},"longitude":"-0.160764"},"context":"","outcome_status":null,"persistent_id":"","id":74270192,"location_subtype":"","month":"2019-05"},{"category":"anti-social-behaviour","location_type":"Force","location":{"latitude":"51.438182","street":{"id":937651,"name":"On or near Police Station"},"longitude":"-0.162398"},"context":"","outcome_status":null,"persistent_id":"","id":74270193,"location_subtype":"","month":"2019-05"},{"category":"anti-social-behaviour","location_type":"Force","location":{"latitude":"51.450113","street":{"id":939631,"name":"On or near Hendrick Avenue"},"longitude":"-0.161660"},"context":"","outcome_status":null,"persistent_id":"","id":74270194,"location_subtype":"","month":"2019-05"},{"category":"anti-social-behaviour","location_type":"Force","location":{"latitude":"51.450113","street":{"id":939631,"name":"On or near Hendrick Avenue"},"longitude":"-0.161660"},"context":"","outcome_status":null,"persistent_id":"","id":74270195,"location_subtype":"","month":"2019-05"},{"category":"anti-social-behaviour","location_type":"Force","location":{"latitude":"51.442761","street":{"id":939649,"name":"On or near Old Hospital Close"},"longitude":"-0.163667"},"context":"","outcome_status":null,"persistent_id":"","id":74270196,"location_subtype":"","month":"2019-05"},{"category":"anti-social-behaviour","location_type":"Force","location":{"latitude":"51.433254","street":{"id":937622,"name":"On or near Price Close"},"longitude":"-0.164120"},"context":"","outcome_status":null,"persistent_id":"","id":74270197,"location_subtype":"","month":"2019-05"},{"category":"anti-social-behaviour","location_type":"Force","location":{"latitude":"51.433254","street":{"id":937622,"name":"On or near Price Close"},"longitude":"-0.164120"},"context":"","outcome_status":null,"persistent_id":"","id":74270200,"location_subtype":"","month":"2019-05"},{"category":"anti-social-behaviour","location_type":"Force","location":{"latitude":"51.433254","street":{"id":937622,"name":"On or near Price Close"},"longitude":"-0.164120"},"context":"","outcome_status":null,"persistent_id":"","id":74270208,"location_subtype":"","month":"2019-05"},{"category":"anti-social-behaviour","location_type":"Force","location":{"latitude":"51.438353","street":{"id":937639,"name":"On or near Crockerton Road"},"longitude":"-0.165268"},"context":"","outcome_status":null,"persistent_id":"","id":74270222,"location_subtype":"","month":"2019-05"},{"category":"anti-social-behaviour","location_type":"Force","location":{"latitude":"51.438919","street":{"id":937638,"name":"On or near Dalebury Road"},"longitude":"-0.165807"},"context":"","outcome_status":null,"persistent_id":"","id":74270223,"location_subtype":"","month":"2019-05"},{"category":"anti-social-behaviour","location_type":"Force","location":{"latitude":"51.447196","street":{"id":939428,"name":"On or near Routh Road"},"longitude":"-0.171232"},"context":"","outcome_status":null,"persistent_id":"","id":74270475,"location_subtype":"","month":"2019-05"},{"category":"anti-social-behaviour","location_type":"Force","location":{"latitude":"51.447196","street":{"id":939428,"name":"On or near Routh Road"},"longitude":"-0.171232"},"context":"","outcome_status":null,"persistent_id":"","id":74270476,"location_subtype":"","month":"2019-05"},{"category":"anti-social-behaviour","location_type":"Force","location":{"latitude":"51.442635","street":{"id":939537,"name":"On or near Collamore Avenue"},"longitude":"-0.172277"},"context":"","outcome_status":null,"persistent_id":"","id":74270497,"location_subtype":"","month":"2019-05"},{"category":"anti-social-behaviour","location_type":"Force","location":{"latitude":"51.449063","street":{"id":939430,"name":"On or near Nicosia Road"},"longitude":"-0.171589"},"context":"","outcome_status":null,"persistent_id":"","id":74270498,"location_subtype":"","month":"2019-05"},{"category":"anti-social-behaviour","location_type":"Force","location":{"latitude":"51.447653","street":{"id":939705,"name":"On or near Atkins Road"},"longitude":"-0.131191"},"context":"","outcome_status":null,"persistent_id":"","id":74275875,"location_subtype":"","month":"2019-05"},{"category":"anti-social-behaviour","location_type":"Force","location":{"latitude":"51.441084","street":{"id":939817,"name":"On or near Criffel Avenue"},"longitude":"-0.131474"},"context":"","outcome_status":null,"persistent_id":"","id":74275888,"location_subtype":"","month":"2019-05"},{"category":"anti-social-behaviour","location_type":"Force","location":{"latitude":"51.443550","street":{"id":939684,"name":"On or near Thornton Avenue"},"longitude":"-0.133316"},"context":"","outcome_status":null,"persistent_id":"","id":74275895,"location_subtype":"","month":"2019-05"},{"category":"anti-social-behaviour","location_type":"Force","location":{"latitude":"51.437569","street":{"id":937543,"name":"On or near Dingley Lane"},"longitude":"-0.133257"},"context":"","outcome_status":null,"persistent_id":"","id":74275911,"location_subtype":"","month":"2019-05"},{"category":"anti-social-behaviour","location_type":"Force","location":{"latitude":"51.449563","street":{"id":939723,"name":"On or near Headlam Road"},"longitude":"-0.133128"},"context":"","outcome_status":null,"persistent_id":"","id":74275913,"location_subtype":"","month":"2019-05"},{"category":"anti-social-behaviour","location_type":"Force","location":{"latitude":"51.453308","street":{"id":942744,"name":"On or near Rodenhurst Road"},"longitude":"-0.136228"},"context":"","outcome_status":null,"persistent_id":"","id":74275939,"location_subtype":"","month":"2019-05"},{"category":"anti-social-behaviour","location_type":"Force","location":{"latitude":"51.436219","street":{"id":937551,"name":"On or near Abbotswood Road"},"longitude":"-0.137715"},"context":"","outcome_status":null,"persistent_id":"","id":74275947,"location_subtype":"","month":"2019-05"},{"category":"anti-social-behaviour","location_type":"Force","location":{"latitude":"51.444180","street":{"id":939693,"name":"On or near Midmoor Road"},"longitude":"-0.139017"},"context":"","outcome_status":null,"persistent_id":"","id":74275966,"location_subtype":"","month":"2019-05"},{"category":"anti-social-behaviour","location_type":"Force","location":{"latitude":"51.450258","street":{"id":939714,"name":"On or near Poynders Road"},"longitude":"-0.139490"},"context":"","outcome_status":null,"persistent_id":"","id":74275969,"location_subtype":"","month":"2019-05"},{"category":"anti-social-behaviour","location_type":"Force","location":{"latitude":"51.453741","street":{"id":942743,"name":"On or near Shandon Road"},"longitude":"-0.139708"},"context":"","outcome_status":null,"persistent_id":"","id":74275977,"location_subtype":"","month":"2019-05"},{"category":"anti-social-behaviour","location_type":"Force","location":{"latitude":"51.449430","street":{"id":939775,"name":"On or near Honeybrook Road"},"longitude":"-0.141164"},"context":"","outcome_status":null,"persistent_id":"","id":74275978,"location_subtype":"","month":"2019-05"},{"category":"anti-social-behaviour","location_type":"Force","location":{"latitude":"51.450258","street":{"id":939714,"name":"On or near Poynders Road"},"longitude":"-0.139490"},"context":"","outcome_status":null,"persistent_id":"","id":74275980,"location_subtype":"","month":"2019-05"},{"category":"anti-social-behaviour","location_type":"Force","location":{"latitude":"51.445985","street":{"id":939730,"name":"On or near Weir Road"},"longitude":"-0.141088"},"context":"","outcome_status":null,"persistent_id":"","id":74275981,"location_subtype":"","month":"2019-05"},{"category":"anti-social-behaviour","location_type":"Force","location":{"latitude":"51.445254","street":{"id":939738,"name":"On or near Hydethorpe Road"},"longitude":"-0.140413"},"context":"","outcome_status":null,"persistent_id":"","id":74275982,"location_subtype":"","month":"2019-05"},{"category":"anti-social-behaviour","location_type":"Force","location":{"latitude":"51.450879","street":{"id":939772,"name":"On or near Poynders Road"},"longitude":"-0.141811"},"context":"","outcome_status":null,"persistent_id":"","id":74275983,"location_subtype":"","month":"2019-05"},{"category":"anti-social-behaviour","location_type":"Force","location":{"latitude":"51.446315","street":{"id":939733,"name":"On or near Molly Huggins Close"},"longitude":"-0.141507"},"context":"","outcome_status":null,"persistent_id":"","id":74275985,"location_subtype":"","month":"2019-05"},{"category":"anti-social-behaviour","location_type":"Force","location":{"latitude":"51.446315","street":{"id":939733,"name":"On or near Molly Huggins Close"},"longitude":"-0.141507"},"context":"","outcome_status":null,"persistent_id":"","id":74275986,"location_subtype":"","month":"2019-05"},{"category":"anti-social-behaviour","location_type":"Force","location":{"latitude":"51.451067","street":{"id":939782,"name":"On or near Cavendish Road"},"longitude":"-0.142307"},"context":"","outcome_status":null,"persistent_id":"","id":74275989,"location_subtype":"","month":"2019-05"},{"category":"anti-social-behaviour","location_type":"Force","location":{"latitude":"51.451067","street":{"id":939782,"name":"On or near Cavendish Road"},"longitude":"-0.142307"},"context":"","outcome_status":null,"persistent_id":"","id":74275990,"location_subtype":"","month":"2019-05"},{"category":"anti-social-behaviour","location_type":"Force","location":{"latitude":"51.449184","street":{"id":939781,"name":"On or near Dagnan Road"},"longitude":"-0.143837"},"context":"","outcome_status":null,"persistent_id":"","id":74275991,"location_subtype":"","month":"2019-05"},{"category":"anti-social-behaviour","location_type":"Force","location":{"latitude":"51.451615","street":{"id":939776,"name":"On or near Hazelbourne Road"},"longitude":"-0.145120"},"context":"","outcome_status":null,"persistent_id":"","id":74275995,"location_subtype":"","month":"2019-05"},{"category":"anti-social-behaviour","location_type":"Force","location":{"latitude":"51.451615","street":{"id":939776,"name":"On or near Hazelbourne Road"},"longitude":"-0.145120"},"context":"","outcome_status":null,"persistent_id":"","id":74275996,"location_subtype":"","month":"2019-05"},{"category":"anti-social-behaviour","location_type":"Force","location":{"latitude":"51.454514","street":{"id":942768,"name":"On or near Lessar Avenue"},"longitude":"-0.143664"},"context":"","outcome_status":null,"persistent_id":"","id":74275998,"location_subtype":"","month":"2019-05"},{"category":"anti-social-behaviour","location_type":"Force","location":{"latitude":"51.454514","street":{"id":942768,"name":"On or near Lessar Avenue"},"longitude":"-0.143664"},"context":"","outcome_status":null,"persistent_id":"","id":74275999,"location_subtype":"","month":"2019-05"},{"category":"anti-social-behaviour","location_type":"Force","location":{"latitude":"51.437226","street":{"id":937512,"name":"On or near Veronica Road"},"longitude":"-0.148465"},"context":"","outcome_status":null,"persistent_id":"","id":74269916,"location_subtype":"","month":"2019-05"},{"category":"anti-social-behaviour","location_type":"Force","location":{"latitude":"51.450342","street":{"id":939761,"name":"On or near Hillgate Place"},"longitude":"-0.148208"},"context":"","outcome_status":null,"persistent_id":"","id":74269907,"location_subtype":"","month":"2019-05"},{"category":"anti-social-behaviour","location_type":"Force","location":{"latitude":"51.450143","street":{"id":939763,"name":"On or near Clarence Mews"},"longitude":"-0.148705"},"context":"","outcome_status":null,"persistent_id":"","id":74269914,"location_subtype":"","month":"2019-05"},{"category":"anti-social-behaviour","location_type":"Force","location":{"latitude":"51.448507","street":{"id":939748,"name":"On or near Royal Duchess Mews"},"longitude":"-0.147635"},"context":"","outcome_status":null,"persistent_id":"","id":74269913,"location_subtype":"","month":"2019-05"},{"category":"anti-social-behaviour","location_type":"Force","location":{"latitude":"51.447196","street":{"id":939428,"name":"On or near Routh Road"},"longitude":"-0.171232"},"context":"","outcome_status":null,"persistent_id":"","id":74270477,"location_subtype":"","month":"2019-05"},{"category":"anti-social-behaviour","location_type":"Force","location":{"latitude":"51.448507","street":{"id":939748,"name":"On or near Royal Duchess Mews"},"longitude":"-0.147635"},"context":"","outcome_status":null,"persistent_id":"","id":74269912,"location_subtype":"","month":"2019-05"},{"category":"anti-social-behaviour","location_type":"Force","location":{"latitude":"51.448507","street":{"id":939748,"name":"On or near Royal Duchess Mews"},"longitude":"-0.147635"},"context":"","outcome_status":null,"persistent_id":"","id":74269911,"location_subtype":"","month":"2019-05"},{"category":"anti-social-behaviour","location_type":"Force","location":{"latitude":"51.444815","street":{"id":939698,"name":"On or near Fortrose Gardens"},"longitude":"-0.129767"},"context":"","outcome_status":null,"persistent_id":"","id":74275250,"location_subtype":"","month":"2019-05"},{"category":"anti-social-behaviour","location_type":"Force","location":{"latitude":"51.448507","street":{"id":939748,"name":"On or near Royal Duchess Mews"},"longitude":"-0.147635"},"context":"","outcome_status":null,"persistent_id":"","id":74269910,"location_subtype":"","month":"2019-05"},{"category":"anti-social-behaviour","location_type":"Force","location":{"latitude":"51.453020","street":{"id":942762,"name":"On or near Nightingale Lane"},"longitude":"-0.147538"},"context":"","outcome_status":null,"persistent_id":"","id":74269909,"location_subtype":"","month":"2019-05"},{"category":"anti-social-behaviour","location_type":"Force","location":{"latitude":"51.450342","street":{"id":939761,"name":"On or near Hillgate Place"},"longitude":"-0.148208"},"context":"","outcome_status":null,"persistent_id":"","id":74269908,"location_subtype":"","month":"2019-05"},{"category":"anti-social-behaviour","location_type":"Force","location":{"latitude":"51.450342","street":{"id":939761,"name":"On or near Hillgate Place"},"longitude":"-0.148208"},"context":"","outcome_status":null,"persistent_id":"","id":74269906,"location_subtype":"","month":"2019-05"},{"category":"anti-social-behaviour","location_type":"Force","location":{"latitude":"51.450342","street":{"id":939761,"name":"On or near Hillgate Place"},"longitude":"-0.148208"},"context":"","outcome_status":null,"persistent_id":"","id":74269905,"location_subtype":"","month":"2019-05"},{"category":"anti-social-behaviour","location_type":"Force","location":{"latitude":"51.450342","street":{"id":939761,"name":"On or near Hillgate Place"},"longitude":"-0.148208"},"context":"","outcome_status":null,"persistent_id":"","id":74269904,"location_subtype":"","month":"2019-05"},{"category":"anti-social-behaviour","location_type":"Force","location":{"latitude":"51.442635","street":{"id":939537,"name":"On or near Collamore Avenue"},"longitude":"-0.172277"},"context":"","outcome_status":null,"persistent_id":"","id":74270496,"location_subtype":"","month":"2019-05"},{"category":"anti-social-behaviour","location_type":"Force","location":{"latitude":"51.444399","street":{"id":939754,"name":"On or near Laitwood Road"},"longitude":"-0.147153"},"context":"","outcome_status":null,"persistent_id":"","id":74269903,"location_subtype":"","month":"2019-05"},{"category":"anti-social-behaviour","location_type":"Force","location":{"latitude":"51.449011","street":{"id":939587,"name":"On or near Bellamy Street"},"longitude":"-0.151068"},"context":"","outcome_status":null,"persistent_id":"","id":74269923,"location_subtype":"","month":"2019-05"},{"category":"anti-social-behaviour","location_type":"Force","location":{"latitude":"51.449247","street":{"id":939767,"name":"On or near Yukon Road"},"longitude":"-0.146079"},"context":"","outcome_status":null,"persistent_id":"","id":74269898,"location_subtype":"","month":"2019-05"},{"category":"anti-social-behaviour","location_type":"Force","location":{"latitude":"51.436720","street":{"id":937513,"name":"On or near Terrapin Road"},"longitude":"-0.147795"},"context":"","outcome_status":null,"persistent_id":"","id":74269894,"location_subtype":"","month":"2019-05"},{"category":"anti-social-behaviour","location_type":"Force","location":{"latitude":"51.437052","street":{"id":937511,"name":"On or near Bedford Hill"},"longitude":"-0.146012"},"context":"","outcome_status":null,"persistent_id":"","id":74269893,"location_subtype":"","month":"2019-05"},{"category":"anti-social-behaviour","location_type":"Force","location":{"latitude":"51.437052","street":{"id":937511,"name":"On or near Bedford Hill"},"longitude":"-0.146012"},"context":"","outcome_status":null,"persistent_id":"","id":74269892,"location_subtype":"","month":"2019-05"},{"category":"anti-social-behaviour","location_type":"Force","location":{"latitude":"51.435537","street":{"id":937514,"name":"On or near Hillbury Road"},"longitude":"-0.146908"},"context":"","outcome_status":null,"persistent_id":"","id":74269886,"location_subtype":"","month":"2019-05"},{"category":"anti-social-behaviour","location_type":"Force","location":{"latitude":"51.435001","street":{"id":937515,"name":"On or near Elmbourne Road"},"longitude":"-0.149951"},"context":"","outcome_status":null,"persistent_id":"","id":74269946,"location_subtype":"","month":"2019-05"},{"category":"anti-social-behaviour","location_type":"Force","location":{"latitude":"51.435537","street":{"id":937514,"name":"On or near Hillbury Road"},"longitude":"-0.146908"},"context":"","outcome_status":null,"persistent_id":"","id":74269885,"location_subtype":"","month":"2019-05"},{"category":"anti-social-behaviour","location_type":"Force","location":{"latitude":"51.430486","street":{"id":937504,"name":"On or near Rambler Close"},"longitude":"-0.144220"},"context":"","outcome_status":null,"persistent_id":"","id":74269884,"location_subtype":"","month":"2019-05"},{"category":"anti-social-behaviour","location_type":"Force","location":{"latitude":"51.446910","street":{"id":939584,"name":"On or near Caistor Road"},"longitude":"-0.150146"},"context":"","outcome_status":null,"persistent_id":"","id":74269937,"location_subtype":"","month":"2019-05"},{"category":"anti-social-behaviour","location_type":"Force","location":{"latitude":"51.435537","street":{"id":937514,"name":"On or near Hillbury Road"},"longitude":"-0.146908"},"context":"","outcome_status":null,"persistent_id":"","id":74269891,"location_subtype":"","month":"2019-05"},{"category":"bicycle-theft","location_type":"Force","location":{"latitude":"51.434981","street":{"id":937681,"name":"On or near Louisville Road"},"longitude":"-0.155519"},"context":"","outcome_status":{"category":"Status update unavailable","date":"2019-09"},"persistent_id":"891e2e5970d28be8982f6a817615efe988aa44e61e5a681b8b0cee9927fcfbb0","id":74353572,"location_subtype":"","month":"2019-05"},{"category":"bicycle-theft","location_type":"Force","location":{"latitude":"51.456841","street":{"id":942642,"name":"On or near Windmill Drive"},"longitude":"-0.145196"},"context":"","outcome_status":{"category":"Status update unavailable","date":"2019-09"},"persistent_id":"eedba25c1c9a917cd13e6da26beba5924963537e47c69a571036d82a8695f175","id":74329808,"location_subtype":"","month":"2019-05"},{"category":"bicycle-theft","location_type":"Force","location":{"latitude":"51.447534","street":{"id":939736,"name":"On or near Limerick Close"},"longitude":"-0.141270"},"context":"","outcome_status":{"category":"Status update unavailable","date":"2019-09"},"persistent_id":"42fd80145a0ec4dd276e2c972823fc401ca16d08baea786c82ae6dec8d1a0d0e","id":74345823,"location_subtype":"","month":"2019-05"},{"category":"bicycle-theft","location_type":"Force","location":{"latitude":"51.450590","street":{"id":939765,"name":"On or near Petrol Station"},"longitude":"-0.147421"},"context":"","outcome_status":{"category":"Status update unavailable","date":"2019-09"},"persistent_id":"00726333f7466fcdd6ab69fb9d7ca9b17da0a7cd844f841c11d7a8aa741f4a47","id":74367744,"location_subtype":"","month":"2019-05"},{"category":"bicycle-theft","location_type":"Force","location":{"latitude":"51.443059","street":{"id":939647,"name":"On or near Ouseley Road"},"longitude":"-0.161454"},"context":"","outcome_status":{"category":"Status update unavailable","date":"2019-09"},"persistent_id":"16f6b5aa19b18e7248e3e5ae96eb9c3da2db0c6d55be20833000a52a89cf8c1e","id":74302621,"location_subtype":"","month":"2019-05"},{"category":"bicycle-theft","location_type":"Force","location":{"latitude":"51.442455","street":{"id":939669,"name":"On or near Hunter Close"},"longitude":"-0.156772"},"context":"","outcome_status":{"category":"Status update unavailable","date":"2019-09"},"persistent_id":"febe4680033e16b87f416cbe8353f606b16578a163bb2ab5b2af3f35381c44f3","id":74321862,"location_subtype":"","month":"2019-05"},{"category":"bicycle-theft","location_type":"Force","location":{"latitude":"51.446725","street":{"id":939560,"name":"On or near Verran Road"},"longitude":"-0.151520"},"context":"","outcome_status":{"category":"Status update unavailable","date":"2019-09"},"persistent_id":"ebcece67c091257ce545442dfa06bb4e8e18b6b9f01e3ba7579dc58a6705e459","id":74345836,"location_subtype":"","month":"2019-05"},{"category":"bicycle-theft","location_type":"Force","location":{"latitude":"51.448568","street":{"id":939586,"name":"On or near Birchlands Avenue"},"longitude":"-0.160613"},"context":"","outcome_status":{"category":"Status update unavailable","date":"2019-09"},"persistent_id":"0de0e177144f3faf4a22edf53e9768351a5b825dd837a033a96520e69dc671f5","id":74313560,"location_subtype":"","month":"2019-05"},{"category":"bicycle-theft","location_type":"Force","location":{"latitude":"51.441356","street":{"id":939809,"name":"On or near Rastell Avenue"},"longitude":"-0.136139"},"context":"","outcome_status":{"category":"Status update unavailable","date":"2019-09"},"persistent_id":"171e24dac85b164b2f3406035bea766a4fb4c6dfb4a3f4e2a32f8ff2b6a38a9d","id":74337783,"location_subtype":"","month":"2019-05"},{"category":"bicycle-theft","location_type":"Force","location":{"latitude":"51.443817","street":{"id":939641,"name":"On or near Wiseton Road"},"longitude":"-0.166762"},"context":"","outcome_status":{"category":"Status update unavailable","date":"2019-09"},"persistent_id":"b88d4bd0d30ffdbb47abaa76e3717640402ce595d0c4d86ebc69acaaa69de793","id":74297650,"location_subtype":"","month":"2019-05"},{"category":"bicycle-theft","location_type":"Force","location":{"latitude":"51.443213","street":{"id":939659,"name":"On or near Parking Area"},"longitude":"-0.151187"},"context":"","outcome_status":{"category":"Status update unavailable","date":"2019-09"},"persistent_id":"ad7dd70075dadabad6d0a389307acbb768ec7f299391795544165bbfc9c15146","id":74311625,"location_subtype":"","month":"2019-05"},{"category":"bicycle-theft","location_type":"Force","location":{"latitude":"51.435406","street":{"id":937669,"name":"On or near Upper Tooting Road"},"longitude":"-0.160236"},"context":"","outcome_status":{"category":"Status update unavailable","date":"2019-09"},"persistent_id":"e52c29d5b945873740307d562ef942a420fcd558a1c4ec33e1e5b4c69878fb71","id":74294484,"location_subtype":"","month":"2019-05"},{"category":"bicycle-theft","location_type":"Force","location":{"latitude":"51.443798","street":{"id":939592,"name":"On or near Supermarket"},"longitude":"-0.151236"},"context":"","outcome_status":{"category":"Status update unavailable","date":"2019-09"},"persistent_id":"33023ba46ebf55f133fbddc772861c9fcf8002d99c3112bd93fe67a7eb60f7e0","id":74321976,"location_subtype":"","month":"2019-05"},{"category":"bicycle-theft","location_type":"Force","location":{"latitude":"51.445255","street":{"id":939729,"name":"On or near Zennor Road"},"longitude":"-0.144975"},"context":"","outcome_status":{"category":"Status update unavailable","date":"2019-09"},"persistent_id":"944e41f6fd6300b44632f08c347a851239d746700dc348a7b498d3898d24dd14","id":74313496,"location_subtype":"","month":"2019-05"},{"category":"bicycle-theft","location_type":"BTP","location":{"latitude":"51.446400","street":{"id":1488051,"name":"Wandsworth Common (station)"},"longitude":"-0.163247"},"context":"","outcome_status":{"category":"Status update unavailable","date":"2019-09"},"persistent_id":"","id":88718039,"location_subtype":"STATION","month":"2019-05"},{"category":"bicycle-theft","location_type":"Force","location":{"latitude":"51.443819","street":{"id":939588,"name":"On or near Bedford Hill"},"longitude":"-0.150285"},"context":"","outcome_status":{"category":"Status update unavailable","date":"2019-09"},"persistent_id":"a236ef820b7236bd7719c5018c0ad0d49012b81b0072a413b90f39bd071fd3b3","id":74294028,"location_subtype":"","month":"2019-05"},{"category":"bicycle-theft","location_type":"Force","location":{"latitude":"51.441916","street":{"id":939663,"name":"On or near Ravenstone Street"},"longitude":"-0.152794"},"context":"","outcome_status":{"category":"Status update unavailable","date":"2019-09"},"persistent_id":"0e8312b8339d3e7db50a922e166f835d489fb6f3ea7d78d6e204393aef7c30ee","id":74345185,"location_subtype":"","month":"2019-05"},{"category":"bicycle-theft","location_type":"Force","location":{"latitude":"51.449071","street":{"id":939768,"name":"On or near Yukon Road"},"longitude":"-0.144043"},"context":"","outcome_status":{"category":"Status update unavailable","date":"2019-09"},"persistent_id":"dbd9bb29df26503ecd5f042f637a34f1817353e8172a181d61cd0a98f3d292e7","id":74351228,"location_subtype":"","month":"2019-05"},{"category":"bicycle-theft","location_type":"Force","location":{"latitude":"51.443005","street":{"id":939810,"name":"On or near Kirkstall Road"},"longitude":"-0.129611"},"context":"","outcome_status":{"category":"Status update unavailable","date":"2019-09"},"persistent_id":"97a99dccbe480670c3833009eaae25c16c795dc96a620e7667c4107f9f615c8f","id":74344168,"location_subtype":"","month":"2019-05"},{"category":"bicycle-theft","location_type":"Force","location":{"latitude":"51.442958","street":{"id":939671,"name":"On or near Heslop Road"},"longitude":"-0.160119"},"context":"","outcome_status":{"category":"Status update unavailable","date":"2019-09"},"persistent_id":"86568d31c0487fac834a3553d17219ad33d2f1d417bc0d4c7f0d9f1e6f46383b","id":74297648,"location_subtype":"","month":"2019-05"},{"category":"bicycle-theft","location_type":"Force","location":{"latitude":"51.438393","street":{"id":937647,"name":"On or near Beechcroft Road"},"longitude":"-0.167842"},"context":"","outcome_status":{"category":"Status update unavailable","date":"2019-09"},"persistent_id":"c07438c1d3b033cc11dc6d7dda2bdcf45898e149e53f815abcdfafd0e76a835c","id":74347926,"location_subtype":"","month":"2019-05"},{"category":"bicycle-theft","location_type":"Force","location":{"latitude":"51.435406","street":{"id":937669,"name":"On or near Upper Tooting Road"},"longitude":"-0.160236"},"context":"","outcome_status":{"category":"Status update unavailable","date":"2019-09"},"persistent_id":"6d1e7823a9015b06d477dd279607937feee481d57e6a7189b107815ae2f6a069","id":74306256,"location_subtype":"","month":"2019-05"},{"category":"bicycle-theft","location_type":"Force","location":{"latitude":"51.438393","street":{"id":937647,"name":"On or near Beechcroft Road"},"longitude":"-0.167842"},"context":"","outcome_status":{"category":"Status update unavailable","date":"2019-09"},"persistent_id":"c07438c1d3b033cc11dc6d7dda2bdcf45898e149e53f815abcdfafd0e76a835c","id":74347927,"location_subtype":"","month":"2019-05"},{"category":"bicycle-theft","location_type":"Force","location":{"latitude":"51.438393","street":{"id":937647,"name":"On or near Beechcroft Road"},"longitude":"-0.167842"},"context":"","outcome_status":{"category":"Court result unavailable","date":"2020-05"},"persistent_id":"c07438c1d3b033cc11dc6d7dda2bdcf45898e149e53f815abcdfafd0e76a835c","id":74347928,"location_subtype":"","month":"2019-05"},{"category":"bicycle-theft","location_type":"Force","location":{"latitude":"51.443923","street":{"id":939591,"name":"On or near Shopping Area"},"longitude":"-0.152886"},"context":"","outcome_status":{"category":"Status update unavailable","date":"2019-09"},"persistent_id":"efccef4371dc099549439029b57ad1004c3226d45d7f63cc8960b9535efd690a","id":74310214,"location_subtype":"","month":"2019-05"},{"category":"bicycle-theft","location_type":"Force","location":{"latitude":"51.445209","street":{"id":939626,"name":"On or near Bellevue Road"},"longitude":"-0.166649"},"context":"","outcome_status":{"category":"Status update unavailable","date":"2019-09"},"persistent_id":"8b62ab81b0915e133afcfd668cf0dca93114f4878f559eb9492bc9f3a5d2272f","id":74330643,"location_subtype":"","month":"2019-05"},{"category":"bicycle-theft","location_type":"Force","location":{"latitude":"51.443035","street":{"id":939644,"name":"On or near St James's Drive"},"longitude":"-0.164505"},"context":"","outcome_status":{"category":"Status update unavailable","date":"2019-09"},"persistent_id":"c2308c7bf8d72f89848ff0db716f2ddf8453313dc62037f1f7ca60afc378dcfe","id":74319854,"location_subtype":"","month":"2019-05"},{"category":"burglary","location_type":"Force","location":{"latitude":"51.445722","street":{"id":939593,"name":"On or near Supermarket"},"longitude":"-0.151806"},"context":"","outcome_status":{"category":"Status update unavailable","date":"2019-09"},"persistent_id":"f814994ade0a131731bbdddcb5663ec637ab2a62dcb0411b0638792c4de00856","id":74294967,"location_subtype":"","month":"2019-05"},{"category":"burglary","location_type":"Force","location":{"latitude":"51.449175","street":{"id":939601,"name":"On or near Temperley Road"},"longitude":"-0.152918"},"context":"","outcome_status":{"category":"Status update unavailable","date":"2019-09"},"persistent_id":"00923d6fb639122d548d1c46b04a5c9eeaaa26b5702a90158ec5fa710dc0a802","id":74317135,"location_subtype":"","month":"2019-05"},{"category":"burglary","location_type":"Force","location":{"latitude":"51.443923","street":{"id":939591,"name":"On or near Shopping Area"},"longitude":"-0.152886"},"context":"","outcome_status":{"category":"Status update unavailable","date":"2019-09"},"persistent_id":"2fe8cbab4522b399f749465bf562aca7330ba89a43be463174f7e57fdfd3073e","id":74320171,"location_subtype":"","month":"2019-05"},{"category":"burglary","location_type":"Force","location":{"latitude":"51.441916","street":{"id":939663,"name":"On or near Ravenstone Street"},"longitude":"-0.152794"},"context":"","outcome_status":{"category":"Status update unavailable","date":"2019-09"},"persistent_id":"99f0b7c87b3436525397bd558aec7d12042fabe908127f44e068021507178c65","id":74320281,"location_subtype":"","month":"2019-05"},{"category":"burglary","location_type":"Force","location":{"latitude":"51.449450","street":{"id":939598,"name":"On or near Western Lane"},"longitude":"-0.157239"},"context":"","outcome_status":{"category":"Status update unavailable","date":"2019-09"},"persistent_id":"22bef7e1bbddd927b3438e7161ae8befd418f2d8486442986ff278860d0cc710","id":74357845,"location_subtype":"","month":"2019-05"},{"category":"burglary","location_type":"Force","location":{"latitude":"51.449922","street":{"id":939780,"name":"On or near Dagnan Road"},"longitude":"-0.144972"},"context":"","outcome_status":{"category":"Status update unavailable","date":"2019-09"},"persistent_id":"46d2a5670336562943b43889b2f2170772470b90c8ad0ef6a3bd18f5ac1b5f8a","id":74295283,"location_subtype":"","month":"2019-05"},{"category":"burglary","location_type":"Force","location":{"latitude":"51.449922","street":{"id":939780,"name":"On or near Dagnan Road"},"longitude":"-0.144972"},"context":"","outcome_status":{"category":"Status update unavailable","date":"2019-09"},"persistent_id":"46d2a5670336562943b43889b2f2170772470b90c8ad0ef6a3bd18f5ac1b5f8a","id":74295282,"location_subtype":"","month":"2019-05"},{"category":"burglary","location_type":"Force","location":{"latitude":"51.449922","street":{"id":939780,"name":"On or near Dagnan Road"},"longitude":"-0.144972"},"context":"","outcome_status":{"category":"Status update unavailable","date":"2019-09"},"persistent_id":"46d2a5670336562943b43889b2f2170772470b90c8ad0ef6a3bd18f5ac1b5f8a","id":74295284,"location_subtype":"","month":"2019-05"},{"category":"burglary","location_type":"Force","location":{"latitude":"51.453308","street":{"id":942744,"name":"On or near Rodenhurst Road"},"longitude":"-0.136228"},"context":"","outcome_status":{"category":"Status update unavailable","date":"2019-09"},"persistent_id":"fb0057e4da7e9e57af8b6d5baa9d9f59744c40edabe95cdfdfeb01cddadd4ab7","id":74331266,"location_subtype":"","month":"2019-05"},{"category":"burglary","location_type":"Force","location":{"latitude":"51.442122","street":{"id":939800,"name":"On or near Bedford Hill"},"longitude":"-0.149289"},"context":"","outcome_status":{"category":"Status update unavailable","date":"2019-09"},"persistent_id":"b4ae5cdb44d38cb338c8c6cb8aa2f93fbbcbd3400b380325e2e4e82fc913bdad","id":74304393,"location_subtype":"","month":"2019-05"},{"category":"burglary","location_type":"Force","location":{"latitude":"51.449922","street":{"id":939780,"name":"On or near Dagnan Road"},"longitude":"-0.144972"},"context":"","outcome_status":{"category":"Status update unavailable","date":"2019-09"},"persistent_id":"46d2a5670336562943b43889b2f2170772470b90c8ad0ef6a3bd18f5ac1b5f8a","id":74295285,"location_subtype":"","month":"2019-05"},{"category":"burglary","location_type":"Force","location":{"latitude":"51.444765","street":{"id":939732,"name":"On or near Ranmere Street"},"longitude":"-0.145872"},"context":"","outcome_status":{"category":"Status update unavailable","date":"2019-09"},"persistent_id":"776f94ecbcf1b39e7df2e4918b146267f8f414fe375cc4320a9667f8151815f2","id":74343224,"location_subtype":"","month":"2019-05"},{"category":"burglary","location_type":"Force","location":{"latitude":"51.438919","street":{"id":937638,"name":"On or near Dalebury Road"},"longitude":"-0.165807"},"context":"","outcome_status":{"category":"Status update unavailable","date":"2019-09"},"persistent_id":"50ef4d55f185f9ce21cbfc66c79ba4f423b3da0db0412ce57150514d8316647d","id":74331122,"location_subtype":"","month":"2019-05"},{"category":"burglary","location_type":"Force","location":{"latitude":"51.435693","street":{"id":937632,"name":"On or near Glenburnie Road"},"longitude":"-0.167073"},"context":"","outcome_status":{"category":"Court result unavailable","date":"2019-12"},"persistent_id":"22b36642a3b8d5ab4bd3e40ff23a458ed9e37408d8ad1f68c0f3b5582c64aa81","id":74333925,"location_subtype":"","month":"2019-05"},{"category":"burglary","location_type":"Force","location":{"latitude":"51.447366","street":{"id":939750,"name":"On or near Ravenswood Road"},"longitude":"-0.147091"},"context":"","outcome_status":{"category":"Status update unavailable","date":"2019-09"},"persistent_id":"d1cfb1e4967ab6972b20ce1840096a9d1bd6c9daf3853468eee9605fcfc92ae3","id":74346064,"location_subtype":"","month":"2019-05"},{"category":"burglary","location_type":"Force","location":{"latitude":"51.435406","street":{"id":937669,"name":"On or near Upper Tooting Road"},"longitude":"-0.160236"},"context":"","outcome_status":{"category":"Status update unavailable","date":"2019-09"},"persistent_id":"509745ded88cee8f47e1fa6b5311a0e62398d1f5ba0f291569f16bcb8a291bb3","id":74331117,"location_subtype":"","month":"2019-05"},{"category":"burglary","location_type":"Force","location":{"latitude":"51.440483","street":{"id":939642,"name":"On or near Wandle Road"},"longitude":"-0.167500"},"context":"","outcome_status":{"category":"Court result unavailable","date":"2020-02"},"persistent_id":"bab1999e501a55c732a2709b3b53fefa112598a2f67913dead39d0c5b5d54811","id":74370949,"location_subtype":"","month":"2019-05"},{"category":"burglary","location_type":"Force","location":{"latitude":"51.431345","street":{"id":937660,"name":"On or near Franciscan Road"},"longitude":"-0.153609"},"context":"","outcome_status":{"category":"Status update unavailable","date":"2019-09"},"persistent_id":"7934a7f9ad56a6e9699a91a7b69f598d2c6a00bb9eae18d992832c634abe39ca","id":74344410,"location_subtype":"","month":"2019-05"},{"category":"burglary","location_type":"Force","location":{"latitude":"51.449922","street":{"id":939780,"name":"On or near Dagnan Road"},"longitude":"-0.144972"},"context":"","outcome_status":{"category":"Status update unavailable","date":"2019-09"},"persistent_id":"46d2a5670336562943b43889b2f2170772470b90c8ad0ef6a3bd18f5ac1b5f8a","id":74295286,"location_subtype":"","month":"2019-05"},{"category":"burglary","location_type":"Force","location":{"latitude":"51.452686","street":{"id":939600,"name":"On or near Thurleigh Avenue"},"longitude":"-0.153712"},"context":"","outcome_status":{"category":"Status update unavailable","date":"2019-09"},"persistent_id":"0eeb5ef6c50f115b4679e4f79df47df32154f9e297e0beebca0d8af3603d4308","id":74312781,"location_subtype":"","month":"2019-05"},{"category":"burglary","location_type":"Force","location":{"latitude":"51.452063","street":{"id":939617,"name":"On or near Further\/higher Educational Building"},"longitude":"-0.149606"},"context":"","outcome_status":{"category":"Court result unavailable","date":"2020-08"},"persistent_id":"e81045273886cf1a29503571e4ec7458eb65fb7f4c8c44655c04efe7ef57cab4","id":74307115,"location_subtype":"","month":"2019-05"},{"category":"burglary","location_type":"Force","location":{"latitude":"51.449011","street":{"id":939587,"name":"On or near Bellamy Street"},"longitude":"-0.151068"},"context":"","outcome_status":{"category":"Status update unavailable","date":"2019-09"},"persistent_id":"8532404f6655ed261085e3badb0d6db739c85b1d1c27e9cd10185d6f3cbe2cf4","id":74325641,"location_subtype":"","month":"2019-05"},{"category":"burglary","location_type":"Force","location":{"latitude":"51.450258","street":{"id":939714,"name":"On or near Poynders Road"},"longitude":"-0.139490"},"context":"","outcome_status":{"category":"Status update unavailable","date":"2019-09"},"persistent_id":"f3ccc141e8fe7958c7c5e3be1622f10bf59521ee16e87ac110e7e8f75c230b3e","id":74306063,"location_subtype":"","month":"2019-05"},{"category":"burglary","location_type":"Force","location":{"latitude":"51.436012","street":{"id":937623,"name":"On or near Noyna Road"},"longitude":"-0.161621"},"context":"","outcome_status":{"category":"Status update unavailable","date":"2019-09"},"persistent_id":"6fe881d6fc8b79873ab83b35d094ba8f6a19b391da21bad103a1109333cf865b","id":74297252,"location_subtype":"","month":"2019-05"},{"category":"burglary","location_type":"Force","location":{"latitude":"51.448514","street":{"id":939564,"name":"On or near Ramsden Road"},"longitude":"-0.154355"},"context":"","outcome_status":{"category":"Status update unavailable","date":"2019-09"},"persistent_id":"5b22d6c1ad6ff86c504d301b556efaadd581d20617b73bde510210ed1444a935","id":74325642,"location_subtype":"","month":"2019-05"},{"category":"burglary","location_type":"Force","location":{"latitude":"51.445408","street":{"id":939751,"name":"On or near Ormeley Road"},"longitude":"-0.147846"},"context":"","outcome_status":{"category":"Status update unavailable","date":"2019-09"},"persistent_id":"0bf6fc95affe0e0eae55e799cfc64d895067938e5683535768488264e197eff2","id":74329592,"location_subtype":"","month":"2019-05"},{"category":"burglary","location_type":"Force","location":{"latitude":"51.445638","street":{"id":939582,"name":"On or near Chestnut Grove"},"longitude":"-0.154989"},"context":"","outcome_status":{"category":"Status update unavailable","date":"2019-09"},"persistent_id":"1cd65f0334c58bf6d59b65d194b3df25f5f662e8d3d5cb227ea603043027fa2a","id":74333131,"location_subtype":"","month":"2019-05"},{"category":"burglary","location_type":"Force","location":{"latitude":"51.450677","street":{"id":939607,"name":"On or near Lysias Road"},"longitude":"-0.151778"},"context":"","outcome_status":{"category":"Court result unavailable","date":"2020-08"},"persistent_id":"aae47456939c425b2ddd1e95007db678a994e24d760a6422453b4047c07f82aa","id":74330042,"location_subtype":"","month":"2019-05"},{"category":"burglary","location_type":"Force","location":{"latitude":"51.436482","street":{"id":937517,"name":"On or near Bushnell Road"},"longitude":"-0.149790"},"context":"","outcome_status":{"category":"Status update unavailable","date":"2019-09"},"persistent_id":"59b02ab6b5f193aa7bb5d2acc9ef6a49bbc41e7332944cc06330d9e1c8865426","id":74326901,"location_subtype":"","month":"2019-05"},{"category":"burglary","location_type":"Force","location":{"latitude":"51.453007","street":{"id":942763,"name":"On or near Balham Hill"},"longitude":"-0.147294"},"context":"","outcome_status":{"category":"Status update unavailable","date":"2019-09"},"persistent_id":"c4ce5318c2231fbde379a27c8cea9672cb5d859c287b03581cb1140fbdefb778","id":74337060,"location_subtype":"","month":"2019-05"},{"category":"burglary","location_type":"Force","location":{"latitude":"51.455536","street":{"id":942766,"name":"On or near Mandalay Road"},"longitude":"-0.141190"},"context":"","outcome_status":{"category":"Status update unavailable","date":"2019-09"},"persistent_id":"700ace9e55233707fcf9adf7b8cb491c6b05b6f4be74ef483f2fcf9932958370","id":74290171,"location_subtype":"","month":"2019-05"},{"category":"burglary","location_type":"Force","location":{"latitude":"51.432288","street":{"id":937662,"name":"On or near Brudenell Road"},"longitude":"-0.159253"},"context":"","outcome_status":{"category":"Status update unavailable","date":"2019-09"},"persistent_id":"9a3a5e78f9fac9cb2ce0d8033bc15ba08cf7f859e87318f9f2900cc70a9fb12d","id":74332027,"location_subtype":"","month":"2019-05"},{"category":"burglary","location_type":"Force","location":{"latitude":"51.442115","street":{"id":939661,"name":"On or near Sarsfeld Road"},"longitude":"-0.160887"},"context":"","outcome_status":{"category":"Status update unavailable","date":"2019-09"},"persistent_id":"ede28b7917c718fb25e425f95f04aff580f4d467694ecf21f6db9ed9a832ac26","id":74290273,"location_subtype":"","month":"2019-05"},{"category":"burglary","location_type":"Force","location":{"latitude":"51.435406","street":{"id":937669,"name":"On or near Upper Tooting Road"},"longitude":"-0.160236"},"context":"","outcome_status":{"category":"Status update unavailable","date":"2019-09"},"persistent_id":"1af7d6826c06d984a730ba460937a120c18d1986ef35af2cf0c84e3a029f0980","id":74300654,"location_subtype":"","month":"2019-05"},{"category":"burglary","location_type":"Force","location":{"latitude":"51.454992","street":{"id":942772,"name":"On or near Cautley Avenue"},"longitude":"-0.143169"},"context":"","outcome_status":{"category":"Status update unavailable","date":"2019-09"},"persistent_id":"448a1c33549972fbe317c1c70e15e46ccf586550c7516d69f6c78c060e1a9632","id":74347668,"location_subtype":"","month":"2019-05"},{"category":"burglary","location_type":"Force","location":{"latitude":"51.443640","street":{"id":939696,"name":"On or near Kirkstall Gardens"},"longitude":"-0.129945"},"context":"","outcome_status":{"category":"Status update unavailable","date":"2019-09"},"persistent_id":"dbafc628d38278c0503eeaed794f181afef0ae9101873690b387b8a8142841df","id":74300724,"location_subtype":"","month":"2019-05"},{"category":"burglary","location_type":"Force","location":{"latitude":"51.454968","street":{"id":942906,"name":"On or near Kyrle Road"},"longitude":"-0.157031"},"context":"","outcome_status":{"category":"Status update unavailable","date":"2019-09"},"persistent_id":"a3df514bcec720875633e5abeda959fbca39864bf33b9b4a83f7013331da25cc","id":74300918,"location_subtype":"","month":"2019-05"},{"category":"burglary","location_type":"Force","location":{"latitude":"51.444300","street":{"id":939627,"name":"On or near Althorp Road"},"longitude":"-0.165994"},"context":"","outcome_status":{"category":"Status update unavailable","date":"2019-09"},"persistent_id":"9da7607eef1668bfd896c3af82ec7a0451dd5fd0b98e275c13742715fe46c5af","id":74308581,"location_subtype":"","month":"2019-05"},{"category":"burglary","location_type":"Force","location":{"latitude":"51.450258","street":{"id":939714,"name":"On or near Poynders Road"},"longitude":"-0.139490"},"context":"","outcome_status":{"category":"Status update unavailable","date":"2019-09"},"persistent_id":"a32679f399d363dfc91807f1a0a16df2c870faa6e89c5ee7a1fcc0a907c00a04","id":74308670,"location_subtype":"","month":"2019-05"},{"category":"burglary","location_type":"Force","location":{"latitude":"51.437226","street":{"id":937512,"name":"On or near Veronica Road"},"longitude":"-0.148465"},"context":"","outcome_status":{"category":"Status update unavailable","date":"2019-09"},"persistent_id":"8114862a8b2b0b6501c9319c741450235790a398633aa7a2b3683e8b25f26933","id":74308679,"location_subtype":"","month":"2019-05"},{"category":"burglary","location_type":"Force","location":{"latitude":"51.433254","street":{"id":937622,"name":"On or near Price Close"},"longitude":"-0.164120"},"context":"","outcome_status":{"category":"Status update unavailable","date":"2019-09"},"persistent_id":"d9c3d05ebab6b83bf432a67961bce17d21078919a6e33da7c6be06bcf8767663","id":74305995,"location_subtype":"","month":"2019-05"},{"category":"burglary","location_type":"Force","location":{"latitude":"51.442310","street":{"id":939551,"name":"On or near Burntwood Close"},"longitude":"-0.173902"},"context":"","outcome_status":{"category":"Status update unavailable","date":"2019-09"},"persistent_id":"701f37481fbe12ab0b52c52fe43d6a777cdaa97aa4dfbd8fd2334ed2f8d445c7","id":74299652,"location_subtype":"","month":"2019-05"},{"category":"burglary","location_type":"Force","location":{"latitude":"51.441365","street":{"id":939803,"name":"On or near Thornton Avenue"},"longitude":"-0.132225"},"context":"","outcome_status":{"category":"Status update unavailable","date":"2019-09"},"persistent_id":"0f2a9fa4b75c1c28e2ff014cd07bb480519010326290ea3772524d440fb10b6e","id":74316119,"location_subtype":"","month":"2019-05"},{"category":"burglary","location_type":"Force","location":{"latitude":"51.455598","street":{"id":942897,"name":"On or near Wisley Road"},"longitude":"-0.158762"},"context":"","outcome_status":{"category":"Status update unavailable","date":"2019-09"},"persistent_id":"0f3163d5dde0c767a8d4eb8682d2f49a123ce5754dfcde29d2b34fee0137423c","id":74306102,"location_subtype":"","month":"2019-05"},{"category":"burglary","location_type":"Force","location":{"latitude":"51.435500","street":{"id":937687,"name":"On or near Drakefield Road"},"longitude":"-0.154779"},"context":"","outcome_status":{"category":"Status update unavailable","date":"2019-09"},"persistent_id":"9964af85af17c8ca3f89111f4e64bcfda687bc8d892037e69437b787fbfeb06f","id":74315911,"location_subtype":"","month":"2019-05"},{"category":"burglary","location_type":"Force","location":{"latitude":"51.445408","street":{"id":939751,"name":"On or near Ormeley Road"},"longitude":"-0.147846"},"context":"","outcome_status":{"category":"Status update unavailable","date":"2019-09"},"persistent_id":"fcdfb9e69bb670041c886f4e93cd98f01d97574edc314f271aa71aa918db9e97","id":74330820,"location_subtype":"","month":"2019-05"},{"category":"burglary","location_type":"Force","location":{"latitude":"51.455254","street":{"id":942924,"name":"On or near Chatham Road"},"longitude":"-0.163195"},"context":"","outcome_status":{"category":"Status update unavailable","date":"2019-09"},"persistent_id":"c6d6a895685edfa05c80d68478749d470aa0df3acddac50600c3dad32f324e47","id":74320169,"location_subtype":"","month":"2019-05"},{"category":"burglary","location_type":"Force","location":{"latitude":"51.441265","street":{"id":939662,"name":"On or near Rowfant Road"},"longitude":"-0.157166"},"context":"","outcome_status":{"category":"Status update unavailable","date":"2019-09"},"persistent_id":"ffca714810175140835a247ed4fd1fb124a83f025638a3bb7e96da8b25e374cf","id":74308704,"location_subtype":"","month":"2019-05"},{"category":"burglary","location_type":"Force","location":{"latitude":"51.430999","street":{"id":937612,"name":"On or near Coteford Street"},"longitude":"-0.162513"},"context":"","outcome_status":{"category":"Status update unavailable","date":"2019-09"},"persistent_id":"aa292fd36c404545c2a4eceff3ddbca347153265697534cf771fc4462884ef88","id":74345868,"location_subtype":"","month":"2019-05"},{"category":"burglary","location_type":"Force","location":{"latitude":"51.439692","street":{"id":937617,"name":"On or near St Hughes Close"},"longitude":"-0.170409"},"context":"","outcome_status":{"category":"Status update unavailable","date":"2019-09"},"persistent_id":"b3e98c7ba7761b32c64a5aa70c6bd00a86f2590823e49504d9753bd19d2a7614","id":74301088,"location_subtype":"","month":"2019-05"},{"category":"burglary","location_type":"Force","location":{"latitude":"51.444399","street":{"id":939754,"name":"On or near Laitwood Road"},"longitude":"-0.147153"},"context":"","outcome_status":{"category":"Status update unavailable","date":"2019-09"},"persistent_id":"f256f07f202f12d681a381f04432a71c87f11875fdfd4d7a93819d594e0c5e98","id":74348693,"location_subtype":"","month":"2019-05"},{"category":"burglary","location_type":"Force","location":{"latitude":"51.454327","street":{"id":942923,"name":"On or near Cobham Close"},"longitude":"-0.167161"},"context":"","outcome_status":{"category":"Status update unavailable","date":"2019-09"},"persistent_id":"a05eb9ff272b3c6db9bd3810132883230661e571ffd60398b88d8712addfcf31","id":74361263,"location_subtype":"","month":"2019-05"},{"category":"burglary","location_type":"Force","location":{"latitude":"51.451277","street":{"id":939638,"name":"On or near Blenkarne Road"},"longitude":"-0.164247"},"context":"","outcome_status":{"category":"Status update unavailable","date":"2019-09"},"persistent_id":"21dabc62f952912f5da99e5286a92a7de67ad05b29be71d5f0e439e56a73ef27","id":74314846,"location_subtype":"","month":"2019-05"},{"category":"burglary","location_type":"Force","location":{"latitude":"51.445254","street":{"id":939738,"name":"On or near Hydethorpe Road"},"longitude":"-0.140413"},"context":"","outcome_status":{"category":"Status update unavailable","date":"2019-09"},"persistent_id":"395324081e3cf75f978a2ea5ec7a4260bd92a3562d79c555b5234adc3a6e7a09","id":74343108,"location_subtype":"","month":"2019-05"},{"category":"burglary","location_type":"Force","location":{"latitude":"51.445408","street":{"id":939751,"name":"On or near Ormeley Road"},"longitude":"-0.147846"},"context":"","outcome_status":{"category":"Status update unavailable","date":"2019-09"},"persistent_id":"77b63fe07696e1e8814e76b1319693b8c0498fe9e4859ca4ed4b6634779b2e96","id":74338982,"location_subtype":"","month":"2019-05"},{"category":"burglary","location_type":"Force","location":{"latitude":"51.450971","street":{"id":939759,"name":"On or near Malwood Road"},"longitude":"-0.149320"},"context":"","outcome_status":{"category":"Status update unavailable","date":"2019-09"},"persistent_id":"5bc2cd4230fb4f4cf66eaea19a36114c0735d33e531172d7272590f162fd69fd","id":74341635,"location_subtype":"","month":"2019-05"},{"category":"burglary","location_type":"Force","location":{"latitude":"51.436895","street":{"id":937631,"name":"On or near Glenburnie Road"},"longitude":"-0.162334"},"context":"","outcome_status":{"category":"Status update unavailable","date":"2019-09"},"persistent_id":"5fa824049b84f58cd68dcc5b8e86103e6c4553b68c570d874022cfcf24ec2ec8","id":74309132,"location_subtype":"","month":"2019-05"},{"category":"burglary","location_type":"Force","location":{"latitude":"51.444856","street":{"id":939701,"name":"On or near Cambray Road"},"longitude":"-0.139091"},"context":"","outcome_status":{"category":"Status update unavailable","date":"2019-09"},"persistent_id":"55b13251f8c3401c588b8c2768e7eb1db8d3890e8c8fae222a74abef49c2769c","id":74339131,"location_subtype":"","month":"2019-05"},{"category":"burglary","location_type":"Force","location":{"latitude":"51.449711","street":{"id":939785,"name":"On or near Beira Street"},"longitude":"-0.145830"},"context":"","outcome_status":{"category":"Status update unavailable","date":"2019-09"},"persistent_id":"f9627ed355243897c68c3ef40555f32e2a164fc6bf6cdfa12a7ff25e58e8f96c","id":74340388,"location_subtype":"","month":"2019-05"},{"category":"burglary","location_type":"Force","location":{"latitude":"51.442411","street":{"id":939652,"name":"On or near Brodrick Road"},"longitude":"-0.165408"},"context":"","outcome_status":{"category":"Status update unavailable","date":"2019-09"},"persistent_id":"516e62cda668c52bdb39f6ce60d272856b9da7acf26311b66c9be46f2ae7939d","id":74340447,"location_subtype":"","month":"2019-05"},{"category":"burglary","location_type":"Force","location":{"latitude":"51.438353","street":{"id":937639,"name":"On or near Crockerton Road"},"longitude":"-0.165268"},"context":"","outcome_status":{"category":"Status update unavailable","date":"2019-09"},"persistent_id":"a5c68d0ded8fd5a01fae9d12492ecb00a2233fa4cca7ea3e9cc5396169e8d55c","id":74344017,"location_subtype":"","month":"2019-05"},{"category":"burglary","location_type":"Force","location":{"latitude":"51.444399","street":{"id":939754,"name":"On or near Laitwood Road"},"longitude":"-0.147153"},"context":"","outcome_status":{"category":"Status update unavailable","date":"2019-09"},"persistent_id":"bcb6e6b605b9c4dfc270348231c554ba71c6d9683aaa5da1504e004b0cf01372","id":74341561,"location_subtype":"","month":"2019-05"},{"category":"burglary","location_type":"Force","location":{"latitude":"51.455081","street":{"id":942917,"name":"On or near Stonell's Road"},"longitude":"-0.162511"},"context":"","outcome_status":{"category":"Status update unavailable","date":"2019-09"},"persistent_id":"7c58e9d2b0ceacc17d2da93d67a028260027be2b7a1b9a86afc928a4e93b525e","id":74345754,"location_subtype":"","month":"2019-05"},{"category":"burglary","location_type":"Force","location":{"latitude":"51.432120","street":{"id":937658,"name":"On or near Hillbrook Road"},"longitude":"-0.160051"},"context":"","outcome_status":{"category":"Status update unavailable","date":"2019-09"},"persistent_id":"66090e10ba3cc096c6b18e414809b127f83d8fe4fcd8bd542a52ebb0ae4f45ef","id":74312665,"location_subtype":"","month":"2019-05"},{"category":"burglary","location_type":"Force","location":{"latitude":"51.452022","street":{"id":939599,"name":"On or near Thurleigh Road"},"longitude":"-0.158388"},"context":"","outcome_status":{"category":"Status update unavailable","date":"2019-09"},"persistent_id":"1a0570dcea4cc0eb8e5d7cba2b5a7d2c82a7d74a34b8af1b23e374b0c7f1f50f","id":74347204,"location_subtype":"","month":"2019-05"},{"category":"burglary","location_type":"Force","location":{"latitude":"51.452080","street":{"id":939713,"name":"On or near Rathmell Drive"},"longitude":"-0.135904"},"context":"","outcome_status":{"category":"Status update unavailable","date":"2019-09"},"persistent_id":"2f3d1caf24037c73e5465837d79e33b4075a526154ba34c0916993405b368c55","id":74350517,"location_subtype":"","month":"2019-05"},{"category":"burglary","location_type":"Force","location":{"latitude":"51.447824","street":{"id":939573,"name":"On or near Lochinvar Street"},"longitude":"-0.150512"},"context":"","outcome_status":{"category":"Status update unavailable","date":"2019-09"},"persistent_id":"4538454519153af4242b6a2d8a32af4e78e346788dbd794615aed7276a362afc","id":74342737,"location_subtype":"","month":"2019-05"},{"category":"burglary","location_type":"Force","location":{"latitude":"51.443923","street":{"id":939591,"name":"On or near Shopping Area"},"longitude":"-0.152886"},"context":"","outcome_status":{"category":"Status update unavailable","date":"2019-09"},"persistent_id":"e70b9508020433f24cb2ce982d756badd125e8cbfc2ab7efd64970c866aa7dad","id":74291849,"location_subtype":"","month":"2019-05"},{"category":"burglary","location_type":"Force","location":{"latitude":"51.449247","street":{"id":939767,"name":"On or near Yukon Road"},"longitude":"-0.146079"},"context":"","outcome_status":{"category":"Status update unavailable","date":"2019-09"},"persistent_id":"6ea24597c72e768e85dc90513f19509a5480a22f1b6e762082f29a0a8b2fb696","id":74331508,"location_subtype":"","month":"2019-05"},{"category":"burglary","location_type":"Force","location":{"latitude":"51.435500","street":{"id":937687,"name":"On or near Drakefield Road"},"longitude":"-0.154779"},"context":"","outcome_status":{"category":"Status update unavailable","date":"2019-09"},"persistent_id":"675e538391e6bd6a47f2c93d8e633fed327fab3477b1d9f7c835b30655795402","id":74346672,"location_subtype":"","month":"2019-05"},{"category":"burglary","location_type":"Force","location":{"latitude":"51.454093","street":{"id":942920,"name":"On or near Honeywell Road"},"longitude":"-0.163745"},"context":"","outcome_status":{"category":"Status update unavailable","date":"2019-09"},"persistent_id":"0334e3dc18e8c7bfc2b06c5357d87b6835e5dc9350c261145068be3e170588c8","id":74302308,"location_subtype":"","month":"2019-05"},{"category":"criminal-damage-arson","location_type":"Force","location":{"latitude":"51.429708","street":{"id":937592,"name":"On or near West Drive"},"longitude":"-0.145619"},"context":"","outcome_status":{"category":"Status update unavailable","date":"2019-09"},"persistent_id":"d1a56849480615b599e46ae3495e51057044c1bada4ff27b53985c0154b77d16","id":74345329,"location_subtype":"","month":"2019-05"},{"category":"criminal-damage-arson","location_type":"Force","location":{"latitude":"51.435693","street":{"id":937632,"name":"On or near Glenburnie Road"},"longitude":"-0.167073"},"context":"","outcome_status":{"category":"Status update unavailable","date":"2019-09"},"persistent_id":"aa033c7764ac27937d43bfa8898d4152e92e18513ea65bbd41deb2418bdb415f","id":74321065,"location_subtype":"","month":"2019-05"},{"category":"criminal-damage-arson","location_type":"Force","location":{"latitude":"51.443923","street":{"id":939591,"name":"On or near Shopping Area"},"longitude":"-0.152886"},"context":"","outcome_status":{"category":"Status update unavailable","date":"2019-09"},"persistent_id":"442b8df3dabb76744069b922f4e3cd4e942ad22e7ba42455775e174378b38a48","id":74347452,"location_subtype":"","month":"2019-05"},{"category":"criminal-damage-arson","location_type":"Force","location":{"latitude":"51.443059","street":{"id":939647,"name":"On or near Ouseley Road"},"longitude":"-0.161454"},"context":"","outcome_status":{"category":"Status update unavailable","date":"2019-09"},"persistent_id":"473ec0e536578eb9fd0f4e1d5adcbd5299c282ad03ddeaec46efe0348207fc8b","id":74304986,"location_subtype":"","month":"2019-05"},{"category":"criminal-damage-arson","location_type":"Force","location":{"latitude":"51.433213","street":{"id":924003,"name":"On or near Ravenfield Road"},"longitude":"-0.162050"},"context":"","outcome_status":{"category":"Status update unavailable","date":"2019-09"},"persistent_id":"26bce2c55f80976b34c50aaa300bfdbb7937cf2d4103156e5556b9bbeb9654e8","id":74343052,"location_subtype":"","month":"2019-05"},{"category":"criminal-damage-arson","location_type":"Force","location":{"latitude":"51.435693","street":{"id":937632,"name":"On or near Glenburnie Road"},"longitude":"-0.167073"},"context":"","outcome_status":{"category":"Status update unavailable","date":"2019-09"},"persistent_id":"438ea5be4c588613e4056e03f809d30490134c1c7353e471092776accb0afb84","id":74353904,"location_subtype":"","month":"2019-05"},{"category":"criminal-damage-arson","location_type":"Force","location":{"latitude":"51.450258","street":{"id":939714,"name":"On or near Poynders Road"},"longitude":"-0.139490"},"context":"","outcome_status":{"category":"Status update unavailable","date":"2019-09"},"persistent_id":"a98f31c10ba2cb10ac1777aac982ade23fc0480fb0f1b785677f2523f922981a","id":74352318,"location_subtype":"","month":"2019-05"},{"category":"criminal-damage-arson","location_type":"Force","location":{"latitude":"51.443345","street":{"id":939795,"name":"On or near Rossiter Road"},"longitude":"-0.147066"},"context":"","outcome_status":{"category":"Status update unavailable","date":"2019-09"},"persistent_id":"9fa3b0bcc7f775e705039ae01a80586aec323394b28ad740f423085538958618","id":74349457,"location_subtype":"","month":"2019-05"},{"category":"criminal-damage-arson","location_type":"Force","location":{"latitude":"51.436895","street":{"id":937631,"name":"On or near Glenburnie Road"},"longitude":"-0.162334"},"context":"","outcome_status":{"category":"Status update unavailable","date":"2019-09"},"persistent_id":"25d64dbec66c3fec75e29522411ad7dec9f6b6d8ff6640d55360eb719b1818e0","id":74345557,"location_subtype":"","month":"2019-05"},{"category":"criminal-damage-arson","location_type":"Force","location":{"latitude":"51.442635","street":{"id":939537,"name":"On or near Collamore Avenue"},"longitude":"-0.172277"},"context":"","outcome_status":{"category":"Status update unavailable","date":"2019-09"},"persistent_id":"81d1ed60c9dcaf75bc89aeeb7f6cdbbe590c8e1845f13090a8211cdae805679f","id":74309775,"location_subtype":"","month":"2019-05"},{"category":"criminal-damage-arson","location_type":"Force","location":{"latitude":"51.440645","street":{"id":939799,"name":"On or near Cornford Grove"},"longitude":"-0.146917"},"context":"","outcome_status":{"category":"Status update unavailable","date":"2019-09"},"persistent_id":"55a6fe296facaa3e82237d135a0d2f25cd43c48f0360f42b499034d837d095b2","id":74369043,"location_subtype":"","month":"2019-05"},{"category":"criminal-damage-arson","location_type":"Force","location":{"latitude":"51.431640","street":{"id":937607,"name":"On or near Lessingham Avenue"},"longitude":"-0.162646"},"context":"","outcome_status":{"category":"Status update unavailable","date":"2019-09"},"persistent_id":"b78deb7d40014366489124700b5f79726ae644acb218a9a459ac90c084d4ac7d","id":74293260,"location_subtype":"","month":"2019-05"},{"category":"criminal-damage-arson","location_type":"Force","location":{"latitude":"51.441671","street":{"id":939792,"name":"On or near Cavendish Road"},"longitude":"-0.143551"},"context":"","outcome_status":{"category":"Status update unavailable","date":"2019-09"},"persistent_id":"db7f47bf162d688868b8ae89d09e69b4e666a06b745c01710948ebf17af30e2e","id":74341807,"location_subtype":"","month":"2019-05"},{"category":"criminal-damage-arson","location_type":"Force","location":{"latitude":"51.445649","street":{"id":939589,"name":"On or near Balham High Road"},"longitude":"-0.150571"},"context":"","outcome_status":{"category":"Status update unavailable","date":"2019-09"},"persistent_id":"41aa86cc65940b1a70608a33714467caaa6ceea4c5f83d740481bfba22c339d2","id":74299623,"location_subtype":"","month":"2019-05"},{"category":"criminal-damage-arson","location_type":"Force","location":{"latitude":"51.442492","street":{"id":939811,"name":"On or near Hyde Farm Mews"},"longitude":"-0.136884"},"context":"","outcome_status":{"category":"Status update unavailable","date":"2019-09"},"persistent_id":"852764dd6e216c3c757fd56bcef33235a252d69b6f04d2bb4a63c38bc39a6203","id":74319662,"location_subtype":"","month":"2019-05"},{"category":"criminal-damage-arson","location_type":"Force","location":{"latitude":"51.452342","street":{"id":939766,"name":"On or near Supermarket"},"longitude":"-0.147307"},"context":"","outcome_status":{"category":"Status update unavailable","date":"2019-09"},"persistent_id":"8b7fd1e0b29a49e948163e62fc9c722ed091e508d94dbba150a6de3242f6db12","id":74336087,"location_subtype":"","month":"2019-05"},{"category":"criminal-damage-arson","location_type":"Force","location":{"latitude":"51.444399","street":{"id":939754,"name":"On or near Laitwood Road"},"longitude":"-0.147153"},"context":"","outcome_status":{"category":"Status update unavailable","date":"2019-09"},"persistent_id":"69f871e8f0080535e50bfa39dd24b341bd98f7c815ca95c7a26c4bb55fc8ef95","id":74314803,"location_subtype":"","month":"2019-05"},{"category":"criminal-damage-arson","location_type":"Force","location":{"latitude":"51.441916","street":{"id":939663,"name":"On or near Ravenstone Street"},"longitude":"-0.152794"},"context":"","outcome_status":{"category":"Status update unavailable","date":"2019-09"},"persistent_id":"ae9d0bfdbab40914669a7e6d527d831f113c4484aae54cb5d39bb51dc269110a","id":74316239,"location_subtype":"","month":"2019-05"},{"category":"criminal-damage-arson","location_type":"Force","location":{"latitude":"51.439084","street":{"id":937689,"name":"On or near Cloudesdale Road"},"longitude":"-0.151095"},"context":"","outcome_status":{"category":"Status update unavailable","date":"2019-09"},"persistent_id":"870c7d13846763add006e4307d8ca92ec37a31411ba43f15fdc8c4ec23028ee3","id":74305681,"location_subtype":"","month":"2019-05"},{"category":"criminal-damage-arson","location_type":"Force","location":{"latitude":"51.435693","street":{"id":937632,"name":"On or near Glenburnie Road"},"longitude":"-0.167073"},"context":"","outcome_status":{"category":"Status update unavailable","date":"2019-09"},"persistent_id":"fc594f3b218f27a8e08e3273f4c3a393ce9cece6bfbeb7a41ba6717eb0bb9583","id":74305682,"location_subtype":"","month":"2019-05"},{"category":"criminal-damage-arson","location_type":"Force","location":{"latitude":"51.435406","street":{"id":937669,"name":"On or near Upper Tooting Road"},"longitude":"-0.160236"},"context":"","outcome_status":{"category":"Status update unavailable","date":"2019-09"},"persistent_id":"ddec66092e487412652d52e8d88ecfbc2664351a0fbbc24b4ce53a384e4e9cc3","id":74306311,"location_subtype":"","month":"2019-05"},{"category":"criminal-damage-arson","location_type":"Force","location":{"latitude":"51.443213","street":{"id":939659,"name":"On or near Parking Area"},"longitude":"-0.151187"},"context":"","outcome_status":{"category":"Court result unavailable","date":"2019-12"},"persistent_id":"15f7b9f351eb866685d98d3f88e344b8ae1f1f8cd45362d5eced02d257a0aac0","id":74335479,"location_subtype":"","month":"2019-05"},{"category":"criminal-damage-arson","location_type":"Force","location":{"latitude":"51.445408","street":{"id":939751,"name":"On or near Ormeley Road"},"longitude":"-0.147846"},"context":"","outcome_status":{"category":"Status update unavailable","date":"2019-09"},"persistent_id":"6c7c3b3e3880880a648cf0d3577d680949695be478498ca6f8af9d96e2539da5","id":74314284,"location_subtype":"","month":"2019-05"},{"category":"criminal-damage-arson","location_type":"Force","location":{"latitude":"51.444549","street":{"id":939689,"name":"On or near Radbourne Road"},"longitude":"-0.136757"},"context":"","outcome_status":{"category":"Status update unavailable","date":"2019-09"},"persistent_id":"53b1cee888183e64ceaf18732f16151bc4a1eb1b70e642a1db709ab28c63a72f","id":74315120,"location_subtype":"","month":"2019-05"},{"category":"criminal-damage-arson","location_type":"Force","location":{"latitude":"51.432611","street":{"id":937672,"name":"On or near Topsham Road"},"longitude":"-0.158636"},"context":"","outcome_status":{"category":"Status update unavailable","date":"2019-09"},"persistent_id":"4ef62f15e7eecca4af1bcb8c0cc81171512fcb605bb1b766f576841a694be8ef","id":74309016,"location_subtype":"","month":"2019-05"},{"category":"criminal-damage-arson","location_type":"Force","location":{"latitude":"51.433254","street":{"id":937622,"name":"On or near Price Close"},"longitude":"-0.164120"},"context":"","outcome_status":{"category":"Status update unavailable","date":"2019-09"},"persistent_id":"112606b08b8d232d3448b031461fc8e697cd61785f669643844628e84984ccfd","id":74294139,"location_subtype":"","month":"2019-05"},{"category":"criminal-damage-arson","location_type":"Force","location":{"latitude":"51.441356","street":{"id":939809,"name":"On or near Rastell Avenue"},"longitude":"-0.136139"},"context":"","outcome_status":{"category":"Status update unavailable","date":"2019-09"},"persistent_id":"6e6440c5b2da9dd838d0dcb0af107b6880639bb0c78562a10d4f3f3d64e01a77","id":74311716,"location_subtype":"","month":"2019-05"},{"category":"criminal-damage-arson","location_type":"Force","location":{"latitude":"51.434252","street":{"id":937688,"name":"On or near Dafforne Road"},"longitude":"-0.158901"},"context":"","outcome_status":{"category":"Status update unavailable","date":"2019-09"},"persistent_id":"69e147d025847ef2f270eec87060fa3ae3e3b1140fdf088488718f62f3272fb6","id":74335175,"location_subtype":"","month":"2019-05"},{"category":"drugs","location_type":"Force","location":{"latitude":"51.438182","street":{"id":937651,"name":"On or near Police Station"},"longitude":"-0.162398"},"context":"","outcome_status":{"category":"Court result unavailable","date":"2020-05"},"persistent_id":"84a105779e2907a5b0a8015b0e029487fcdbbe941e23e621fb969e7f93f51a6a","id":74340817,"location_subtype":"","month":"2019-05"},{"category":"drugs","location_type":"Force","location":{"latitude":"51.434856","street":{"id":937667,"name":"On or near Wheatlands Road"},"longitude":"-0.157884"},"context":"","outcome_status":{"category":"Status update unavailable","date":"2019-09"},"persistent_id":"00f6b7e1e60df48b35107f307b2e38c163336c1b1c3f83c8221b86e80510ecf2","id":74291391,"location_subtype":"","month":"2019-05"},{"category":"drugs","location_type":"Force","location":{"latitude":"51.447196","street":{"id":939428,"name":"On or near Routh Road"},"longitude":"-0.171232"},"context":"","outcome_status":{"category":"Investigation complete; no suspect identified","date":"2019-06"},"persistent_id":"3573245271e70030598ae69700240349689187f80003659c27684df66efdb18b","id":74343008,"location_subtype":"","month":"2019-05"},{"category":"drugs","location_type":"Force","location":{"latitude":"51.452684","street":{"id":939633,"name":"On or near Gorst Road"},"longitude":"-0.165039"},"context":"","outcome_status":{"category":"Offender given a caution","date":"2019-05"},"persistent_id":"1e47aa11ca048de3df4e89a09c4cfe7421b791202b4d6c06f238ef9a2f503027","id":74292830,"location_subtype":"","month":"2019-05"},{"category":"drugs","location_type":"Force","location":{"latitude":"51.442411","street":{"id":939652,"name":"On or near Brodrick Road"},"longitude":"-0.165408"},"context":"","outcome_status":{"category":"Offender fined","date":"2019-05"},"persistent_id":"3dce4ad9740657c838cea0b85184b30fba3a69676f25cad6c969df93ee9c1524","id":74370132,"location_subtype":"","month":"2019-05"},{"category":"drugs","location_type":"Force","location":{"latitude":"51.445209","street":{"id":939626,"name":"On or near Bellevue Road"},"longitude":"-0.166649"},"context":"","outcome_status":{"category":"Local resolution","date":"2019-10"},"persistent_id":"bde4fa95149825c0ed8d12194b5224299781c5897c05eb43b17ce949850df3be","id":74297417,"location_subtype":"","month":"2019-05"},{"category":"drugs","location_type":"Force","location":{"latitude":"51.454027","street":{"id":942767,"name":"On or near Lynette Avenue"},"longitude":"-0.144144"},"context":"","outcome_status":{"category":"Status update unavailable","date":"2019-09"},"persistent_id":"bd301d58ac13bdc6fcec372ba8513f7e6b7951b86046c7641cf18b25bae9f569","id":74291471,"location_subtype":"","month":"2019-05"},{"category":"drugs","location_type":"Force","location":{"latitude":"51.431326","street":{"id":924004,"name":"On or near Parking Area"},"longitude":"-0.139942"},"context":"","outcome_status":{"category":"Status update unavailable","date":"2019-09"},"persistent_id":"6af9e7eabe6930615b9b83b344bc369c9d4641a897c53a9a15a4fc0fde94120f","id":74327204,"location_subtype":"","month":"2019-05"},{"category":"drugs","location_type":"Force","location":{"latitude":"51.445268","street":{"id":939685,"name":"On or near Tenbury Court"},"longitude":"-0.130497"},"context":"","outcome_status":{"category":"Court result unavailable","date":"2019-12"},"persistent_id":"b24d9d715be680c1d33f052b4466bb31e285914997ab325da68349dc9a1791c9","id":74369679,"location_subtype":"","month":"2019-05"},{"category":"drugs","location_type":"Force","location":{"latitude":"51.453763","street":{"id":942761,"name":"On or near The Avenue"},"longitude":"-0.147321"},"context":"","outcome_status":{"category":"Local resolution","date":"2019-05"},"persistent_id":"c443694728674a31eee5e3fd6c05932f86674cce88d10d3ffe83d872420a140f","id":74292370,"location_subtype":"","month":"2019-05"},{"category":"drugs","location_type":"Force","location":{"latitude":"51.434856","street":{"id":937667,"name":"On or near Wheatlands Road"},"longitude":"-0.157884"},"context":"","outcome_status":{"category":"Local resolution","date":"2019-05"},"persistent_id":"f74cd27ec1972f1257dfc29a5a8fec0c54b0339dc3f8e5e7872dc7c4c93ab6d3","id":74319875,"location_subtype":"","month":"2019-05"},{"category":"other-theft","location_type":"Force","location":{"latitude":"51.444433","street":{"id":939575,"name":"On or near Hildreth Street"},"longitude":"-0.151009"},"context":"","outcome_status":{"category":"Status update unavailable","date":"2019-09"},"persistent_id":"755ed775ddf738df3edb8bd48b2f1837e9c42e7e8a4a22b8f029292987b8f24e","id":74341690,"location_subtype":"","month":"2019-05"},{"category":"other-theft","location_type":"Force","location":{"latitude":"51.438182","street":{"id":937651,"name":"On or near Police Station"},"longitude":"-0.162398"},"context":"","outcome_status":{"category":"Status update unavailable","date":"2019-09"},"persistent_id":"1f946bc3dafb4ca10d85584902a1a1b859e4efe9ebd04c97953711f2b2d35ab4","id":74294655,"location_subtype":"","month":"2019-05"},{"category":"other-theft","location_type":"Force","location":{"latitude":"51.454858","street":{"id":942910,"name":"On or near Broxash Road"},"longitude":"-0.155769"},"context":"","outcome_status":{"category":"Status update unavailable","date":"2019-09"},"persistent_id":"24c2a31969124e7703c84f3a44a27e8db6fdfc67a23e9a8148b082d6798f05b5","id":74332927,"location_subtype":"","month":"2019-05"},{"category":"other-theft","location_type":"Force","location":{"latitude":"51.445090","street":{"id":939577,"name":"On or near Harberson Road"},"longitude":"-0.149932"},"context":"","outcome_status":{"category":"Status update unavailable","date":"2019-09"},"persistent_id":"9e98ab56e16f3a77edfdd889ec9f8d97330509d8ca14dcce0235bde5da69150b","id":74332310,"location_subtype":"","month":"2019-05"},{"category":"other-theft","location_type":"Force","location":{"latitude":"51.452342","street":{"id":939766,"name":"On or near Supermarket"},"longitude":"-0.147307"},"context":"","outcome_status":{"category":"Status update unavailable","date":"2019-09"},"persistent_id":"5ce86b25fd33f4d7715a1c3e63e23fa62b22fe13bbbee7c40f68cd62856b95fc","id":74316906,"location_subtype":"","month":"2019-05"},{"category":"other-theft","location_type":"Force","location":{"latitude":"51.442643","street":{"id":939814,"name":"On or near Fieldhouse Road"},"longitude":"-0.138461"},"context":"","outcome_status":{"category":"Status update unavailable","date":"2019-09"},"persistent_id":"dce99e9cd469a2f1cb787ac23bfa6255d68aa55fe24aa334653b76d0220bef7d","id":74316466,"location_subtype":"","month":"2019-05"},{"category":"other-theft","location_type":"Force","location":{"latitude":"51.454691","street":{"id":942908,"name":"On or near Clapham Common West Side"},"longitude":"-0.152595"},"context":"","outcome_status":{"category":"Status update unavailable","date":"2019-09"},"persistent_id":"11d00ff4f212ae3a3d6d180e9beeef0ccd9e15d256898cf207ff03fdef609149","id":74309169,"location_subtype":"","month":"2019-05"},{"category":"other-theft","location_type":"Force","location":{"latitude":"51.446620","street":{"id":939585,"name":"On or near Caister Mews"},"longitude":"-0.150014"},"context":"","outcome_status":{"category":"Status update unavailable","date":"2019-09"},"persistent_id":"1c257429fafce3072563cb195111115e2e0c02b0a547f871871121165a539605","id":74309171,"location_subtype":"","month":"2019-05"},{"category":"other-theft","location_type":"Force","location":{"latitude":"51.445209","street":{"id":939626,"name":"On or near Bellevue Road"},"longitude":"-0.166649"},"context":"","outcome_status":{"category":"Status update unavailable","date":"2019-09"},"persistent_id":"f78a17a1a7c8e45517cc7f0d43a88dd4d483c0aa730f9bb83e2dcd09b0dd4900","id":74309172,"location_subtype":"","month":"2019-05"},{"category":"other-theft","location_type":"Force","location":{"latitude":"51.432611","street":{"id":937672,"name":"On or near Topsham Road"},"longitude":"-0.158636"},"context":"","outcome_status":{"category":"Status update unavailable","date":"2019-09"},"persistent_id":"bff8938e187bd212854c1b7c03660d226ee5a7bde11aacabf50b668645c0a2ae","id":74331971,"location_subtype":"","month":"2019-05"},{"category":"other-theft","location_type":"Force","location":{"latitude":"51.447196","street":{"id":939590,"name":"On or near Balham Grove"},"longitude":"-0.152307"},"context":"","outcome_status":{"category":"Status update unavailable","date":"2019-09"},"persistent_id":"7ca5fa366a31cf0b44fde4e83e9b659cb1fecb98c4a5033c852304c33a309c56","id":74344392,"location_subtype":"","month":"2019-05"},{"category":"other-theft","location_type":"Force","location":{"latitude":"51.450002","street":{"id":939629,"name":"On or near Morella Road"},"longitude":"-0.163204"},"context":"","outcome_status":{"category":"Status update unavailable","date":"2019-09"},"persistent_id":"660dc6e3818997971785b39d312cf236718f668c4dcd997d01863d501e4db198","id":74309204,"location_subtype":"","month":"2019-05"},{"category":"other-theft","location_type":"Force","location":{"latitude":"51.444433","street":{"id":939575,"name":"On or near Hildreth Street"},"longitude":"-0.151009"},"context":"","outcome_status":{"category":"Status update unavailable","date":"2019-09"},"persistent_id":"a397b4883d7acd9df530638a2664b9d13a98d3ec10228501cbf1f1ce4b34d069","id":74319954,"location_subtype":"","month":"2019-05"},{"category":"other-theft","location_type":"Force","location":{"latitude":"51.444064","street":{"id":939747,"name":"On or near Shipka Road"},"longitude":"-0.149297"},"context":"","outcome_status":{"category":"Investigation complete; no suspect identified","date":"2020-03"},"persistent_id":"223125c029e78a03c763ead8302f9725e49d0c1318d89a1ad30ec3680dd4081d","id":74320692,"location_subtype":"","month":"2019-05"},{"category":"other-theft","location_type":"Force","location":{"latitude":"51.437195","street":{"id":937649,"name":"On or near Petrol Station"},"longitude":"-0.161387"},"context":"","outcome_status":{"category":"Investigation complete; no suspect identified","date":"2020-07"},"persistent_id":"bb4ab00617f9678792578009264ead7b736cba398a972b3e164b8540ab0a1504","id":74300540,"location_subtype":"","month":"2019-05"},{"category":"other-theft","location_type":"Force","location":{"latitude":"51.442698","street":{"id":939807,"name":"On or near St Andrews Mews"},"longitude":"-0.135149"},"context":"","outcome_status":{"category":"Status update unavailable","date":"2019-09"},"persistent_id":"e35d4985325a47f9cf471acb096ccb244109e09b2895197e91a948fc3ad47c3d","id":74323348,"location_subtype":"","month":"2019-05"},{"category":"other-theft","location_type":"Force","location":{"latitude":"51.443923","street":{"id":939591,"name":"On or near Shopping Area"},"longitude":"-0.152886"},"context":"","outcome_status":{"category":"Status update unavailable","date":"2019-09"},"persistent_id":"9eaf84b924b5c13b19b24f83da1eb6f93b6b1fe12f3a23fdd04c5b600523134d","id":74323349,"location_subtype":"","month":"2019-05"},{"category":"other-theft","location_type":"Force","location":{"latitude":"51.444481","street":{"id":939569,"name":"On or near Old Dairy Mews"},"longitude":"-0.153467"},"context":"","outcome_status":{"category":"Status update unavailable","date":"2019-09"},"persistent_id":"1359e1a3317ab84ded909fb188c226ab0e19e6a0205133fef14db97d8195dcd0","id":74323625,"location_subtype":"","month":"2019-05"},{"category":"other-theft","location_type":"Force","location":{"latitude":"51.431326","street":{"id":924004,"name":"On or near Parking Area"},"longitude":"-0.139942"},"context":"","outcome_status":{"category":"Investigation complete; no suspect identified","date":"2020-03"},"persistent_id":"d967b08987c9c8abfc42b61d9a638f2d5d52bcb71fd6b48a425dda4a0d680662","id":74324197,"location_subtype":"","month":"2019-05"},{"category":"other-theft","location_type":"Force","location":{"latitude":"51.456841","street":{"id":942642,"name":"On or near Windmill Drive"},"longitude":"-0.145196"},"context":"","outcome_status":{"category":"Status update unavailable","date":"2019-09"},"persistent_id":"629d2fe79e50c9871628642f678d450a5a50102e3f6b7b09acb5212bee8d9d7e","id":74295685,"location_subtype":"","month":"2019-05"},{"category":"other-theft","location_type":"Force","location":{"latitude":"51.435693","street":{"id":937632,"name":"On or near Glenburnie Road"},"longitude":"-0.167073"},"context":"","outcome_status":{"category":"Status update unavailable","date":"2019-09"},"persistent_id":"161ebfa97facf005bbad972a25b91dbc3512a20835ae234a1571891dec924293","id":74317855,"location_subtype":"","month":"2019-05"},{"category":"other-theft","location_type":"Force","location":{"latitude":"51.430861","street":{"id":937611,"name":"On or near Cowick Road"},"longitude":"-0.163439"},"context":"","outcome_status":{"category":"Status update unavailable","date":"2019-09"},"persistent_id":"c403facfb1fd8357c31dad8bef7c918f03a74d3083c51f68b33194759333cb5b","id":74306942,"location_subtype":"","month":"2019-05"},{"category":"other-theft","location_type":"Force","location":{"latitude":"51.437052","street":{"id":937511,"name":"On or near Bedford Hill"},"longitude":"-0.146012"},"context":"","outcome_status":{"category":"Status update unavailable","date":"2019-09"},"persistent_id":"0c1a8f76cb77b0952f7f40cf9c32a7d5884ec5a1417bdd7bb5cec7190dbf5e19","id":74296661,"location_subtype":"","month":"2019-05"},{"category":"other-theft","location_type":"Force","location":{"latitude":"51.453741","street":{"id":942743,"name":"On or near Shandon Road"},"longitude":"-0.139708"},"context":"","outcome_status":{"category":"Status update unavailable","date":"2019-09"},"persistent_id":"cca81edc47a8d5a42c1e8f256eac8cb1d1bbb7e1ff32d51b02d279636723165e","id":74309891,"location_subtype":"","month":"2019-05"},{"category":"other-theft","location_type":"Force","location":{"latitude":"51.443005","street":{"id":939810,"name":"On or near Kirkstall Road"},"longitude":"-0.129611"},"context":"","outcome_status":{"category":"Status update unavailable","date":"2019-09"},"persistent_id":"ae95ac0ad7bbb7f5e205dbe8585ab79059f3de00fd6ed1deb8719ee4d82f05d9","id":74310046,"location_subtype":"","month":"2019-05"},{"category":"other-theft","location_type":"Force","location":{"latitude":"51.442122","street":{"id":939800,"name":"On or near Bedford Hill"},"longitude":"-0.149289"},"context":"","outcome_status":{"category":"Status update unavailable","date":"2019-09"},"persistent_id":"cde2db3887387a82e88a945a7802756804aa62e9ae51c73fb07950f73bbbff42","id":74310683,"location_subtype":"","month":"2019-05"},{"category":"other-theft","location_type":"Force","location":{"latitude":"51.448215","street":{"id":939737,"name":"On or near Kenilford Road"},"longitude":"-0.145675"},"context":"","outcome_status":{"category":"Status update unavailable","date":"2019-09"},"persistent_id":"28ce74e4cc3cd800d64e0d09481ccc04586c84de9e47f3baa16d8065f3b36dc9","id":74319699,"location_subtype":"","month":"2019-05"},{"category":"other-theft","location_type":"Force","location":{"latitude":"51.443923","street":{"id":939591,"name":"On or near Shopping Area"},"longitude":"-0.152886"},"context":"","outcome_status":{"category":"Status update unavailable","date":"2019-09"},"persistent_id":"fbdcb01000ac0ae11f66938cb39b24e676043d1cd95687576ddcb0f5c4656d21","id":74290514,"location_subtype":"","month":"2019-05"},{"category":"other-theft","location_type":"Force","location":{"latitude":"51.435406","street":{"id":937669,"name":"On or near Upper Tooting Road"},"longitude":"-0.160236"},"context":"","outcome_status":{"category":"Status update unavailable","date":"2019-09"},"persistent_id":"f703aea7ef6a94f62061594819cd274187c8bc9cfca8ace0cadca056b6aab819","id":74309642,"location_subtype":"","month":"2019-05"},{"category":"other-theft","location_type":"Force","location":{"latitude":"51.452765","street":{"id":942773,"name":"On or near Bonneville Gardens"},"longitude":"-0.139949"},"context":"","outcome_status":{"category":"Status update unavailable","date":"2019-09"},"persistent_id":"7d90cddc793f93a12b2ec3176624ff23bb4433d3125634ba4d7989a741365d80","id":74336069,"location_subtype":"","month":"2019-05"},{"category":"other-theft","location_type":"Force","location":{"latitude":"51.436848","street":{"id":937691,"name":"On or near Chetwode Road"},"longitude":"-0.159876"},"context":"","outcome_status":{"category":"Status update unavailable","date":"2019-09"},"persistent_id":"6de8cdcb2bbad91afb72c341fa1cb379d28c7f74227dc36d256508c96ebddb47","id":74301003,"location_subtype":"","month":"2019-05"},{"category":"other-theft","location_type":"Force","location":{"latitude":"51.440483","street":{"id":939642,"name":"On or near Wandle Road"},"longitude":"-0.167500"},"context":"","outcome_status":{"category":"Status update unavailable","date":"2019-09"},"persistent_id":"5e76fb0554db05ca7c315ab9663c31fcb54c852aaad6370d8ee8ad3743406214","id":74301033,"location_subtype":"","month":"2019-05"},{"category":"other-theft","location_type":"Force","location":{"latitude":"51.452342","street":{"id":939766,"name":"On or near Supermarket"},"longitude":"-0.147307"},"context":"","outcome_status":{"category":"Status update unavailable","date":"2019-09"},"persistent_id":"bc1e9033a23578c4cceabe41c20cd02f486e2b2e4f0c0ab3744794775270e8cb","id":74336060,"location_subtype":"","month":"2019-05"},