[{"category":"anti-social-behaviour","location_type":"Force","location":{"latitude":"51.398990","street":{"id":930280,"name":"On or near Hatfield Close"},"longitude":"-0.182399"},"context":"","outcome_status":null,"persistent_id":"","id":74272515,"location_subtype":"","month":"2019-05"},{"category":"anti-social-behaviour","location_type":"Force","location":{"latitude":"51.389998","street":{"id":930367,"name":"On or near Pipewell Road"},"longitude":"-0.174922"},"context":"","outcome_status":null,"persistent_id":"","id":74269233,"location_subtype":"","month":"2019-05"},{"category":"anti-social-behaviour","location_type":"Force","location":{"latitude":"51.386753","street":{"id":929171,"name":"On or near Green Wrythe Lane"},"longitude":"-0.176172"},"context":"","outcome_status":null,"persistent_id":"","id":74269234,"location_subtype":"","month":"2019-05"},{"category":"anti-social-behaviour","location_type":"Force","location":{"latitude":"51.389793","street":{"id":930360,"name":"On or near Beadlow Close"},"longitude":"-0.177963"},"context":"","outcome_status":null,"persistent_id":"","id":74269241,"location_subtype":"","month":"2019-05"},{"category":"anti-social-behaviour","location_type":"Force","location":{"latitude":"51.393862","street":{"id":930257,"name":"On or near Pollard Road"},"longitude":"-0.177068"},"context":"","outcome_status":null,"persistent_id":"","id":74272490,"location_subtype":"","month":"2019-05"},{"category":"anti-social-behaviour","location_type":"Force","location":{"latitude":"51.405684","street":{"id":933183,"name":"On or near Batsworth Road"},"longitude":"-0.178611"},"context":"","outcome_status":null,"persistent_id":"","id":74272491,"location_subtype":"","month":"2019-05"},{"category":"anti-social-behaviour","location_type":"Force","location":{"latitude":"51.410787","street":{"id":933169,"name":"On or near Hogarth Crescent"},"longitude":"-0.178839"},"context":"","outcome_status":null,"persistent_id":"","id":74272495,"location_subtype":"","month":"2019-05"},{"category":"anti-social-behaviour","location_type":"Force","location":{"latitude":"51.405184","street":{"id":933182,"name":"On or near Belgrave Road"},"longitude":"-0.179997"},"context":"","outcome_status":null,"persistent_id":"","id":74272496,"location_subtype":"","month":"2019-05"},{"category":"anti-social-behaviour","location_type":"Force","location":{"latitude":"51.408205","street":{"id":933171,"name":"On or near Haslemere Avenue"},"longitude":"-0.181084"},"context":"","outcome_status":null,"persistent_id":"","id":74272499,"location_subtype":"","month":"2019-05"},{"category":"anti-social-behaviour","location_type":"Force","location":{"latitude":"51.389779","street":{"id":930353,"name":"On or near Montacute Road"},"longitude":"-0.182246"},"context":"","outcome_status":null,"persistent_id":"","id":74272500,"location_subtype":"","month":"2019-05"},{"category":"anti-social-behaviour","location_type":"Force","location":{"latitude":"51.389779","street":{"id":930353,"name":"On or near Montacute Road"},"longitude":"-0.182246"},"context":"","outcome_status":null,"persistent_id":"","id":74272501,"location_subtype":"","month":"2019-05"},{"category":"anti-social-behaviour","location_type":"Force","location":{"latitude":"51.389779","street":{"id":930353,"name":"On or near Montacute Road"},"longitude":"-0.182246"},"context":"","outcome_status":null,"persistent_id":"","id":74272502,"location_subtype":"","month":"2019-05"},{"category":"anti-social-behaviour","location_type":"Force","location":{"latitude":"51.389779","street":{"id":930353,"name":"On or near Montacute Road"},"longitude":"-0.182246"},"context":"","outcome_status":null,"persistent_id":"","id":74272503,"location_subtype":"","month":"2019-05"},{"category":"anti-social-behaviour","location_type":"Force","location":{"latitude":"51.389779","street":{"id":930353,"name":"On or near Montacute Road"},"longitude":"-0.182246"},"context":"","outcome_status":null,"persistent_id":"","id":74272504,"location_subtype":"","month":"2019-05"},{"category":"anti-social-behaviour","location_type":"Force","location":{"latitude":"51.389779","street":{"id":930353,"name":"On or near Montacute Road"},"longitude":"-0.182246"},"context":"","outcome_status":null,"persistent_id":"","id":74272505,"location_subtype":"","month":"2019-05"},{"category":"anti-social-behaviour","location_type":"Force","location":{"latitude":"51.405535","street":{"id":933157,"name":"On or near Queen's Road"},"longitude":"-0.181708"},"context":"","outcome_status":null,"persistent_id":"","id":74272507,"location_subtype":"","month":"2019-05"},{"category":"anti-social-behaviour","location_type":"Force","location":{"latitude":"51.407542","street":{"id":933188,"name":"On or near Hospital"},"longitude":"-0.181873"},"context":"","outcome_status":null,"persistent_id":"","id":74272508,"location_subtype":"","month":"2019-05"},{"category":"anti-social-behaviour","location_type":"Force","location":{"latitude":"51.409050","street":{"id":933168,"name":"On or near Homefield Gardens"},"longitude":"-0.182230"},"context":"","outcome_status":null,"persistent_id":"","id":74272510,"location_subtype":"","month":"2019-05"},{"category":"anti-social-behaviour","location_type":"Force","location":{"latitude":"51.409050","street":{"id":933168,"name":"On or near Homefield Gardens"},"longitude":"-0.182230"},"context":"","outcome_status":null,"persistent_id":"","id":74272511,"location_subtype":"","month":"2019-05"},{"category":"anti-social-behaviour","location_type":"Force","location":{"latitude":"51.409050","street":{"id":933168,"name":"On or near Homefield Gardens"},"longitude":"-0.182230"},"context":"","outcome_status":null,"persistent_id":"","id":74272512,"location_subtype":"","month":"2019-05"},{"category":"anti-social-behaviour","location_type":"Force","location":{"latitude":"51.393573","street":{"id":923511,"name":"On or near Florence Avenue"},"longitude":"-0.183965"},"context":"","outcome_status":null,"persistent_id":"","id":74272513,"location_subtype":"","month":"2019-05"},{"category":"anti-social-behaviour","location_type":"Force","location":{"latitude":"51.409954","street":{"id":933176,"name":"On or near Dreadnought Close"},"longitude":"-0.181978"},"context":"","outcome_status":null,"persistent_id":"","id":74272514,"location_subtype":"","month":"2019-05"},{"category":"anti-social-behaviour","location_type":"Force","location":{"latitude":"51.388869","street":{"id":930326,"name":"On or near Middleton Road"},"longitude":"-0.185056"},"context":"","outcome_status":null,"persistent_id":"","id":74272518,"location_subtype":"","month":"2019-05"},{"category":"anti-social-behaviour","location_type":"Force","location":{"latitude":"51.397742","street":{"id":930314,"name":"On or near Hospital"},"longitude":"-0.189535"},"context":"","outcome_status":null,"persistent_id":"","id":74272526,"location_subtype":"","month":"2019-05"},{"category":"anti-social-behaviour","location_type":"Force","location":{"latitude":"51.395342","street":{"id":930300,"name":"On or near Calder Road"},"longitude":"-0.188423"},"context":"","outcome_status":null,"persistent_id":"","id":74272527,"location_subtype":"","month":"2019-05"},{"category":"anti-social-behaviour","location_type":"Force","location":{"latitude":"51.393669","street":{"id":930299,"name":"On or near Cartmel Gardens"},"longitude":"-0.188963"},"context":"","outcome_status":null,"persistent_id":"","id":74272529,"location_subtype":"","month":"2019-05"},{"category":"anti-social-behaviour","location_type":"Force","location":{"latitude":"51.397742","street":{"id":930314,"name":"On or near Hospital"},"longitude":"-0.189535"},"context":"","outcome_status":null,"persistent_id":"","id":74272531,"location_subtype":"","month":"2019-05"},{"category":"anti-social-behaviour","location_type":"Force","location":{"latitude":"51.395342","street":{"id":930300,"name":"On or near Calder Road"},"longitude":"-0.188423"},"context":"","outcome_status":null,"persistent_id":"","id":74272533,"location_subtype":"","month":"2019-05"},{"category":"anti-social-behaviour","location_type":"Force","location":{"latitude":"51.395342","street":{"id":930300,"name":"On or near Calder Road"},"longitude":"-0.188423"},"context":"","outcome_status":null,"persistent_id":"","id":74272534,"location_subtype":"","month":"2019-05"},{"category":"anti-social-behaviour","location_type":"Force","location":{"latitude":"51.395990","street":{"id":930286,"name":"On or near Schoolgate Drive"},"longitude":"-0.190783"},"context":"","outcome_status":null,"persistent_id":"","id":74272536,"location_subtype":"","month":"2019-05"},{"category":"anti-social-behaviour","location_type":"Force","location":{"latitude":"51.395990","street":{"id":930286,"name":"On or near Schoolgate Drive"},"longitude":"-0.190783"},"context":"","outcome_status":null,"persistent_id":"","id":74272538,"location_subtype":"","month":"2019-05"},{"category":"anti-social-behaviour","location_type":"Force","location":{"latitude":"51.394888","street":{"id":930281,"name":"On or near Willows Avenue"},"longitude":"-0.192192"},"context":"","outcome_status":null,"persistent_id":"","id":74272548,"location_subtype":"","month":"2019-05"},{"category":"anti-social-behaviour","location_type":"Force","location":{"latitude":"51.401684","street":{"id":933216,"name":"On or near Abbotsbury Road"},"longitude":"-0.192629"},"context":"","outcome_status":null,"persistent_id":"","id":74272549,"location_subtype":"","month":"2019-05"},{"category":"anti-social-behaviour","location_type":"Force","location":{"latitude":"51.401563","street":{"id":933214,"name":"On or near Aberconway Road"},"longitude":"-0.192389"},"context":"","outcome_status":null,"persistent_id":"","id":74272550,"location_subtype":"","month":"2019-05"},{"category":"anti-social-behaviour","location_type":"Force","location":{"latitude":"51.394888","street":{"id":930281,"name":"On or near Willows Avenue"},"longitude":"-0.192192"},"context":"","outcome_status":null,"persistent_id":"","id":74272551,"location_subtype":"","month":"2019-05"},{"category":"anti-social-behaviour","location_type":"Force","location":{"latitude":"51.404211","street":{"id":933221,"name":"On or near Hospital"},"longitude":"-0.192069"},"context":"","outcome_status":null,"persistent_id":"","id":74272553,"location_subtype":"","month":"2019-05"},{"category":"anti-social-behaviour","location_type":"Force","location":{"latitude":"51.398742","street":{"id":930310,"name":"On or near Alnwick Grove"},"longitude":"-0.193737"},"context":"","outcome_status":null,"persistent_id":"","id":74272556,"location_subtype":"","month":"2019-05"},{"category":"anti-social-behaviour","location_type":"Force","location":{"latitude":"51.401607","street":{"id":933215,"name":"On or near Aberconway Road"},"longitude":"-0.193480"},"context":"","outcome_status":null,"persistent_id":"","id":74272560,"location_subtype":"","month":"2019-05"},{"category":"anti-social-behaviour","location_type":"Force","location":{"latitude":"51.401607","street":{"id":933215,"name":"On or near Aberconway Road"},"longitude":"-0.193480"},"context":"","outcome_status":null,"persistent_id":"","id":74272561,"location_subtype":"","month":"2019-05"},{"category":"anti-social-behaviour","location_type":"Force","location":{"latitude":"51.403329","street":{"id":933294,"name":"On or near Windermere Avenue"},"longitude":"-0.196087"},"context":"","outcome_status":null,"persistent_id":"","id":74272568,"location_subtype":"","month":"2019-05"},{"category":"anti-social-behaviour","location_type":"Force","location":{"latitude":"51.403329","street":{"id":933294,"name":"On or near Windermere Avenue"},"longitude":"-0.196087"},"context":"","outcome_status":null,"persistent_id":"","id":74272569,"location_subtype":"","month":"2019-05"},{"category":"anti-social-behaviour","location_type":"Force","location":{"latitude":"51.398381","street":{"id":930194,"name":"On or near Birchwood Close"},"longitude":"-0.194829"},"context":"","outcome_status":null,"persistent_id":"","id":74272570,"location_subtype":"","month":"2019-05"},{"category":"anti-social-behaviour","location_type":"Force","location":{"latitude":"51.391834","street":{"id":930247,"name":"On or near Sports\/recreation Area"},"longitude":"-0.194799"},"context":"","outcome_status":null,"persistent_id":"","id":74272571,"location_subtype":"","month":"2019-05"},{"category":"anti-social-behaviour","location_type":"Force","location":{"latitude":"51.404041","street":{"id":933290,"name":"On or near Parking Area"},"longitude":"-0.195023"},"context":"","outcome_status":null,"persistent_id":"","id":74272572,"location_subtype":"","month":"2019-05"},{"category":"anti-social-behaviour","location_type":"Force","location":{"latitude":"51.404041","street":{"id":933290,"name":"On or near Parking Area"},"longitude":"-0.195023"},"context":"","outcome_status":null,"persistent_id":"","id":74272573,"location_subtype":"","month":"2019-05"},{"category":"anti-social-behaviour","location_type":"Force","location":{"latitude":"51.407055","street":{"id":933266,"name":"On or near Sandbourne Avenue"},"longitude":"-0.195710"},"context":"","outcome_status":null,"persistent_id":"","id":74272574,"location_subtype":"","month":"2019-05"},{"category":"anti-social-behaviour","location_type":"Force","location":{"latitude":"51.399613","street":{"id":930207,"name":"On or near Morden Court"},"longitude":"-0.196549"},"context":"","outcome_status":null,"persistent_id":"","id":74272575,"location_subtype":"","month":"2019-05"},{"category":"anti-social-behaviour","location_type":"Force","location":{"latitude":"51.399613","street":{"id":930207,"name":"On or near Morden Court"},"longitude":"-0.196549"},"context":"","outcome_status":null,"persistent_id":"","id":74272576,"location_subtype":"","month":"2019-05"},{"category":"anti-social-behaviour","location_type":"Force","location":{"latitude":"51.399613","street":{"id":930207,"name":"On or near Morden Court"},"longitude":"-0.196549"},"context":"","outcome_status":null,"persistent_id":"","id":74272577,"location_subtype":"","month":"2019-05"},{"category":"anti-social-behaviour","location_type":"Force","location":{"latitude":"51.393785","street":{"id":930192,"name":"On or near Central Road"},"longitude":"-0.196534"},"context":"","outcome_status":null,"persistent_id":"","id":74272578,"location_subtype":"","month":"2019-05"},{"category":"anti-social-behaviour","location_type":"Force","location":{"latitude":"51.393785","street":{"id":930192,"name":"On or near Central Road"},"longitude":"-0.196534"},"context":"","outcome_status":null,"persistent_id":"","id":74272579,"location_subtype":"","month":"2019-05"},{"category":"anti-social-behaviour","location_type":"Force","location":{"latitude":"51.393785","street":{"id":930192,"name":"On or near Central Road"},"longitude":"-0.196534"},"context":"","outcome_status":null,"persistent_id":"","id":74272580,"location_subtype":"","month":"2019-05"},{"category":"anti-social-behaviour","location_type":"Force","location":{"latitude":"51.393785","street":{"id":930192,"name":"On or near Central Road"},"longitude":"-0.196534"},"context":"","outcome_status":null,"persistent_id":"","id":74272581,"location_subtype":"","month":"2019-05"},{"category":"anti-social-behaviour","location_type":"Force","location":{"latitude":"51.393785","street":{"id":930192,"name":"On or near Central Road"},"longitude":"-0.196534"},"context":"","outcome_status":null,"persistent_id":"","id":74272582,"location_subtype":"","month":"2019-05"},{"category":"anti-social-behaviour","location_type":"Force","location":{"latitude":"51.393785","street":{"id":930192,"name":"On or near Central Road"},"longitude":"-0.196534"},"context":"","outcome_status":null,"persistent_id":"","id":74272583,"location_subtype":"","month":"2019-05"},{"category":"anti-social-behaviour","location_type":"Force","location":{"latitude":"51.399333","street":{"id":930206,"name":"On or near Queen Elizabeth Gardens"},"longitude":"-0.199982"},"context":"","outcome_status":null,"persistent_id":"","id":74272595,"location_subtype":"","month":"2019-05"},{"category":"anti-social-behaviour","location_type":"Force","location":{"latitude":"51.409491","street":{"id":933149,"name":"On or near Sheldrick Close"},"longitude":"-0.179941"},"context":"","outcome_status":null,"persistent_id":"","id":74272506,"location_subtype":"","month":"2019-05"},{"category":"anti-social-behaviour","location_type":"Force","location":{"latitude":"51.402920","street":{"id":933101,"name":"On or near Chatsworth Place"},"longitude":"-0.165709"},"context":"","outcome_status":null,"persistent_id":"","id":74271999,"location_subtype":"","month":"2019-05"},{"category":"anti-social-behaviour","location_type":"Force","location":{"latitude":"51.403474","street":{"id":933073,"name":"On or near Commonside East"},"longitude":"-0.157995"},"context":"","outcome_status":null,"persistent_id":"","id":74271954,"location_subtype":"","month":"2019-05"},{"category":"anti-social-behaviour","location_type":"Force","location":{"latitude":"51.405613","street":{"id":932968,"name":"On or near Raleigh Gardens"},"longitude":"-0.166565"},"context":"","outcome_status":null,"persistent_id":"","id":74272011,"location_subtype":"","month":"2019-05"},{"category":"anti-social-behaviour","location_type":"Force","location":{"latitude":"51.408215","street":{"id":933134,"name":"On or near Dalton Avenue"},"longitude":"-0.174254"},"context":"","outcome_status":null,"persistent_id":"","id":74272037,"location_subtype":"","month":"2019-05"},{"category":"anti-social-behaviour","location_type":"Force","location":{"latitude":"51.405184","street":{"id":933182,"name":"On or near Belgrave Road"},"longitude":"-0.179997"},"context":"","outcome_status":null,"persistent_id":"","id":74272497,"location_subtype":"","month":"2019-05"},{"category":"anti-social-behaviour","location_type":"Force","location":{"latitude":"51.400926","street":{"id":933213,"name":"On or near Bardney Road"},"longitude":"-0.191868"},"context":"","outcome_status":null,"persistent_id":"","id":74272546,"location_subtype":"","month":"2019-05"},{"category":"anti-social-behaviour","location_type":"Force","location":{"latitude":"51.407277","street":{"id":933278,"name":"On or near Charminster Avenue"},"longitude":"-0.196679"},"context":"","outcome_status":null,"persistent_id":"","id":74272584,"location_subtype":"","month":"2019-05"},{"category":"anti-social-behaviour","location_type":"Force","location":{"latitude":"51.406511","street":{"id":933030,"name":"On or near Lammas Avenue"},"longitude":"-0.157859"},"context":"","outcome_status":null,"persistent_id":"","id":74271953,"location_subtype":"","month":"2019-05"},{"category":"anti-social-behaviour","location_type":"Force","location":{"latitude":"51.403474","street":{"id":933073,"name":"On or near Commonside East"},"longitude":"-0.157995"},"context":"","outcome_status":null,"persistent_id":"","id":74271955,"location_subtype":"","month":"2019-05"},{"category":"anti-social-behaviour","location_type":"Force","location":{"latitude":"51.406960","street":{"id":933053,"name":"On or near Bedfont Close"},"longitude":"-0.160098"},"context":"","outcome_status":null,"persistent_id":"","id":74271963,"location_subtype":"","month":"2019-05"},{"category":"anti-social-behaviour","location_type":"Force","location":{"latitude":"51.400912","street":{"id":933071,"name":"On or near Commonside West"},"longitude":"-0.160341"},"context":"","outcome_status":null,"persistent_id":"","id":74271964,"location_subtype":"","month":"2019-05"},{"category":"anti-social-behaviour","location_type":"Force","location":{"latitude":"51.406960","street":{"id":933053,"name":"On or near Bedfont Close"},"longitude":"-0.160098"},"context":"","outcome_status":null,"persistent_id":"","id":74271967,"location_subtype":"","month":"2019-05"},{"category":"anti-social-behaviour","location_type":"Force","location":{"latitude":"51.404437","street":{"id":933069,"name":"On or near Esher Mews"},"longitude":"-0.161536"},"context":"","outcome_status":null,"persistent_id":"","id":74271974,"location_subtype":"","month":"2019-05"},{"category":"anti-social-behaviour","location_type":"Force","location":{"latitude":"51.408054","street":{"id":932982,"name":"On or near Downe Road"},"longitude":"-0.162757"},"context":"","outcome_status":null,"persistent_id":"","id":74271975,"location_subtype":"","month":"2019-05"},{"category":"anti-social-behaviour","location_type":"Force","location":{"latitude":"51.408054","street":{"id":932982,"name":"On or near Downe Road"},"longitude":"-0.162757"},"context":"","outcome_status":null,"persistent_id":"","id":74271976,"location_subtype":"","month":"2019-05"},{"category":"anti-social-behaviour","location_type":"Force","location":{"latitude":"51.408054","street":{"id":932982,"name":"On or near Downe Road"},"longitude":"-0.162757"},"context":"","outcome_status":null,"persistent_id":"","id":74271977,"location_subtype":"","month":"2019-05"},{"category":"anti-social-behaviour","location_type":"Force","location":{"latitude":"51.403673","street":{"id":933065,"name":"On or near Langdale Avenue"},"longitude":"-0.162660"},"context":"","outcome_status":null,"persistent_id":"","id":74271981,"location_subtype":"","month":"2019-05"},{"category":"anti-social-behaviour","location_type":"Force","location":{"latitude":"51.398398","street":{"id":930389,"name":"On or near Cranmer Farm Close"},"longitude":"-0.164079"},"context":"","outcome_status":null,"persistent_id":"","id":74271982,"location_subtype":"","month":"2019-05"},{"category":"anti-social-behaviour","location_type":"Force","location":{"latitude":"51.409714","street":{"id":932988,"name":"On or near Bond Road"},"longitude":"-0.162518"},"context":"","outcome_status":null,"persistent_id":"","id":74271983,"location_subtype":"","month":"2019-05"},{"category":"anti-social-behaviour","location_type":"Force","location":{"latitude":"51.409714","street":{"id":932988,"name":"On or near Bond Road"},"longitude":"-0.162518"},"context":"","outcome_status":null,"persistent_id":"","id":74271984,"location_subtype":"","month":"2019-05"},{"category":"anti-social-behaviour","location_type":"Force","location":{"latitude":"51.406680","street":{"id":932944,"name":"On or near Parking Area"},"longitude":"-0.162884"},"context":"","outcome_status":null,"persistent_id":"","id":74271986,"location_subtype":"","month":"2019-05"},{"category":"anti-social-behaviour","location_type":"Force","location":{"latitude":"51.406676","street":{"id":932945,"name":"On or near Parking Area"},"longitude":"-0.164912"},"context":"","outcome_status":null,"persistent_id":"","id":74271988,"location_subtype":"","month":"2019-05"},{"category":"anti-social-behaviour","location_type":"Force","location":{"latitude":"51.406676","street":{"id":932945,"name":"On or near Parking Area"},"longitude":"-0.164912"},"context":"","outcome_status":null,"persistent_id":"","id":74271989,"location_subtype":"","month":"2019-05"},{"category":"anti-social-behaviour","location_type":"Force","location":{"latitude":"51.404770","street":{"id":932994,"name":"On or near Supermarket"},"longitude":"-0.164988"},"context":"","outcome_status":null,"persistent_id":"","id":74271990,"location_subtype":"","month":"2019-05"},{"category":"anti-social-behaviour","location_type":"Force","location":{"latitude":"51.404770","street":{"id":932994,"name":"On or near Supermarket"},"longitude":"-0.164988"},"context":"","outcome_status":null,"persistent_id":"","id":74271991,"location_subtype":"","month":"2019-05"},{"category":"anti-social-behaviour","location_type":"Force","location":{"latitude":"51.405674","street":{"id":932993,"name":"On or near Supermarket"},"longitude":"-0.165254"},"context":"","outcome_status":null,"persistent_id":"","id":74271992,"location_subtype":"","month":"2019-05"},{"category":"anti-social-behaviour","location_type":"Force","location":{"latitude":"51.405674","street":{"id":932993,"name":"On or near Supermarket"},"longitude":"-0.165254"},"context":"","outcome_status":null,"persistent_id":"","id":74271993,"location_subtype":"","month":"2019-05"},{"category":"anti-social-behaviour","location_type":"Force","location":{"latitude":"51.405674","street":{"id":932993,"name":"On or near Supermarket"},"longitude":"-0.165254"},"context":"","outcome_status":null,"persistent_id":"","id":74271994,"location_subtype":"","month":"2019-05"},{"category":"anti-social-behaviour","location_type":"Force","location":{"latitude":"51.405674","street":{"id":932993,"name":"On or near Supermarket"},"longitude":"-0.165254"},"context":"","outcome_status":null,"persistent_id":"","id":74271995,"location_subtype":"","month":"2019-05"},{"category":"anti-social-behaviour","location_type":"Force","location":{"latitude":"51.390341","street":{"id":930409,"name":"On or near Shopping Area"},"longitude":"-0.166960"},"context":"","outcome_status":null,"persistent_id":"","id":74271996,"location_subtype":"","month":"2019-05"},{"category":"anti-social-behaviour","location_type":"Force","location":{"latitude":"51.402525","street":{"id":933094,"name":"On or near Kingsleigh Place"},"longitude":"-0.165193"},"context":"","outcome_status":null,"persistent_id":"","id":74271997,"location_subtype":"","month":"2019-05"},{"category":"anti-social-behaviour","location_type":"Force","location":{"latitude":"51.406760","street":{"id":932978,"name":"On or near Holborn Way"},"longitude":"-0.165167"},"context":"","outcome_status":null,"persistent_id":"","id":74271998,"location_subtype":"","month":"2019-05"},{"category":"anti-social-behaviour","location_type":"Force","location":{"latitude":"51.402920","street":{"id":933101,"name":"On or near Chatsworth Place"},"longitude":"-0.165709"},"context":"","outcome_status":null,"persistent_id":"","id":74272000,"location_subtype":"","month":"2019-05"},{"category":"anti-social-behaviour","location_type":"Force","location":{"latitude":"51.409118","street":{"id":932989,"name":"On or near Bond Road"},"longitude":"-0.166381"},"context":"","outcome_status":null,"persistent_id":"","id":74272003,"location_subtype":"","month":"2019-05"},{"category":"anti-social-behaviour","location_type":"Force","location":{"latitude":"51.407054","street":{"id":932964,"name":"On or near Sadler Close"},"longitude":"-0.166708"},"context":"","outcome_status":null,"persistent_id":"","id":74272004,"location_subtype":"","month":"2019-05"},{"category":"anti-social-behaviour","location_type":"Force","location":{"latitude":"51.394380","street":{"id":930383,"name":"On or near Osier Way"},"longitude":"-0.168207"},"context":"","outcome_status":null,"persistent_id":"","id":74272005,"location_subtype":"","month":"2019-05"},{"category":"anti-social-behaviour","location_type":"Force","location":{"latitude":"51.405141","street":{"id":932946,"name":"On or near Parking Area"},"longitude":"-0.165692"},"context":"","outcome_status":null,"persistent_id":"","id":74272006,"location_subtype":"","month":"2019-05"},{"category":"anti-social-behaviour","location_type":"Force","location":{"latitude":"51.405141","street":{"id":932946,"name":"On or near Parking Area"},"longitude":"-0.165692"},"context":"","outcome_status":null,"persistent_id":"","id":74272007,"location_subtype":"","month":"2019-05"},{"category":"anti-social-behaviour","location_type":"Force","location":{"latitude":"51.405141","street":{"id":932946,"name":"On or near Parking Area"},"longitude":"-0.165692"},"context":"","outcome_status":null,"persistent_id":"","id":74272008,"location_subtype":"","month":"2019-05"},{"category":"anti-social-behaviour","location_type":"Force","location":{"latitude":"51.412112","street":{"id":932990,"name":"On or near Biggin Avenue"},"longitude":"-0.165787"},"context":"","outcome_status":null,"persistent_id":"","id":74272009,"location_subtype":"","month":"2019-05"},{"category":"anti-social-behaviour","location_type":"Force","location":{"latitude":"51.405613","street":{"id":932968,"name":"On or near Raleigh Gardens"},"longitude":"-0.166565"},"context":"","outcome_status":null,"persistent_id":"","id":74272012,"location_subtype":"","month":"2019-05"},{"category":"anti-social-behaviour","location_type":"Force","location":{"latitude":"51.405613","street":{"id":932968,"name":"On or near Raleigh Gardens"},"longitude":"-0.166565"},"context":"","outcome_status":null,"persistent_id":"","id":74272013,"location_subtype":"","month":"2019-05"},{"category":"anti-social-behaviour","location_type":"Force","location":{"latitude":"51.403186","street":{"id":933096,"name":"On or near Glebe Path"},"longitude":"-0.168330"},"context":"","outcome_status":null,"persistent_id":"","id":74272015,"location_subtype":"","month":"2019-05"},{"category":"anti-social-behaviour","location_type":"Force","location":{"latitude":"51.401707","street":{"id":933090,"name":"On or near Lower Green West"},"longitude":"-0.168619"},"context":"","outcome_status":null,"persistent_id":"","id":74272016,"location_subtype":"","month":"2019-05"},{"category":"anti-social-behaviour","location_type":"Force","location":{"latitude":"51.401707","street":{"id":933090,"name":"On or near Lower Green West"},"longitude":"-0.168619"},"context":"","outcome_status":null,"persistent_id":"","id":74272017,"location_subtype":"","month":"2019-05"},{"category":"anti-social-behaviour","location_type":"Force","location":{"latitude":"51.396325","street":{"id":930391,"name":"On or near Brookfields Avenue"},"longitude":"-0.170659"},"context":"","outcome_status":null,"persistent_id":"","id":74272018,"location_subtype":"","month":"2019-05"},{"category":"anti-social-behaviour","location_type":"Force","location":{"latitude":"51.400047","street":{"id":930394,"name":"On or near London Road"},"longitude":"-0.170036"},"context":"","outcome_status":null,"persistent_id":"","id":74272019,"location_subtype":"","month":"2019-05"},{"category":"anti-social-behaviour","location_type":"Force","location":{"latitude":"51.400047","street":{"id":930394,"name":"On or near London Road"},"longitude":"-0.170036"},"context":"","outcome_status":null,"persistent_id":"","id":74272020,"location_subtype":"","month":"2019-05"},{"category":"anti-social-behaviour","location_type":"Force","location":{"latitude":"51.409311","street":{"id":932979,"name":"On or near Heyford Road"},"longitude":"-0.169523"},"context":"","outcome_status":null,"persistent_id":"","id":74272021,"location_subtype":"","month":"2019-05"},{"category":"anti-social-behaviour","location_type":"Force","location":{"latitude":"51.409311","street":{"id":932979,"name":"On or near Heyford Road"},"longitude":"-0.169523"},"context":"","outcome_status":null,"persistent_id":"","id":74272022,"location_subtype":"","month":"2019-05"},{"category":"anti-social-behaviour","location_type":"Force","location":{"latitude":"51.409311","street":{"id":932979,"name":"On or near Heyford Road"},"longitude":"-0.169523"},"context":"","outcome_status":null,"persistent_id":"","id":74272023,"location_subtype":"","month":"2019-05"},{"category":"anti-social-behaviour","location_type":"Force","location":{"latitude":"51.409311","street":{"id":932979,"name":"On or near Heyford Road"},"longitude":"-0.169523"},"context":"","outcome_status":null,"persistent_id":"","id":74272024,"location_subtype":"","month":"2019-05"},{"category":"anti-social-behaviour","location_type":"Force","location":{"latitude":"51.409311","street":{"id":932979,"name":"On or near Heyford Road"},"longitude":"-0.169523"},"context":"","outcome_status":null,"persistent_id":"","id":74272025,"location_subtype":"","month":"2019-05"},{"category":"anti-social-behaviour","location_type":"Force","location":{"latitude":"51.409311","street":{"id":932979,"name":"On or near Heyford Road"},"longitude":"-0.169523"},"context":"","outcome_status":null,"persistent_id":"","id":74272026,"location_subtype":"","month":"2019-05"},{"category":"anti-social-behaviour","location_type":"Force","location":{"latitude":"51.404683","street":{"id":933089,"name":"On or near Merlin Close"},"longitude":"-0.170930"},"context":"","outcome_status":null,"persistent_id":"","id":74272027,"location_subtype":"","month":"2019-05"},{"category":"anti-social-behaviour","location_type":"Force","location":{"latitude":"51.403461","street":{"id":933095,"name":"On or near Harwood Avenue"},"longitude":"-0.170375"},"context":"","outcome_status":null,"persistent_id":"","id":74272028,"location_subtype":"","month":"2019-05"},{"category":"anti-social-behaviour","location_type":"Force","location":{"latitude":"51.412650","street":{"id":932991,"name":"On or near Sports\/recreation Area"},"longitude":"-0.172007"},"context":"","outcome_status":null,"persistent_id":"","id":74272029,"location_subtype":"","month":"2019-05"},{"category":"anti-social-behaviour","location_type":"Force","location":{"latitude":"51.412650","street":{"id":932991,"name":"On or near Sports\/recreation Area"},"longitude":"-0.172007"},"context":"","outcome_status":null,"persistent_id":"","id":74272030,"location_subtype":"","month":"2019-05"},{"category":"anti-social-behaviour","location_type":"Force","location":{"latitude":"51.396071","street":{"id":930271,"name":"On or near London Road"},"longitude":"-0.173372"},"context":"","outcome_status":null,"persistent_id":"","id":74272031,"location_subtype":"","month":"2019-05"},{"category":"anti-social-behaviour","location_type":"Force","location":{"latitude":"51.402319","street":{"id":933189,"name":"On or near Vicarage Gardens"},"longitude":"-0.173856"},"context":"","outcome_status":null,"persistent_id":"","id":74272033,"location_subtype":"","month":"2019-05"},{"category":"anti-social-behaviour","location_type":"Force","location":{"latitude":"51.411994","street":{"id":933129,"name":"On or near Silbury Avenue"},"longitude":"-0.173183"},"context":"","outcome_status":null,"persistent_id":"","id":74272034,"location_subtype":"","month":"2019-05"},{"category":"anti-social-behaviour","location_type":"Force","location":{"latitude":"51.397003","street":{"id":930274,"name":"On or near Crescent Grove"},"longitude":"-0.173795"},"context":"","outcome_status":null,"persistent_id":"","id":74272035,"location_subtype":"","month":"2019-05"},{"category":"anti-social-behaviour","location_type":"Force","location":{"latitude":"51.407176","street":{"id":933136,"name":"On or near Abbeyfield Close"},"longitude":"-0.173893"},"context":"","outcome_status":null,"persistent_id":"","id":74272036,"location_subtype":"","month":"2019-05"},{"category":"anti-social-behaviour","location_type":"Force","location":{"latitude":"51.408215","street":{"id":933134,"name":"On or near Dalton Avenue"},"longitude":"-0.174254"},"context":"","outcome_status":null,"persistent_id":"","id":74272038,"location_subtype":"","month":"2019-05"},{"category":"anti-social-behaviour","location_type":"Force","location":{"latitude":"51.413399","street":{"id":933158,"name":"On or near Prince Georges Road"},"longitude":"-0.176248"},"context":"","outcome_status":null,"persistent_id":"","id":74272039,"location_subtype":"","month":"2019-05"},{"category":"anti-social-behaviour","location_type":"Force","location":{"latitude":"51.395900","street":{"id":930252,"name":"On or near Park\/open Space"},"longitude":"-0.176297"},"context":"","outcome_status":null,"persistent_id":"","id":74272040,"location_subtype":"","month":"2019-05"},{"category":"anti-social-behaviour","location_type":"Force","location":{"latitude":"51.404589","street":{"id":933205,"name":"On or near Church Road"},"longitude":"-0.176440"},"context":"","outcome_status":null,"persistent_id":"","id":74272043,"location_subtype":"","month":"2019-05"},{"category":"anti-social-behaviour","location_type":"Force","location":{"latitude":"51.387182","street":{"id":930403,"name":"On or near Stoneleigh Road"},"longitude":"-0.173122"},"context":"","outcome_status":null,"persistent_id":"","id":74269228,"location_subtype":"","month":"2019-05"},{"category":"anti-social-behaviour","location_type":"Force","location":{"latitude":"51.389998","street":{"id":930367,"name":"On or near Pipewell Road"},"longitude":"-0.174922"},"context":"","outcome_status":null,"persistent_id":"","id":74269232,"location_subtype":"","month":"2019-05"},{"category":"bicycle-theft","location_type":"Force","location":{"latitude":"51.405613","street":{"id":932968,"name":"On or near Raleigh Gardens"},"longitude":"-0.166565"},"context":"","outcome_status":{"category":"Status update unavailable","date":"2019-09"},"persistent_id":"bfce587ecc942aae2e4bb18d1ed85ec38536573dc2769ba9969a8b15031257f1","id":74330649,"location_subtype":"","month":"2019-05"},{"category":"bicycle-theft","location_type":"Force","location":{"latitude":"51.397361","street":{"id":930379,"name":"On or near Tramway Path"},"longitude":"-0.171337"},"context":"","outcome_status":{"category":"Status update unavailable","date":"2019-09"},"persistent_id":"c49f85f66c8bbba9075a0bb936c1b1aa68d6854cfeb304f4cbf0184dbe3f659b","id":74326756,"location_subtype":"","month":"2019-05"},{"category":"bicycle-theft","location_type":"Force","location":{"latitude":"51.405613","street":{"id":932968,"name":"On or near Raleigh Gardens"},"longitude":"-0.166565"},"context":"","outcome_status":{"category":"Status update unavailable","date":"2019-09"},"persistent_id":"c13bd52afa27e6b0b0dd98731c3f7f0f1c233f5aa78fb0fab2628709b46c5c32","id":74337786,"location_subtype":"","month":"2019-05"},{"category":"bicycle-theft","location_type":"Force","location":{"latitude":"51.405613","street":{"id":932968,"name":"On or near Raleigh Gardens"},"longitude":"-0.166565"},"context":"","outcome_status":{"category":"Status update unavailable","date":"2019-09"},"persistent_id":"b4135224391e0bd1581f07cc716d3bd40afa949feb7d5e93e5d4df593751d8e6","id":74333594,"location_subtype":"","month":"2019-05"},{"category":"bicycle-theft","location_type":"Force","location":{"latitude":"51.405684","street":{"id":933183,"name":"On or near Batsworth Road"},"longitude":"-0.178611"},"context":"","outcome_status":{"category":"Status update unavailable","date":"2019-09"},"persistent_id":"fec0fd759f528ee87eb98ccbc1cd2f9ee296a455da5b6bf475c13477d978c8a2","id":74308744,"location_subtype":"","month":"2019-05"},{"category":"burglary","location_type":"Force","location":{"latitude":"51.392375","street":{"id":930284,"name":"On or near St Helier Avenue"},"longitude":"-0.187907"},"context":"","outcome_status":{"category":"Status update unavailable","date":"2019-09"},"persistent_id":"b142cddcbe06cd96e83aaefdfb1212e07a8841afa645ec02f6bf3853a4b9d74f","id":74356086,"location_subtype":"","month":"2019-05"},{"category":"burglary","location_type":"Force","location":{"latitude":"51.398990","street":{"id":930280,"name":"On or near Hatfield Close"},"longitude":"-0.182399"},"context":"","outcome_status":{"category":"Status update unavailable","date":"2019-09"},"persistent_id":"72232c4618596d3b7fa4f7fb067ad3f09ec5f4da88e659de52a2bef79fb95902","id":74328367,"location_subtype":"","month":"2019-05"},{"category":"burglary","location_type":"Force","location":{"latitude":"51.402702","street":{"id":933212,"name":"On or near London Road"},"longitude":"-0.193336"},"context":"","outcome_status":{"category":"Status update unavailable","date":"2019-09"},"persistent_id":"78cc5f23325f9c6b20ac7346f5deffa76dabe5fa7bf2136f916982a5bcc154be","id":74319556,"location_subtype":"","month":"2019-05"},{"category":"burglary","location_type":"Force","location":{"latitude":"51.405060","street":{"id":933050,"name":"On or near Clarendon Grove"},"longitude":"-0.161684"},"context":"","outcome_status":{"category":"Status update unavailable","date":"2019-09"},"persistent_id":"b610254fbd9ab1f0884d678c46b779a065e71ea02221be4092b5384011fee492","id":74328321,"location_subtype":"","month":"2019-05"},{"category":"burglary","location_type":"Force","location":{"latitude":"51.413248","street":{"id":933142,"name":"On or near Watermill Way"},"longitude":"-0.182754"},"context":"","outcome_status":{"category":"Status update unavailable","date":"2019-09"},"persistent_id":"caad28ec525949e9d2385215cc3f56517fff6d7e78aaa71c0618e6e2b893cf74","id":74314219,"location_subtype":"","month":"2019-05"},{"category":"burglary","location_type":"Force","location":{"latitude":"51.403597","street":{"id":933299,"name":"On or near Grasmere Avenue"},"longitude":"-0.197744"},"context":"","outcome_status":{"category":"Status update unavailable","date":"2019-09"},"persistent_id":"7cf76c7055055409cf56013429f6b50901201e13e83ed336e4a497d4d0babaa4","id":74356603,"location_subtype":"","month":"2019-05"},{"category":"burglary","location_type":"Force","location":{"latitude":"51.405684","street":{"id":933183,"name":"On or near Batsworth Road"},"longitude":"-0.178611"},"context":"","outcome_status":{"category":"Status update unavailable","date":"2019-09"},"persistent_id":"a3e539f9bacb3796fccaf5b44444a7f3cfab96c2ccd7cf2cb749e8bdc7204289","id":74299662,"location_subtype":"","month":"2019-05"},{"category":"burglary","location_type":"Force","location":{"latitude":"51.398979","street":{"id":930278,"name":"On or near Ravensbury Grove"},"longitude":"-0.181738"},"context":"","outcome_status":{"category":"Status update unavailable","date":"2019-09"},"persistent_id":"61733acadce60874f1e897ed40ceb10e89900c35e0b1212741f67a0ad3a5cfb4","id":74341099,"location_subtype":"","month":"2019-05"},{"category":"burglary","location_type":"Force","location":{"latitude":"51.412083","street":{"id":933164,"name":"On or near Liberty Avenue"},"longitude":"-0.180672"},"context":"","outcome_status":{"category":"Status update unavailable","date":"2019-09"},"persistent_id":"0cdd25ff20e8b98304900dfc1e40dac32792968a34756452edfe94ad7218252c","id":74296731,"location_subtype":"","month":"2019-05"},{"category":"burglary","location_type":"Force","location":{"latitude":"51.393526","street":{"id":930255,"name":"On or near Seddon Road"},"longitude":"-0.179194"},"context":"","outcome_status":{"category":"Status update unavailable","date":"2019-09"},"persistent_id":"1d575678aefc1b703bd9a64132a5a8a00e383b1fd919b7887626c264dc14699c","id":74303834,"location_subtype":"","month":"2019-05"},{"category":"burglary","location_type":"Force","location":{"latitude":"51.395115","street":{"id":930267,"name":"On or near Edward Avenue"},"longitude":"-0.181287"},"context":"","outcome_status":{"category":"Status update unavailable","date":"2019-09"},"persistent_id":"5e00627c7d6fdbd9a0ad815e2921147756041c60b28d7682873b077eef43caf5","id":74357534,"location_subtype":"","month":"2019-05"},{"category":"burglary","location_type":"Force","location":{"latitude":"51.400047","street":{"id":930394,"name":"On or near London Road"},"longitude":"-0.170036"},"context":"","outcome_status":{"category":"Status update unavailable","date":"2019-09"},"persistent_id":"aa7d15b56fb079f5ce41671df73e4cbd4c77da9e6cde49f69eb7454940c1f4ac","id":74306229,"location_subtype":"","month":"2019-05"},{"category":"burglary","location_type":"Force","location":{"latitude":"51.410502","street":{"id":933175,"name":"On or near Farewell Place"},"longitude":"-0.175011"},"context":"","outcome_status":{"category":"Status update unavailable","date":"2019-09"},"persistent_id":"1ecce4fae69752225d70d46ce38ecbeb639a2fe1741dddbe264c05a6831f65ac","id":74349090,"location_subtype":"","month":"2019-05"},{"category":"burglary","location_type":"Force","location":{"latitude":"51.400047","street":{"id":930394,"name":"On or near London Road"},"longitude":"-0.170036"},"context":"","outcome_status":{"category":"Status update unavailable","date":"2019-09"},"persistent_id":"0048ecc3f16021ecf76cfd8a897aa56b3b84c1cc1a587881574dee926d4b9652","id":74313359,"location_subtype":"","month":"2019-05"},{"category":"burglary","location_type":"Force","location":{"latitude":"51.409976","street":{"id":932970,"name":"On or near Plummer Lane"},"longitude":"-0.165527"},"context":"","outcome_status":{"category":"Court result unavailable","date":"2020-05"},"persistent_id":"aa4bac7fd355eb825669636cf1507cd60b6719759bd348356ab7008e72ff3c90","id":74346426,"location_subtype":"","month":"2019-05"},{"category":"burglary","location_type":"Force","location":{"latitude":"51.405667","street":{"id":933271,"name":"On or near Kenley Road"},"longitude":"-0.198410"},"context":"","outcome_status":{"category":"Status update unavailable","date":"2019-09"},"persistent_id":"ec8ed7e51556707cfb0d524dd8dca59c96e6026f2680405632c62ada6e2fa582","id":74296444,"location_subtype":"","month":"2019-05"},{"category":"burglary","location_type":"Force","location":{"latitude":"51.413840","street":{"id":934917,"name":"On or near High Path"},"longitude":"-0.189043"},"context":"","outcome_status":{"category":"Status update unavailable","date":"2019-09"},"persistent_id":"6174cfe198ebd12abb21932ff6ea7f18b20d625d5306e17ebe83d1a3e7e39952","id":74309955,"location_subtype":"","month":"2019-05"},{"category":"burglary","location_type":"Force","location":{"latitude":"51.411284","street":{"id":933125,"name":"On or near Jubilee Way"},"longitude":"-0.190065"},"context":"","outcome_status":{"category":"Status update unavailable","date":"2019-09"},"persistent_id":"4f93e48b2d0a9880f97e5db2c5fa58a9f330a8239c10495f80e6cc9546bbcdb9","id":74332350,"location_subtype":"","month":"2019-05"},{"category":"burglary","location_type":"Force","location":{"latitude":"51.388888","street":{"id":930359,"name":"On or near Bishopsford Road"},"longitude":"-0.181060"},"context":"","outcome_status":{"category":"Status update unavailable","date":"2019-09"},"persistent_id":"c7d6d626104043d9c1e1cc61a9a48d5009b9e90b0680dee61f217405ad3fe76d","id":74335946,"location_subtype":"","month":"2019-05"},{"category":"burglary","location_type":"Force","location":{"latitude":"51.397156","street":{"id":930381,"name":"On or near The Close"},"longitude":"-0.166874"},"context":"","outcome_status":{"category":"Status update unavailable","date":"2019-09"},"persistent_id":"42f98ac051fdde812e36387dd969730e0738850938d63a4cc15f445bb444a2e4","id":74305172,"location_subtype":"","month":"2019-05"},{"category":"burglary","location_type":"Force","location":{"latitude":"51.397994","street":{"id":930315,"name":"On or near Hospital"},"longitude":"-0.184911"},"context":"","outcome_status":{"category":"Status update unavailable","date":"2019-09"},"persistent_id":"c17b9cf1d55b035e66d069b6552378bdc1d64dbefb9b57a84d0cf54cbe8ad68a","id":74335528,"location_subtype":"","month":"2019-05"},{"category":"criminal-damage-arson","location_type":"Force","location":{"latitude":"51.401574","street":{"id":933305,"name":"On or near Police Station"},"longitude":"-0.196587"},"context":"","outcome_status":{"category":"Status update unavailable","date":"2019-09"},"persistent_id":"b5dcab6a3a895381f97ab7b51c30d02623cdedea3811bfe8ea86ae7d11a716a2","id":74290724,"location_subtype":"","month":"2019-05"},{"category":"criminal-damage-arson","location_type":"Force","location":{"latitude":"51.390181","street":{"id":930325,"name":"On or near Middleton Road"},"longitude":"-0.192579"},"context":"","outcome_status":{"category":"Status update unavailable","date":"2019-09"},"persistent_id":"d6bafc75f9e4d04e2bedbc1e6936315d0734d4165b88d903fc11042c8a9510ca","id":74302446,"location_subtype":"","month":"2019-05"},{"category":"criminal-damage-arson","location_type":"Force","location":{"latitude":"51.409229","street":{"id":933043,"name":"On or near Firtree Avenue"},"longitude":"-0.160266"},"context":"","outcome_status":{"category":"Status update unavailable","date":"2019-09"},"persistent_id":"2cc8b8b6c7fbf585191292a6d3e2941c71168aa8a2c4379ffa8e102f12a5a769","id":74342678,"location_subtype":"","month":"2019-05"},{"category":"criminal-damage-arson","location_type":"Force","location":{"latitude":"51.396215","street":{"id":930193,"name":"On or near Bury Grove"},"longitude":"-0.194311"},"context":"","outcome_status":{"category":"Status update unavailable","date":"2019-09"},"persistent_id":"4bb312eab3ba38f64b8b6ea9bce40a18c06b7c256ee6c5617ff555c8648269fa","id":74314344,"location_subtype":"","month":"2019-05"},{"category":"criminal-damage-arson","location_type":"Force","location":{"latitude":"51.405613","street":{"id":932968,"name":"On or near Raleigh Gardens"},"longitude":"-0.166565"},"context":"","outcome_status":{"category":"Status update unavailable","date":"2019-09"},"persistent_id":"7dde192c4e304ecd01b273faeb24ed49601532532e68f097061e0292707cab98","id":74298969,"location_subtype":"","month":"2019-05"},{"category":"criminal-damage-arson","location_type":"Force","location":{"latitude":"51.391397","street":{"id":930331,"name":"On or near Malling Gardens"},"longitude":"-0.186839"},"context":"","outcome_status":{"category":"Offender given a caution","date":"2019-05"},"persistent_id":"02dfe18ee9f71ff12a85dd053f4626c920d235f8c5ad835a9ba5e0495c9793e9","id":74371479,"location_subtype":"","month":"2019-05"},{"category":"criminal-damage-arson","location_type":"Force","location":{"latitude":"51.398125","street":{"id":930306,"name":"On or near Boxley Road"},"longitude":"-0.185797"},"context":"","outcome_status":{"category":"Status update unavailable","date":"2019-09"},"persistent_id":"078e417778ddf8844881f17913b6d87b74b14a8d9476020e2dfd458e4c4d5944","id":74299089,"location_subtype":"","month":"2019-05"},{"category":"criminal-damage-arson","location_type":"Force","location":{"latitude":"51.389779","street":{"id":930353,"name":"On or near Montacute Road"},"longitude":"-0.182246"},"context":"","outcome_status":{"category":"Status update unavailable","date":"2019-09"},"persistent_id":"edf893dd789fb80b17613d1c9a0edefe1e50e887077f785409c126548fcf7fb3","id":74290151,"location_subtype":"","month":"2019-05"},{"category":"criminal-damage-arson","location_type":"Force","location":{"latitude":"51.409491","street":{"id":933149,"name":"On or near Sheldrick Close"},"longitude":"-0.179941"},"context":"","outcome_status":{"category":"Status update unavailable","date":"2019-09"},"persistent_id":"da46aadfe52cbf7b694ec3eb90a906a348fc865f24e772d0afa88bb3cb23e096","id":74327855,"location_subtype":"","month":"2019-05"},{"category":"criminal-damage-arson","location_type":"Force","location":{"latitude":"51.400926","street":{"id":933213,"name":"On or near Bardney Road"},"longitude":"-0.191868"},"context":"","outcome_status":{"category":"Status update unavailable","date":"2019-09"},"persistent_id":"38ce6f1865c4981a3f3adf53b94e153c1fbfffdee343a11be73270a3c924b3ea","id":74346152,"location_subtype":"","month":"2019-05"},{"category":"criminal-damage-arson","location_type":"Force","location":{"latitude":"51.390973","street":{"id":930334,"name":"On or near Faversham Road"},"longitude":"-0.191441"},"context":"","outcome_status":{"category":"Status update unavailable","date":"2019-09"},"persistent_id":"8fa79cf980c9f61dfc5d8d5669d4e6931b1627bc61b3dee06aba23948802d17f","id":74347033,"location_subtype":"","month":"2019-05"},{"category":"criminal-damage-arson","location_type":"Force","location":{"latitude":"51.399833","street":{"id":930317,"name":"On or near Bayham Road"},"longitude":"-0.189855"},"context":"","outcome_status":{"category":"Status update unavailable","date":"2019-09"},"persistent_id":"79af85f593c25fc4d00fd90aa55c6dfcc81d3433d966373bf1a6526df3faf392","id":74347829,"location_subtype":"","month":"2019-05"},{"category":"criminal-damage-arson","location_type":"Force","location":{"latitude":"51.405684","street":{"id":933183,"name":"On or near Batsworth Road"},"longitude":"-0.178611"},"context":"","outcome_status":{"category":"Status update unavailable","date":"2019-09"},"persistent_id":"c86ce89ca6783b53ac5803e7456f065cfe96adc1950c690a808f17831f56d82a","id":74347358,"location_subtype":"","month":"2019-05"},{"category":"criminal-damage-arson","location_type":"Force","location":{"latitude":"51.404437","street":{"id":933069,"name":"On or near Esher Mews"},"longitude":"-0.161536"},"context":"","outcome_status":{"category":"Status update unavailable","date":"2019-09"},"persistent_id":"1d967a087c4fed273aede19646d24fd0e5a9dc6663b171b57d736a2f50732ad6","id":74321427,"location_subtype":"","month":"2019-05"},{"category":"criminal-damage-arson","location_type":"Force","location":{"latitude":"51.395751","street":{"id":930266,"name":"On or near Freeman Road"},"longitude":"-0.181751"},"context":"","outcome_status":{"category":"Status update unavailable","date":"2019-09"},"persistent_id":"d21eb8e63718ab7540618d3a512c1501c2ac381cdfa25704fd2c087819efe978","id":74333570,"location_subtype":"","month":"2019-05"},{"category":"criminal-damage-arson","location_type":"Force","location":{"latitude":"51.408713","street":{"id":933170,"name":"On or near Hawthorne Avenue"},"longitude":"-0.176765"},"context":"","outcome_status":{"category":"Status update unavailable","date":"2019-09"},"persistent_id":"db4fb51a15b8c1f848aa51685910b343115b8f04032806f744924e8c4ed13cd6","id":74321059,"location_subtype":"","month":"2019-05"},{"category":"criminal-damage-arson","location_type":"Force","location":{"latitude":"51.389998","street":{"id":930367,"name":"On or near Pipewell Road"},"longitude":"-0.174922"},"context":"","outcome_status":{"category":"Status update unavailable","date":"2019-09"},"persistent_id":"89fdb4049d6776d108e65e01e15d4d79a77e9c7b7d75cc12471c087d9df7bcbb","id":74333218,"location_subtype":"","month":"2019-05"},{"category":"criminal-damage-arson","location_type":"Force","location":{"latitude":"51.397003","street":{"id":930274,"name":"On or near Crescent Grove"},"longitude":"-0.173795"},"context":"","outcome_status":{"category":"Investigation complete; no suspect identified","date":"2020-04"},"persistent_id":"6d42411b4950c942749d5b143484f7de87f9cce05cce0b7ba03d91a96f0b019a","id":74362059,"location_subtype":"","month":"2019-05"},{"category":"criminal-damage-arson","location_type":"Force","location":{"latitude":"51.409491","street":{"id":933149,"name":"On or near Sheldrick Close"},"longitude":"-0.179941"},"context":"","outcome_status":{"category":"Status update unavailable","date":"2019-09"},"persistent_id":"68b4d1b5a5e35bccea710b7371ef58dff83a3c4b90bf363b9a3cc308ac91aab0","id":74340098,"location_subtype":"","month":"2019-05"},{"category":"criminal-damage-arson","location_type":"Force","location":{"latitude":"51.401255","street":{"id":933197,"name":"On or near White Bridge Avenue"},"longitude":"-0.177162"},"context":"","outcome_status":{"category":"Local resolution","date":"2019-08"},"persistent_id":"8beeedcbd7757907dc6a08f464f8b71cc02470b6a506506b4b01df1a577fc1f5","id":74328030,"location_subtype":"","month":"2019-05"},{"category":"criminal-damage-arson","location_type":"Force","location":{"latitude":"51.409229","street":{"id":933043,"name":"On or near Firtree Avenue"},"longitude":"-0.160266"},"context":"","outcome_status":{"category":"Status update unavailable","date":"2019-09"},"persistent_id":"c64a764b3879f1033d7d255979ff48d42a1844a1ac96d03e351080a2849ea2eb","id":74321038,"location_subtype":"","month":"2019-05"},{"category":"criminal-damage-arson","location_type":"Force","location":{"latitude":"51.403980","street":{"id":933192,"name":"On or near Frimley Gardens"},"longitude":"-0.172554"},"context":"","outcome_status":{"category":"Status update unavailable","date":"2019-09"},"persistent_id":"a6e983587e5ad00113eb0313b15e4ac8447044537a344ae7e7a331a36bcc482e","id":74369306,"location_subtype":"","month":"2019-05"},{"category":"criminal-damage-arson","location_type":"Force","location":{"latitude":"51.410787","street":{"id":933169,"name":"On or near Hogarth Crescent"},"longitude":"-0.178839"},"context":"","outcome_status":{"category":"Status update unavailable","date":"2019-09"},"persistent_id":"fc29189a35f26493ea83e0f52eecaf316eabd9e17162865472c40735956d2cc2","id":74348841,"location_subtype":"","month":"2019-05"},{"category":"criminal-damage-arson","location_type":"Force","location":{"latitude":"51.413399","street":{"id":933158,"name":"On or near Prince Georges Road"},"longitude":"-0.176248"},"context":"","outcome_status":{"category":"Investigation complete; no suspect identified","date":"2020-03"},"persistent_id":"73eb5554e4db30ef64131fa7246749e449105e2609e18b3c3b57f6d7697e7117","id":74309402,"location_subtype":"","month":"2019-05"},{"category":"criminal-damage-arson","location_type":"Force","location":{"latitude":"51.413700","street":{"id":934951,"name":"On or near Christchurch Road"},"longitude":"-0.178853"},"context":"","outcome_status":{"category":"Status update unavailable","date":"2019-09"},"persistent_id":"22bdb6fa9851cc40735aed6f29097c114a0bc304a4af06ccde72f5cdbb607d2a","id":74309357,"location_subtype":"","month":"2019-05"},{"category":"criminal-damage-arson","location_type":"Force","location":{"latitude":"51.393785","street":{"id":930192,"name":"On or near Central Road"},"longitude":"-0.196534"},"context":"","outcome_status":{"category":"Status update unavailable","date":"2019-09"},"persistent_id":"f3c67e794854e0f75d6d76a631de97bae97944c0b10a31245b7afb7b3df82820","id":74362202,"location_subtype":"","month":"2019-05"},{"category":"criminal-damage-arson","location_type":"Force","location":{"latitude":"51.410120","street":{"id":933118,"name":"On or near Nursery Road"},"longitude":"-0.193260"},"context":"","outcome_status":{"category":"Court result unavailable","date":"2020-07"},"persistent_id":"3884572ee9a1f6a4a6b7651d8f86d9245b03f42f36e83513476330291dd714e8","id":74319595,"location_subtype":"","month":"2019-05"},{"category":"criminal-damage-arson","location_type":"Force","location":{"latitude":"51.394888","street":{"id":930281,"name":"On or near Willows Avenue"},"longitude":"-0.192192"},"context":"","outcome_status":{"category":"Status update unavailable","date":"2019-09"},"persistent_id":"d6267de77a964592a1a8e812d443340279102dc624333b23efd4e79d65356d45","id":74316271,"location_subtype":"","month":"2019-05"},{"category":"criminal-damage-arson","location_type":"Force","location":{"latitude":"51.409491","street":{"id":933149,"name":"On or near Sheldrick Close"},"longitude":"-0.179941"},"context":"","outcome_status":{"category":"Status update unavailable","date":"2019-09"},"persistent_id":"c88bc991788324c6a4c1af7730f4c4bb9f9d3cec5474171a82074c66109bc6aa","id":74314553,"location_subtype":"","month":"2019-05"},{"category":"drugs","location_type":"Force","location":{"latitude":"51.404014","street":{"id":933199,"name":"On or near Oxted Close"},"longitude":"-0.179367"},"context":"","outcome_status":{"category":"Local resolution","date":"2019-05"},"persistent_id":"4bc85a96c9f7a5ae888993dc4d56aaec09a6122709d2a9c39a1aec311245db93","id":74349194,"location_subtype":"","month":"2019-05"},{"category":"drugs","location_type":"Force","location":{"latitude":"51.403272","street":{"id":933201,"name":"On or near Illingworth Close"},"longitude":"-0.177887"},"context":"","outcome_status":{"category":"Court result unavailable","date":"2019-11"},"persistent_id":"d93250b5649b764c2f683868f4d4b700428620c460afd65bad1d904307486ce1","id":74313338,"location_subtype":"","month":"2019-05"},{"category":"drugs","location_type":"Force","location":{"latitude":"51.406680","street":{"id":932944,"name":"On or near Parking Area"},"longitude":"-0.162884"},"context":"","outcome_status":{"category":"Court result unavailable","date":"2019-12"},"persistent_id":"c0a6569b1a350e7cf8b47d022480bc99c5676f49ae864714a5403f9d1ef5feb1","id":74340099,"location_subtype":"","month":"2019-05"},{"category":"drugs","location_type":"Force","location":{"latitude":"51.411386","street":{"id":932976,"name":"On or near Lavender Avenue"},"longitude":"-0.167096"},"context":"","outcome_status":{"category":"Local resolution","date":"2019-05"},"persistent_id":"981ae99ec303eb271c56c9d1fcc55298912cb32035754f68a35746aeef921cd3","id":74346516,"location_subtype":"","month":"2019-05"},{"category":"drugs","location_type":"Force","location":{"latitude":"51.396325","street":{"id":930391,"name":"On or near Brookfields Avenue"},"longitude":"-0.170659"},"context":"","outcome_status":{"category":"Offender given a caution","date":"2019-07"},"persistent_id":"efdd17d7192d7866435df8ceb59949a89ba8314927c645bb2892de8f85e5e96e","id":74330391,"location_subtype":"","month":"2019-05"},{"category":"drugs","location_type":"Force","location":{"latitude":"51.403855","street":{"id":933098,"name":"On or near Elmwood Road"},"longitude":"-0.163932"},"context":"","outcome_status":{"category":"Local resolution","date":"2019-06"},"persistent_id":"28a0918a3076b39abc1a65509b5cd8b552f4c283b6caf8721b8f662005d3236f","id":74331483,"location_subtype":"","month":"2019-05"},{"category":"drugs","location_type":"Force","location":{"latitude":"51.408237","street":{"id":932986,"name":"On or near Borough Road"},"longitude":"-0.172168"},"context":"","outcome_status":{"category":"Local resolution","date":"2019-05"},"persistent_id":"5200d381b882082099707ada0042b361cb987f898c41dfd54da28f71c794aad0","id":74342928,"location_subtype":"","month":"2019-05"},{"category":"drugs","location_type":"Force","location":{"latitude":"51.411284","street":{"id":933125,"name":"On or near Jubilee Way"},"longitude":"-0.190065"},"context":"","outcome_status":{"category":"Status update unavailable","date":"2019-09"},"persistent_id":"39ce5678c307792c80e7e132c97e061bb79100ea7ff71091f3651a4db61b4d11","id":74290987,"location_subtype":"","month":"2019-05"},{"category":"drugs","location_type":"Force","location":{"latitude":"51.401662","street":{"id":933078,"name":"On or near Sports\/recreation Area"},"longitude":"-0.162295"},"context":"","outcome_status":{"category":"Court result unavailable","date":"2019-12"},"persistent_id":"513933baff8e56e812957e160ad923fd6ed1c5d90e17001fbd0c7d3290a33080","id":74340836,"location_subtype":"","month":"2019-05"},{"category":"drugs","location_type":"Force","location":{"latitude":"51.403298","street":{"id":933218,"name":"On or near A24"},"longitude":"-0.191760"},"context":"","outcome_status":{"category":"Local resolution","date":"2019-05"},"persistent_id":"dfdec5eb306a28976c113ddfc465eebb4653e28af9d090d6968231652b951718","id":74316960,"location_subtype":"","month":"2019-05"},{"category":"drugs","location_type":"Force","location":{"latitude":"51.413248","street":{"id":933142,"name":"On or near Watermill Way"},"longitude":"-0.182754"},"context":"","outcome_status":{"category":"Investigation complete; no suspect identified","date":"2019-06"},"persistent_id":"fe0f6bc773f1e9f2999304d907b0e18587c434118bdca72225ba02298c1cdb52","id":74315850,"location_subtype":"","month":"2019-05"},{"category":"drugs","location_type":"Force","location":{"latitude":"51.397742","street":{"id":930314,"name":"On or near Hospital"},"longitude":"-0.189535"},"context":"","outcome_status":{"category":"Investigation complete; no suspect identified","date":"2020-05"},"persistent_id":"fcf893eaea3f92d1ffa07447f9a679eec7d6532a0fbb33792e222794b7551244","id":74291333,"location_subtype":"","month":"2019-05"},{"category":"drugs","location_type":"Force","location":{"latitude":"51.412559","street":{"id":932955,"name":"On or near Veals Mead"},"longitude":"-0.168487"},"context":"","outcome_status":{"category":"Local resolution","date":"2019-05"},"persistent_id":"b0131e0581a7f58a7d32aee7917ee6ea055d005dc6d822e3fee3ff4a0210ecd7","id":74325581,"location_subtype":"","month":"2019-05"},{"category":"drugs","location_type":"Force","location":{"latitude":"51.411284","street":{"id":933125,"name":"On or near Jubilee Way"},"longitude":"-0.190065"},"context":"","outcome_status":{"category":"Status update unavailable","date":"2019-09"},"persistent_id":"39ce5678c307792c80e7e132c97e061bb79100ea7ff71091f3651a4db61b4d11","id":74290986,"location_subtype":"","month":"2019-05"},{"category":"drugs","location_type":"Force","location":{"latitude":"51.411386","street":{"id":932976,"name":"On or near Lavender Avenue"},"longitude":"-0.167096"},"context":"","outcome_status":{"category":"Local resolution","date":"2019-05"},"persistent_id":"c0d1b3a6f22e352ed8e6b02079230d26dd186d1afce6e4552a160ec897103b50","id":74330384,"location_subtype":"","month":"2019-05"},{"category":"drugs","location_type":"Force","location":{"latitude":"51.409491","street":{"id":933149,"name":"On or near Sheldrick Close"},"longitude":"-0.179941"},"context":"","outcome_status":{"category":"Court result unavailable","date":"2019-11"},"persistent_id":"9e3b46410c395997bf3fdff5679c1569027b1a96fa52f041728776391038d8d0","id":74296554,"location_subtype":"","month":"2019-05"},{"category":"drugs","location_type":"Force","location":{"latitude":"51.387182","street":{"id":930403,"name":"On or near Stoneleigh Road"},"longitude":"-0.173122"},"context":"","outcome_status":{"category":"Offender given a caution","date":"2019-05"},"persistent_id":"fcd7838b30c66e828a8deb41284861e35680110ad0cdb7dca63ae3829decf0a2","id":74339530,"location_subtype":"","month":"2019-05"},{"category":"drugs","location_type":"Force","location":{"latitude":"51.398871","street":{"id":930277,"name":"On or near Rutter Gardens"},"longitude":"-0.182878"},"context":"","outcome_status":{"category":"Court result unavailable","date":"2020-11"},"persistent_id":"9834f9cc90e4cc003dd3db0e23f5d959e2d2c45014e9445ce5abcf1a337b1311","id":74317255,"location_subtype":"","month":"2019-05"},{"category":"drugs","location_type":"Force","location":{"latitude":"51.403047","street":{"id":933105,"name":"On or near Albert Road"},"longitude":"-0.163447"},"context":"","outcome_status":{"category":"Local resolution","date":"2019-05"},"persistent_id":"68f07c6b3a1419ef9bfdb62915539c33c422602111447d3dc6cdc9829078520d","id":74336593,"location_subtype":"","month":"2019-05"},{"category":"drugs","location_type":"Force","location":{"latitude":"51.397052","street":{"id":930296,"name":"On or near Connaught Gardens"},"longitude":"-0.185609"},"context":"","outcome_status":{"category":"Court result unavailable","date":"2020-03"},"persistent_id":"da17df560632242c726a29a23b69c73fae71183de6b018eaff17743b4463dff9","id":74327951,"location_subtype":"","month":"2019-05"},{"category":"drugs","location_type":"Force","location":{"latitude":"51.412832","street":{"id":932962,"name":"On or near Steers Mead"},"longitude":"-0.166420"},"context":"","outcome_status":{"category":"Status update unavailable","date":"2019-09"},"persistent_id":"cc913218b6d07d15e8ede2d20477b3fb66ac37e045dcb37c52d9f09438e8f7f5","id":74335859,"location_subtype":"","month":"2019-05"},{"category":"drugs","location_type":"Force","location":{"latitude":"51.410704","street":{"id":932975,"name":"On or near Lavender Grove"},"longitude":"-0.168374"},"context":"","outcome_status":{"category":"Status update unavailable","date":"2019-09"},"persistent_id":"b3382d2c83b0eb1e9ebe0b0b8445d2280130f852f3f2aa67a4d877e83e177c69","id":74335860,"location_subtype":"","month":"2019-05"},{"category":"other-theft","location_type":"Force","location":{"latitude":"51.410120","street":{"id":933118,"name":"On or near Nursery Road"},"longitude":"-0.193260"},"context":"","outcome_status":{"category":"Status update unavailable","date":"2019-09"},"persistent_id":"486e484ee9a966a6d37fd181fea37a88888e473b8c08f051ea2ec0cbc43fe54c","id":74347889,"location_subtype":"","month":"2019-05"},{"category":"other-theft","location_type":"Force","location":{"latitude":"51.395990","street":{"id":930286,"name":"On or near Schoolgate Drive"},"longitude":"-0.190783"},"context":"","outcome_status":{"category":"Status update unavailable","date":"2019-09"},"persistent_id":"94b43b76fd62db691bc84c50a82fda523b4b36dacdd7e901b8b351da8f49e596","id":74342118,"location_subtype":"","month":"2019-05"},{"category":"other-theft","location_type":"Force","location":{"latitude":"51.392541","street":{"id":930298,"name":"On or near Chester Gardens"},"longitude":"-0.189324"},"context":"","outcome_status":{"category":"Status update unavailable","date":"2019-09"},"persistent_id":"5d5697ccf1d0d878718dcd212a4d94be969f8e60b365810a2a101ac46be3f6cd","id":74325829,"location_subtype":"","month":"2019-05"},{"category":"other-theft","location_type":"Force","location":{"latitude":"51.415272","street":{"id":934952,"name":"On or near Petrol Station"},"longitude":"-0.181624"},"context":"","outcome_status":{"category":"Status update unavailable","date":"2019-09"},"persistent_id":"19021da72b441825060e1337edb808f49b1c1dee730930085ed8dd88e9924791","id":74325956,"location_subtype":"","month":"2019-05"},{"category":"other-theft","location_type":"Force","location":{"latitude":"51.408362","street":{"id":933144,"name":"On or near Thornville Grove"},"longitude":"-0.181941"},"context":"","outcome_status":{"category":"Status update unavailable","date":"2019-09"},"persistent_id":"b9b3b51cfd1275d3e8d85cd45723719d84f5ff97aab5b0cd17f09a548a194b8d","id":74307813,"location_subtype":"","month":"2019-05"},{"category":"other-theft","location_type":"Force","location":{"latitude":"51.413248","street":{"id":933142,"name":"On or near Watermill Way"},"longitude":"-0.182754"},"context":"","outcome_status":{"category":"Status update unavailable","date":"2019-09"},"persistent_id":"efd5c8db712c35b0b949400fb7d6038b9bf8a19a4b1828c27f872d139e8e194d","id":74351962,"location_subtype":"","month":"2019-05"},{"category":"other-theft","location_type":"Force","location":{"latitude":"51.405156","street":{"id":933014,"name":"On or near Regal Court"},"longitude":"-0.162629"},"context":"","outcome_status":{"category":"Status update unavailable","date":"2019-09"},"persistent_id":"631c83a6905af21455d66a36a0ade6d810bbdf30eb11bf065726cab7e6ccc487","id":74351961,"location_subtype":"","month":"2019-05"},{"category":"other-theft","location_type":"Force","location":{"latitude":"51.405138","street":{"id":932966,"name":"On or near Raleigh Gardens"},"longitude":"-0.164355"},"context":"","outcome_status":{"category":"Status update unavailable","date":"2019-09"},"persistent_id":"46b29f6fbcaabda2b4aa6770cf75831d61577c6198186dc792047af285ef03b6","id":74347911,"location_subtype":"","month":"2019-05"},{"category":"other-theft","location_type":"Force","location":{"latitude":"51.401153","street":{"id":933211,"name":"On or near Morden Hall Road"},"longitude":"-0.189674"},"context":"","outcome_status":{"category":"Status update unavailable","date":"2019-09"},"persistent_id":"95f9eed858692ee648bd172258f21c3c2cbc6e7269466ca04ec2a4285a470979","id":74329204,"location_subtype":"","month":"2019-05"},{"category":"other-theft","location_type":"Force","location":{"latitude":"51.394814","street":{"id":930275,"name":"On or near Petrol Station"},"longitude":"-0.174098"},"context":"","outcome_status":{"category":"Status update unavailable","date":"2019-09"},"persistent_id":"e8a0bc2d5b0f2ca55b9491459c1b3fb04e6b0bd7e5072e7a3a0f2af88b9c8883","id":74341838,"location_subtype":"","month":"2019-05"},{"category":"other-theft","location_type":"Force","location":{"latitude":"51.398542","street":{"id":930415,"name":"On or near Taplow Court"},"longitude":"-0.172713"},"context":"","outcome_status":{"category":"Status update unavailable","date":"2019-09"},"persistent_id":"6d3ec49c0f499ae9dc2d332c054209579fb2734bbf646d22a3018e1011b7b111","id":74290798,"location_subtype":"","month":"2019-05"},{"category":"other-theft","location_type":"Force","location":{"latitude":"51.406049","street":{"id":933126,"name":"On or near Daybrook Road"},"longitude":"-0.193492"},"context":"","outcome_status":{"category":"Status update unavailable","date":"2019-09"},"persistent_id":"7486b4fa31ed26f31db1f843a4435d5481471882954fd1402499d7860f4b5903","id":74308718,"location_subtype":"","month":"2019-05"},{"category":"other-theft","location_type":"Force","location":{"latitude":"51.407542","street":{"id":933188,"name":"On or near Hospital"},"longitude":"-0.181873"},"context":"","outcome_status":{"category":"Status update unavailable","date":"2019-09"},"persistent_id":"4778e5aceb7a03c4776cee777006b5d2fe070f129693de55339f6fc61d34d971","id":74365464,"location_subtype":"","month":"2019-05"},{"category":"other-theft","location_type":"Force","location":{"latitude":"51.394814","street":{"id":930275,"name":"On or near Petrol Station"},"longitude":"-0.174098"},"context":"","outcome_status":{"category":"Status update unavailable","date":"2019-09"},"persistent_id":"5b48858a48ca3503a6220f8b43c73a3c33f7f9930ba26787738ec31e58d26979","id":74294740,"location_subtype":"","month":"2019-05"},{"category":"other-theft","location_type":"Force","location":{"latitude":"51.396325","street":{"id":930391,"name":"On or near Brookfields Avenue"},"longitude":"-0.170659"},"context":"","outcome_status":{"category":"Status update unavailable","date":"2019-09"},"persistent_id":"fb40bb644cbe616d684fca30be3f8b91e9a12d1d86b3070216c8a92740c0f723","id":74328592,"location_subtype":"","month":"2019-05"},{"category":"other-theft","location_type":"BTP","location":{"latitude":"51.402600","street":{"id":1488675,"name":"Morden (lu Station)"},"longitude":"-0.194776"},"context":"","outcome_status":{"category":"Status update unavailable","date":"2019-09"},"persistent_id":"","id":88717176,"location_subtype":"LU STATION","month":"2019-05"},{"category":"other-theft","location_type":"Force","location":{"latitude":"51.400886","street":{"id":933080,"name":"On or near Sports\/recreation Area"},"longitude":"-0.161017"},"context":"","outcome_status":{"category":"Status update unavailable","date":"2019-09"},"persistent_id":"49a15df1afe90407677dfd63f45e08c2813581799378652b57fbf71d56324931","id":74332931,"location_subtype":"","month":"2019-05"},{"category":"other-theft","location_type":"Force","location":{"latitude":"51.406760","street":{"id":932978,"name":"On or near Holborn Way"},"longitude":"-0.165167"},"context":"","outcome_status":{"category":"Status update unavailable","date":"2019-09"},"persistent_id":"e65956535c0a1aea3a0ab51b20f211dcbfd75cd25b691c7244ec77689b00e502","id":74328847,"location_subtype":"","month":"2019-05"},{"category":"other-theft","location_type":"Force","location":{"latitude":"51.406318","street":{"id":933155,"name":"On or near Rock Close"},"longitude":"-0.180023"},"context":"","outcome_status":{"category":"Investigation complete; no suspect identified","date":"2020-11"},"persistent_id":"7ef63d3b5ca0a3333cd4e597e992c755e2c66021174b048ad86d4a7ffc480fe6","id":74336686,"location_subtype":"","month":"2019-05"},{"category":"other-theft","location_type":"Force","location":{"latitude":"51.397183","street":{"id":930302,"name":"On or near Buckland Walk"},"longitude":"-0.188249"},"context":"","outcome_status":{"category":"Local resolution","date":"2020-04"},"persistent_id":"0899ecbf8b7cca3acf55fcc4d0e7cc0c0b02369fcf80c66710914111ec2b6502","id":74351204,"location_subtype":"","month":"2019-05"},{"category":"other-theft","location_type":"Force","location":{"latitude":"51.400977","street":{"id":933301,"name":"On or near Crown Road"},"longitude":"-0.196941"},"context":"","outcome_status":{"category":"Status update unavailable","date":"2019-09"},"persistent_id":"2b6f3e23bbf8937b13ae17774a137325556e329b02fdcb2b6cc57f3987ac24d8","id":74316655,"location_subtype":"","month":"2019-05"},{"category":"other-theft","location_type":"Force","location":{"latitude":"51.405156","street":{"id":933014,"name":"On or near Regal Court"},"longitude":"-0.162629"},"context":"","outcome_status":{"category":"Status update unavailable","date":"2019-09"},"persistent_id":"2339cbf59b6e34abbb8a59385d1c624c1aeb42cebd19cfcdd2efa7def131bc96","id":74316748,"location_subtype":"","month":"2019-05"},{"category":"other-theft","location_type":"Force","location":{"latitude":"51.406680","street":{"id":932944,"name":"On or near Parking Area"},"longitude":"-0.162884"},"context":"","outcome_status":{"category":"Status update unavailable","date":"2019-09"},"persistent_id":"d320b310a361f7cab1a413279907358312f2108a8ee885a43dd281c491a340e0","id":74366341,"location_subtype":"","month":"2019-05"},{"category":"other-theft","location_type":"Force","location":{"latitude":"51.396767","street":{"id":930374,"name":"On or near Burghley Place"},"longitude":"-0.161556"},"context":"","outcome_status":{"category":"Status update unavailable","date":"2019-09"},"persistent_id":"6eb457e11268c48c7ac43981041dbb34a297775fa9bccbe2e674b6ba9839e510","id":74341698,"location_subtype":"","month":"2019-05"},{"category":"other-theft","location_type":"Force","location":{"latitude":"51.413248","street":{"id":933142,"name":"On or near Watermill Way"},"longitude":"-0.182754"},"context":"","outcome_status":{"category":"Status update unavailable","date":"2019-09"},"persistent_id":"502e38f6988680474a2f2bc51cc996c993490711abcab8e1ca4cbef9d894180f","id":74350247,"location_subtype":"","month":"2019-05"},{"category":"other-theft","location_type":"Force","location":{"latitude":"51.400856","street":{"id":933103,"name":"On or near Broadway Gardens"},"longitude":"-0.170018"},"context":"","outcome_status":{"category":"Status update unavailable","date":"2019-09"},"persistent_id":"3cf1696fb2a83df5f46e5491c1ec6fc1181a63827a0844324bb1394bf789fa4d","id":74346975,"location_subtype":"","month":"2019-05"},{"category":"other-theft","location_type":"Force","location":{"latitude":"51.401672","street":{"id":933303,"name":"On or near Crown Lane"},"longitude":"-0.195965"},"context":"","outcome_status":{"category":"Status update unavailable","date":"2019-09"},"persistent_id":"7e0941ef79016f605cb99dbb502e3c0435b3dcd7f196b9b078fad4e4698354bb","id":74340642,"location_subtype":"","month":"2019-05"},{"category":"other-theft","location_type":"Force","location":{"latitude":"51.389765","street":{"id":930344,"name":"On or near Hospital"},"longitude":"-0.190052"},"context":"","outcome_status":{"category":"Status update unavailable","date":"2019-09"},"persistent_id":"0a6ef7d99298f8dde8c3b15c237b9426aa98542ebeefc46ee34c3c1ddd9ccec2","id":74307995,"location_subtype":"","month":"2019-05"},{"category":"other-theft","location_type":"Force","location":{"latitude":"51.404014","street":{"id":933199,"name":"On or near Oxted Close"},"longitude":"-0.179367"},"context":"","outcome_status":{"category":"Status update unavailable","date":"2019-09"},"persistent_id":"25c492c873759145eef125656bebd990d55d648cd95db4811f213228d5066be3","id":74334301,"location_subtype":"","month":"2019-05"},{"category":"other-theft","location_type":"Force","location":{"latitude":"51.393160","street":{"id":930273,"name":"On or near Hillfield Avenue"},"longitude":"-0.175270"},"context":"","outcome_status":{"category":"Status update unavailable","date":"2019-09"},"persistent_id":"a7740ca284b04baf2620a7d474eef8e7e01654761d9cd72cecd219fd8d61a77b","id":74334794,"location_subtype":"","month":"2019-05"},{"category":"other-theft","location_type":"Force","location":{"latitude":"51.393630","street":{"id":930265,"name":"On or near Gavina Close"},"longitude":"-0.175482"},"context":"","outcome_status":{"category":"Status update unavailable","date":"2019-09"},"persistent_id":"dd3863ffb6d3096d62f295e02644f4a3cda22ba144bbe54079c0233c6cd7ccdd","id":74333593,"location_subtype":"","month":"2019-05"},{"category":"other-theft","location_type":"Force","location":{"latitude":"51.393630","street":{"id":930265,"name":"On or near Gavina Close"},"longitude":"-0.175482"},"context":"","outcome_status":{"category":"Status update unavailable","date":"2019-09"},"persistent_id":"dd3863ffb6d3096d62f295e02644f4a3cda22ba144bbe54079c0233c6cd7ccdd","id":74333592,"location_subtype":"","month":"2019-05"},{"category":"other-theft","location_type":"Force","location":{"latitude":"51.414260","street":{"id":934947,"name":"On or near Pedestrian Subway"},"longitude":"-0.180729"},"context":"","outcome_status":{"category":"Status update unavailable","date":"2019-09"},"persistent_id":"f942d9d343365fb09562365bb4dcaa48e0d76dcf1a160cc224f9bf2591c453ab","id":74304592,"location_subtype":"","month":"2019-05"},{"category":"other-theft","location_type":"Force","location":{"latitude":"51.394814","street":{"id":930275,"name":"On or near Petrol Station"},"longitude":"-0.174098"},"context":"","outcome_status":{"category":"Status update unavailable","date":"2019-09"},"persistent_id":"3bd1f0c00b59ae7036d0574ebbf1d7b7e338f145213bc5e439a37d77d4f52c04","id":74327626,"location_subtype":"","month":"2019-05"},{"category":"other-theft","location_type":"Force","location":{"latitude":"51.398345","street":{"id":930386,"name":"On or near Jeppo's Lane"},"longitude":"-0.166985"},"context":"","outcome_status":{"category":"Status update unavailable","date":"2019-09"},"persistent_id":"13812bcfb65de8a8f2d5591f405ba34c1682f2ebab8c69e65c4ade6695857a09","id":74311286,"location_subtype":"","month":"2019-05"},{"category":"other-theft","location_type":"Force","location":{"latitude":"51.397693","street":{"id":930388,"name":"On or near Denham Crescent"},"longitude":"-0.165545"},"context":"","outcome_status":{"category":"Status update unavailable","date":"2019-09"},"persistent_id":"ebf2a03864610bb4fcefff8965d614425ff0d76683daabb0d1b7fd844b59b3fc","id":74296524,"location_subtype":"","month":"2019-05"},{"category":"other-theft","location_type":"Force","location":{"latitude":"51.405199","street":{"id":932954,"name":"On or near Walnut Tree Avenue"},"longitude":"-0.169371"},"context":"","outcome_status":{"category":"Status update unavailable","date":"2019-09"},"persistent_id":"4aa3768736143853e73703e583f86f1a4ce8d0ea458672888d1ac4c7a7a4e482","id":74340318,"location_subtype":"","month":"2019-05"},{"category":"possession-of-weapons","location_type":"Force","location":{"latitude":"51.394814","street":{"id":930275,"name":"On or near Petrol Station"},"longitude":"-0.174098"},"context":"","outcome_status":{"category":"Court result unavailable","date":"2020-01"},"persistent_id":"f359447a788d902da330536c18b30fbd31fe19da62f992e5334e42fbaca1eb6b","id":74331598,"location_subtype":"","month":"2019-05"},{"category":"possession-of-weapons","location_type":"Force","location":{"latitude":"51.406026","street":{"id":933120,"name":"On or near Morden Road"},"longitude":"-0.191940"},"context":"","outcome_status":{"category":"Court result unavailable","date":"2019-11"},"persistent_id":"7b21a0848a8d82c8cbc7ec5e9ace632f51a98ed0ee4d72bf0ba05e933a712fde","id":74358074,"location_subtype":"","month":"2019-05"},{"category":"possession-of-weapons","location_type":"Force","location":{"latitude":"51.391242","street":{"id":930356,"name":"On or near Lilleshall Road"},"longitude":"-0.181470"},"context":"","outcome_status":{"category":"Court result unavailable","date":"2019-12"},"persistent_id":"32c93dd75db3b09d9e1b192a364897db0764da7c617d2859eba33d709a146d24","id":74293758,"location_subtype":"","month":"2019-05"},{"category":"public-order","location_type":"Force","location":{"latitude":"51.403298","street":{"id":933218,"name":"On or near A24"},"longitude":"-0.191760"},"context":"","outcome_status":{"category":"Court result unavailable","date":"2020-02"},"persistent_id":"c27626e23cd2cea8695c57bb1f2fa2467cebbd7f3317d29bfbb1f57cf35874f5","id":74361080,"location_subtype":"","month":"2019-05"},{"category":"public-order","location_type":"Force","location":{"latitude":"51.397994","street":{"id":930315,"name":"On or near Hospital"},"longitude":"-0.184911"},"context":"","outcome_status":{"category":"Status update unavailable","date":"2019-09"},"persistent_id":"67402ab7bf2d3fc65e23df64cfcec93dd5e3557e872187972cd0cb180bd32106","id":74298067,"location_subtype":"","month":"2019-05"},{"category":"public-order","location_type":"Force","location":{"latitude":"51.405615","street":{"id":933022,"name":"On or near Montrose Gardens"},"longitude":"-0.162625"},"context":"","outcome_status":{"category":"Status update unavailable","date":"2019-09"},"persistent_id":"c27537ba02aaf3544e901bfdc4f4cf4e3077768970db50559fbc66e9c47b21e3","id":74348011,"location_subtype":"","month":"2019-05"},{"category":"public-order","location_type":"Force","location":{"latitude":"51.409139","street":{"id":933150,"name":"On or near Sheldrick Close"},"longitude":"-0.179279"},"context":"","outcome_status":{"category":"Status update unavailable","date":"2019-09"},"persistent_id":"c344f8a094556b46a066a47d95dd482adc576b0d95c634f224cb395fdb5cfd24","id":74328639,"location_subtype":"","month":"2019-05"},{"category":"public-order","location_type":"Force","location":{"latitude":"51.406760","street":{"id":932978,"name":"On or near Holborn Way"},"longitude":"-0.165167"},"context":"","outcome_status":{"category":"Local resolution","date":"2019-05"},"persistent_id":"607177ce4a1f2568f0b9d7e65e88e797bfb98e155c2fba8a802023c67d7d2ac0","id":74290486,"location_subtype":"","month":"2019-05"},{"category":"public-order","location_type":"Force","location":{"latitude":"51.400047","street":{"id":930394,"name":"On or near London Road"},"longitude":"-0.170036"},"context":"","outcome_status":{"category":"Status update unavailable","date":"2019-09"},"persistent_id":"81ad9d29a69739ff2e168ecdc76baab618145b11eb581e41b9dcf7b331973e30","id":74301858,"location_subtype":"","month":"2019-05"},{"category":"public-order","location_type":"Force","location":{"latitude":"51.398135","street":{"id":930187,"name":"On or near Goodwood Close"},"longitude":"-0.199827"},"context":"","outcome_status":{"category":"Status update unavailable","date":"2019-09"},"persistent_id":"7ecee6c13dff2c6b05112ea2c6ebccd63c4c87667cfe6c12b4333cf7220d9bdb","id":74300602,"location_subtype":"","month":"2019-05"},{"category":"public-order","location_type":"Force","location":{"latitude":"51.414431","street":{"id":934954,"name":"On or near Shopping Area"},"longitude":"-0.176120"},"context":"","outcome_status":{"category":"Investigation complete; no suspect identified","date":"2020-03"},"persistent_id":"3d8ff6a18d170017ff5e7310084b4f4d3ca38bfbed1f5485d3955f550498a6aa","id":74312509,"location_subtype":"","month":"2019-05"},{"category":"public-order","location_type":"Force","location":{"latitude":"51.402702","street":{"id":933212,"name":"On or near London Road"},"longitude":"-0.193336"},"context":"","outcome_status":{"category":"Status update unavailable","date":"2019-09"},"persistent_id":"4c06837942b8094c8927b0e5cc3b96d9404b1ecd53d3df6ec5decc466431343c","id":74362076,"location_subtype":"","month":"2019-05"},{"category":"public-order","location_type":"Force","location":{"latitude":"51.406680","street":{"id":932944,"name":"On or near Parking Area"},"longitude":"-0.162884"},"context":"","outcome_status":{"category":"Status update unavailable","date":"2019-09"},"persistent_id":"648610bcb7b4ca64e4f89b37b48d0e6e0f0afd90311d7caec332d3ee0a62a3fc","id":74340101,"location_subtype":"","month":"2019-05"},{"category":"public-order","location_type":"Force","location":{"latitude":"51.410653","street":{"id":933025,"name":"On or near London Road"},"longitude":"-0.161647"},"context":"","outcome_status":{"category":"Status update unavailable","date":"2019-09"},"persistent_id":"60487962b30f55aae6552af5013aa608ed99a9c103a8e10323895e42cb18c528","id":74345502,"location_subtype":"","month":"2019-05"},{"category":"public-order","location_type":"Force","location":{"latitude":"51.393669","street":{"id":930299,"name":"On or near Cartmel Gardens"},"longitude":"-0.188963"},"context":"","outcome_status":{"category":"Status update unavailable","date":"2019-09"},"persistent_id":"8fef7de5e299eec05254151e0baef381e1bd66593ed46a1db1fd643c7985282b","id":74359152,"location_subtype":"","month":"2019-05"},{"category":"public-order","location_type":"Force","location":{"latitude":"51.397994","street":{"id":930315,"name":"On or near Hospital"},"longitude":"-0.184911"},"context":"","outcome_status":{"category":"Status update unavailable","date":"2019-09"},"persistent_id":"67402ab7bf2d3fc65e23df64cfcec93dd5e3557e872187972cd0cb180bd32106","id":74298068,"location_subtype":"","month":"2019-05"},{"category":"public-order","location_type":"Force","location":{"latitude":"51.396733","street":{"id":930269,"name":"On or near Rawnsley Avenue"},"longitude":"-0.174912"},"context":"","outcome_status":{"category":"Status update unavailable","date":"2019-09"},"persistent_id":"5bb584e92f2e65ad105d5763acbe36e7b8a33b5dfb2d8e9fea1b1d0d46fabc94","id":74341098,"location_subtype":"","month":"2019-05"},{"category":"public-order","location_type":"Force","location":{"latitude":"51.406048","street":{"id":932971,"name":"On or near Pear Tree Close"},"longitude":"-0.168474"},"context":"","outcome_status":{"category":"Status update unavailable","date":"2019-09"},"persistent_id":"a0f4445dc61bdbff1d1241754ffe0efa94801ed0e13f1ddfb08157e35a95eeee","id":74325706,"location_subtype":"","month":"2019-05"},{"category":"public-order","location_type":"Force","location":{"latitude":"51.393785","street":{"id":930192,"name":"On or near Central Road"},"longitude":"-0.196534"},"context":"","outcome_status":{"category":"Status update unavailable","date":"2019-09"},"persistent_id":"f10d005e555ff9438d749db92573885cfc0861b3aaac831f67e239a8f5b4de65","id":74349612,"location_subtype":"","month":"2019-05"},{"category":"public-order","location_type":"Force","location":{"latitude":"51.409749","street":{"id":933024,"name":"On or near Marsh Avenue"},"longitude":"-0.160777"},"context":"","outcome_status":{"category":"Status update unavailable","date":"2019-09"},"persistent_id":"89dae052eca81ec5f1cf4bc0ded3bbb5fe7ebb70607f72ec48594ba7b3fe8148","id":74305661,"location_subtype":"","month":"2019-05"},{"category":"public-order","location_type":"Force","location":{"latitude":"51.409996","street":{"id":933162,"name":"On or near Mount Road"},"longitude":"-0.175448"},"context":"","outcome_status":{"category":"Status update unavailable","date":"2019-09"},"persistent_id":"66e6fc1934d698412253315643179c4490121dbe3abcdc5184a951009d73b94e","id":74290958,"location_subtype":"","month":"2019-05"},{"category":"public-order","location_type":"Force","location":{"latitude":"51.405138","street":{"id":932966,"name":"On or near Raleigh Gardens"},"longitude":"-0.164355"},"context":"","outcome_status":{"category":"Investigation complete; no suspect identified","date":"2020-03"},"persistent_id":"1f5e210eb6c841c3692700a3910a021119a7b2e06cdf214dbc68d2e9b6fcce6a","id":74326035,"location_subtype":"","month":"2019-05"},{"category":"public-order","location_type":"Force","location":{"latitude":"51.409749","street":{"id":933024,"name":"On or near Marsh Avenue"},"longitude":"-0.160777"},"context":"","outcome_status":{"category":"Court result unavailable","date":"2020-01"},"persistent_id":"89dae052eca81ec5f1cf4bc0ded3bbb5fe7ebb70607f72ec48594ba7b3fe8148","id":74305662,"location_subtype":"","month":"2019-05"},{"category":"public-order","location_type":"Force","location":{"latitude":"51.402702","street":{"id":933212,"name":"On or near London Road"},"longitude":"-0.193336"},"context":"","outcome_status":{"category":"Status update unavailable","date":"2019-09"},"persistent_id":"62c22694a53ac6d5b94e03f32441cefc05865413f1bbfdcef6674bf77b517908","id":74303968,"location_subtype":"","month":"2019-05"},{"category":"public-order","location_type":"Force","location":{"latitude":"51.405176","street":{"id":932958,"name":"On or near Upper Green East"},"longitude":"-0.163304"},"context":"","outcome_status":{"category":"Status update unavailable","date":"2019-09"},"persistent_id":"21f2750bd91f28516c587a3c8bf7398fede9243572bbe7aac88e0dff6d9a202d","id":74316438,"location_subtype":"","month":"2019-05"},{"category":"public-order","location_type":"Force","location":{"latitude":"51.405176","street":{"id":932958,"name":"On or near Upper Green East"},"longitude":"-0.163304"},"context":"","outcome_status":{"category":"Investigation complete; no suspect identified","date":"2020-03"},"persistent_id":"21f2750bd91f28516c587a3c8bf7398fede9243572bbe7aac88e0dff6d9a202d","id":74316439,"location_subtype":"","month":"2019-05"},{"category":"public-order","location_type":"Force","location":{"latitude":"51.406511","street":{"id":933030,"name":"On or near Lammas Avenue"},"longitude":"-0.157859"},"context":"","outcome_status":{"category":"Court result unavailable","date":"2019-11"},"persistent_id":"e326d0ef70b9aed2274807333553b94c38d6e674107bdcd5c783040552d24772","id":74337696,"location_subtype":"","month":"2019-05"},{"category":"public-order","location_type":"Force","location":{"latitude":"51.410120","street":{"id":933118,"name":"On or near Nursery Road"},"longitude":"-0.193260"},"context":"","outcome_status":{"category":"Status update unavailable","date":"2019-09"},"persistent_id":"a740384a69e7c4a53e3d3c18b1a40f7d2da7646e6b3c69b0d554dbb41786c127","id":74303303,"location_subtype":"","month":"2019-05"},{"category":"public-order","location_type":"Force","location":{"latitude":"51.402702","street":{"id":933212,"name":"On or near London Road"},"longitude":"-0.193336"},"context":"","outcome_status":{"category":"Investigation complete; no suspect identified","date":"2020-03"},"persistent_id":"d6c5def6ce67f721dc73bac65766528361517dfe1e3e17029e774378270a9f71","id":74357384,"location_subtype":"","month":"2019-05"},{"category":"public-order","location_type":"Force","location":{"latitude":"51.413248","street":{"id":933142,"name":"On or near Watermill Way"},"longitude":"-0.182754"},"context":"","outcome_status":{"category":"Status update unavailable","date":"2019-09"},"persistent_id":"f3d5ead5b2122a4dd55467fe51282a52374ee43581af99ca88f60485565b70a8","id":74335021,"location_subtype":"","month":"2019-05"},{"category":"public-order","location_type":"Force","location":{"latitude":"51.404095","street":{"id":933092,"name":"On or near Love Lane"},"longitude":"-0.169515"},"context":"","outcome_status":{"category":"Status update unavailable","date":"2019-09"},"persistent_id":"c0c84c4e081d468c95a5e1237c9f8d45b4c5e92ad592911a5d624af443ec4a01","id":74325364,"location_subtype":"","month":"2019-05"},{"category":"public-order","location_type":"Force","location":{"latitude":"51.398125","street":{"id":930306,"name":"On or near Boxley Road"},"longitude":"-0.185797"},"context":"","outcome_status":{"category":"Status update unavailable","date":"2019-09"},"persistent_id":"6e52ab52465486dd1c50bb8948e53684bd6c7894e0a01b655c742ddada918bfa","id":74326890,"location_subtype":"","month":"2019-05"},{"category":"robbery","location_type":"Force","location":{"latitude":"51.403298","street":{"id":933218,"name":"On or near A24"},"longitude":"-0.191760"},"context":"","outcome_status":{"category":"Status update unavailable","date":"2019-09"},"persistent_id":"33a81a521ab14dcfe6063c1a918766ecdc71e282ec9895791430faaca8ae4352","id":74294191,"location_subtype":"","month":"2019-05"},{"category":"robbery","location_type":"Force","location":{"latitude":"51.405613","street":{"id":932968,"name":"On or near Raleigh Gardens"},"longitude":"-0.166565"},"context":"","outcome_status":{"category":"Status update unavailable","date":"2019-09"},"persistent_id":"57e683e025ef8e866e6b7a9438d80c02eadba7a7f0f0f502b443a5204d872887","id":74326036,"location_subtype":"","month":"2019-05"},{"category":"robbery","location_type":"Force","location":{"latitude":"51.407877","street":{"id":933057,"name":"On or near Armfield Crescent"},"longitude":"-0.161212"},"context":"","outcome_status":{"category":"Investigation complete; no suspect identified","date":"2020-03"},"persistent_id":"2aca21c57c2e69b5aca8ec0b7a91f03ef67c129caa691835f4c76580f093600a","id":74300117,"location_subtype":"","month":"2019-05"},{"category":"robbery","location_type":"Force","location":{"latitude":"51.397742","street":{"id":930314,"name":"On or near Hospital"},"longitude":"-0.189535"},"context":"","outcome_status":{"category":"Status update unavailable","date":"2019-09"},"persistent_id":"20ad4c92872960dec6aa3de29acedbab2dc98071382296c3b3c20e26ac6dc653","id":74300796,"location_subtype":"","month":"2019-05"},{"category":"robbery","location_type":"Force","location":{"latitude":"51.389149","street":{"id":930330,"name":"On or near Malmesbury Road"},"longitude":"-0.186856"},"context":"","outcome_status":{"category":"Status update unavailable","date":"2019-09"},"persistent_id":"9c49a51faa55c10c66a5dc156483cec8e7c8d7e0e13d4b51ba794fa8593e3951","id":74333137,"location_subtype":"","month":"2019-05"},{"category":"robbery","location_type":"Force","location":{"latitude":"51.403241","street":{"id":933289,"name":"On or near Parking Area"},"longitude":"-0.194508"},"context":"","outcome_status":{"category":"Status update unavailable","date":"2019-09"},"persistent_id":"826c4fa626c9e99e18430c044ac8b1cb9a0520f8b728f7ab4aed717d25a81094","id":74296019,"location_subtype":"","month":"2019-05"},{"category":"robbery","location_type":"Force","location":{"latitude":"51.398990","street":{"id":930280,"name":"On or near Hatfield Close"},"longitude":"-0.182399"},"context":"","outcome_status":{"category":"Court result unavailable","date":"2020-01"},"persistent_id":"ce4c69d5244b0610e3653c366e42d59b60840ecde04796fd5b8b43205ecc5171","id":74340198,"location_subtype":"","month":"2019-05"},{"category":"robbery","location_type":"Force","location":{"latitude":"51.401255","street":{"id":933197,"name":"On or near White Bridge Avenue"},"longitude":"-0.177162"},"context":"","outcome_status":{"category":"Court result unavailable","date":"2020-01"},"persistent_id":"64f49a9a121e95da93ec3920f8d646f878bfc7249202af1deb3ab82e70705f3a","id":74335729,"location_subtype":"","month":"2019-05"},{"category":"robbery","location_type":"Force","location":{"latitude":"51.408646","street":{"id":932948,"name":"On or near Shopping Area"},"longitude":"-0.163251"},"context":"","outcome_status":{"category":"Status update unavailable","date":"2019-09"},"persistent_id":"3b19c791e387cf33d4bcf1998e103ab9818980bc736abe63c15f5315c9a1ece3","id":74357154,"location_subtype":"","month":"2019-05"},{"category":"robbery","location_type":"Force","location":{"latitude":"51.403186","street":{"id":933096,"name":"On or near Glebe Path"},"longitude":"-0.168330"},"context":"","outcome_status":{"category":"Investigation complete; no suspect identified","date":"2020-09"},"persistent_id":"af30160ab456c77e6db650103318e610f955b83fe9532eeff53f4a16573d99ef","id":74338903,"location_subtype":"","month":"2019-05"},{"category":"robbery","location_type":"Force","location":{"latitude":"51.407054","street":{"id":932964,"name":"On or near Sadler Close"},"longitude":"-0.166708"},"context":"","outcome_status":{"category":"Status update unavailable","date":"2019-09"},"persistent_id":"fb3fb095801b0c4b7325767398b4af277dec2a36d7636bf733771586d71a67bd","id":74353003,"location_subtype":"","month":"2019-05"},{"category":"robbery","location_type":"Force","location":{"latitude":"51.397361","street":{"id":930379,"name":"On or near Tramway Path"},"longitude":"-0.171337"},"context":"","outcome_status":{"category":"Status update unavailable","date":"2019-09"},"persistent_id":"de0a54dcb7a9bd8518805e897800d2918e1437b3e5a3b36cdc7bd62536349ca2","id":74349613,"location_subtype":"","month":"2019-05"},{"category":"robbery","location_type":"Force","location":{"latitude":"51.403298","street":{"id":933218,"name":"On or near A24"},"longitude":"-0.191760"},"context":"","outcome_status":{"category":"Investigation complete; no suspect identified","date":"2020-03"},"persistent_id":"33a81a521ab14dcfe6063c1a918766ecdc71e282ec9895791430faaca8ae4352","id":74294192,"location_subtype":"","month":"2019-05"},{"category":"robbery","location_type":"Force","location":{"latitude":"51.402702","street":{"id":933212,"name":"On or near London Road"},"longitude":"-0.193336"},"context":"","outcome_status":{"category":"Status update unavailable","date":"2019-09"},"persistent_id":"dd9c59f24afd38cbb8b99356ff0bee549bc8b92cbb80682e348ecdd0318823e0","id":74290885,"location_subtype":"","month":"2019-05"},{"category":"robbery","location_type":"Force","location":{"latitude":"51.401672","street":{"id":933303,"name":"On or near Crown Lane"},"longitude":"-0.195965"},"context":"","outcome_status":{"category":"Status update unavailable","date":"2019-09"},"persistent_id":"7dfae66867e2e5176e0e3f88b99831f98106b295d08d5ded8f80cb16f6fb5d1b","id":74300116,"location_subtype":"","month":"2019-05"},{"category":"robbery","location_type":"Force","location":{"latitude":"51.399370","street":{"id":930279,"name":"On or near Morden Road"},"longitude":"-0.179681"},"context":"","outcome_status":{"category":"Status update unavailable","date":"2019-09"},"persistent_id":"38c08047caf8538d65e2e36dd76a79270e30f31bb9856c3de83a894e01e71d24","id":74297713,"location_subtype":"","month":"2019-05"},