[{"category":"anti-social-behaviour","location_type":"Force","location":{"latitude":"51.589477","street":{"id":977805,"name":"On or near Pearl Road"},"longitude":"-0.022229"},"context":"","outcome_status":null,"persistent_id":"","id":74285431,"location_subtype":"","month":"2019-05"},{"category":"anti-social-behaviour","location_type":"Force","location":{"latitude":"51.591703","street":{"id":977786,"name":"On or near Winns Terrace"},"longitude":"-0.021988"},"context":"","outcome_status":null,"persistent_id":"","id":74285430,"location_subtype":"","month":"2019-05"},{"category":"anti-social-behaviour","location_type":"Force","location":{"latitude":"51.582154","street":{"id":975389,"name":"On or near Edison Close"},"longitude":"-0.022576"},"context":"","outcome_status":null,"persistent_id":"","id":74285429,"location_subtype":"","month":"2019-05"},{"category":"anti-social-behaviour","location_type":"Force","location":{"latitude":"51.585694","street":{"id":977848,"name":"On or near Cleveland Park Avenue"},"longitude":"-0.021340"},"context":"","outcome_status":null,"persistent_id":"","id":74285427,"location_subtype":"","month":"2019-05"},{"category":"anti-social-behaviour","location_type":"Force","location":{"latitude":"51.585694","street":{"id":977848,"name":"On or near Cleveland Park Avenue"},"longitude":"-0.021340"},"context":"","outcome_status":null,"persistent_id":"","id":74285425,"location_subtype":"","month":"2019-05"},{"category":"anti-social-behaviour","location_type":"Force","location":{"latitude":"51.585694","street":{"id":977848,"name":"On or near Cleveland Park Avenue"},"longitude":"-0.021340"},"context":"","outcome_status":null,"persistent_id":"","id":74285423,"location_subtype":"","month":"2019-05"},{"category":"anti-social-behaviour","location_type":"Force","location":{"latitude":"51.586932","street":{"id":977826,"name":"On or near Hatherley Road"},"longitude":"-0.020622"},"context":"","outcome_status":null,"persistent_id":"","id":74285422,"location_subtype":"","month":"2019-05"},{"category":"anti-social-behaviour","location_type":"Force","location":{"latitude":"51.586932","street":{"id":977826,"name":"On or near Hatherley Road"},"longitude":"-0.020622"},"context":"","outcome_status":null,"persistent_id":"","id":74285421,"location_subtype":"","month":"2019-05"},{"category":"anti-social-behaviour","location_type":"Force","location":{"latitude":"51.597720","street":{"id":981837,"name":"On or near Sports\/recreation Area"},"longitude":"-0.038086"},"context":"","outcome_status":null,"persistent_id":"","id":74286161,"location_subtype":"","month":"2019-05"},{"category":"anti-social-behaviour","location_type":"Force","location":{"latitude":"51.586932","street":{"id":977826,"name":"On or near Hatherley Road"},"longitude":"-0.020622"},"context":"","outcome_status":null,"persistent_id":"","id":74285420,"location_subtype":"","month":"2019-05"},{"category":"anti-social-behaviour","location_type":"Force","location":{"latitude":"51.589810","street":{"id":977797,"name":"On or near Ruby Road"},"longitude":"-0.020627"},"context":"","outcome_status":null,"persistent_id":"","id":74285414,"location_subtype":"","month":"2019-05"},{"category":"anti-social-behaviour","location_type":"Force","location":{"latitude":"51.583639","street":{"id":977882,"name":"On or near Bus\/coach Station"},"longitude":"-0.020491"},"context":"","outcome_status":null,"persistent_id":"","id":74285406,"location_subtype":"","month":"2019-05"},{"category":"anti-social-behaviour","location_type":"Force","location":{"latitude":"51.587933","street":{"id":977799,"name":"On or near Richards Place"},"longitude":"-0.020218"},"context":"","outcome_status":null,"persistent_id":"","id":74285410,"location_subtype":"","month":"2019-05"},{"category":"anti-social-behaviour","location_type":"Force","location":{"latitude":"51.586437","street":{"id":977902,"name":"On or near Reedham Close"},"longitude":"-0.057194"},"context":"","outcome_status":null,"persistent_id":"","id":74287723,"location_subtype":"","month":"2019-05"},{"category":"anti-social-behaviour","location_type":"Force","location":{"latitude":"51.597720","street":{"id":981837,"name":"On or near Sports\/recreation Area"},"longitude":"-0.038086"},"context":"","outcome_status":null,"persistent_id":"","id":74286162,"location_subtype":"","month":"2019-05"},{"category":"anti-social-behaviour","location_type":"Force","location":{"latitude":"51.597720","street":{"id":981837,"name":"On or near Sports\/recreation Area"},"longitude":"-0.038086"},"context":"","outcome_status":null,"persistent_id":"","id":74286163,"location_subtype":"","month":"2019-05"},{"category":"anti-social-behaviour","location_type":"Force","location":{"latitude":"51.577481","street":{"id":975304,"name":"On or near North Access Road"},"longitude":"-0.039362"},"context":"","outcome_status":null,"persistent_id":"","id":74286164,"location_subtype":"","month":"2019-05"},{"category":"anti-social-behaviour","location_type":"Force","location":{"latitude":"51.588380","street":{"id":977926,"name":"On or near Blackhorse Lane"},"longitude":"-0.039903"},"context":"","outcome_status":null,"persistent_id":"","id":74286169,"location_subtype":"","month":"2019-05"},{"category":"anti-social-behaviour","location_type":"Force","location":{"latitude":"51.585508","street":{"id":977920,"name":"On or near Hawarden Road"},"longitude":"-0.040258"},"context":"","outcome_status":null,"persistent_id":"","id":74286170,"location_subtype":"","month":"2019-05"},{"category":"anti-social-behaviour","location_type":"Force","location":{"latitude":"51.592803","street":{"id":977913,"name":"On or near Uplands Avenue"},"longitude":"-0.040334"},"context":"","outcome_status":null,"persistent_id":"","id":74286172,"location_subtype":"","month":"2019-05"},{"category":"anti-social-behaviour","location_type":"Force","location":{"latitude":"51.592803","street":{"id":977913,"name":"On or near Uplands Avenue"},"longitude":"-0.040334"},"context":"","outcome_status":null,"persistent_id":"","id":74286173,"location_subtype":"","month":"2019-05"},{"category":"anti-social-behaviour","location_type":"Force","location":{"latitude":"51.592803","street":{"id":977913,"name":"On or near Uplands Avenue"},"longitude":"-0.040334"},"context":"","outcome_status":null,"persistent_id":"","id":74286174,"location_subtype":"","month":"2019-05"},{"category":"anti-social-behaviour","location_type":"Force","location":{"latitude":"51.590378","street":{"id":977910,"name":"On or near Priestley Way"},"longitude":"-0.042127"},"context":"","outcome_status":null,"persistent_id":"","id":74286175,"location_subtype":"","month":"2019-05"},{"category":"anti-social-behaviour","location_type":"Force","location":{"latitude":"51.589517","street":{"id":977903,"name":"On or near Mill Mead Road"},"longitude":"-0.056341"},"context":"","outcome_status":null,"persistent_id":"","id":74287714,"location_subtype":"","month":"2019-05"},{"category":"anti-social-behaviour","location_type":"Force","location":{"latitude":"51.596548","street":{"id":977908,"name":"On or near Sports\/recreation Area"},"longitude":"-0.051969"},"context":"","outcome_status":null,"persistent_id":"","id":74287713,"location_subtype":"","month":"2019-05"},{"category":"anti-social-behaviour","location_type":"Force","location":{"latitude":"51.589517","street":{"id":977903,"name":"On or near Mill Mead Road"},"longitude":"-0.056341"},"context":"","outcome_status":null,"persistent_id":"","id":74287715,"location_subtype":"","month":"2019-05"},{"category":"anti-social-behaviour","location_type":"Force","location":{"latitude":"51.583922","street":{"id":977938,"name":"On or near Armadale Close"},"longitude":"-0.057864"},"context":"","outcome_status":null,"persistent_id":"","id":74287720,"location_subtype":"","month":"2019-05"},{"category":"anti-social-behaviour","location_type":"Force","location":{"latitude":"51.583922","street":{"id":977938,"name":"On or near Armadale Close"},"longitude":"-0.057864"},"context":"","outcome_status":null,"persistent_id":"","id":74287721,"location_subtype":"","month":"2019-05"},{"category":"anti-social-behaviour","location_type":"Force","location":{"latitude":"51.586437","street":{"id":977902,"name":"On or near Reedham Close"},"longitude":"-0.057194"},"context":"","outcome_status":null,"persistent_id":"","id":74287722,"location_subtype":"","month":"2019-05"},{"category":"anti-social-behaviour","location_type":"Force","location":{"latitude":"51.599743","street":{"id":981917,"name":"On or near Mcentee Avenue"},"longitude":"-0.035385"},"context":"","outcome_status":null,"persistent_id":"","id":74286143,"location_subtype":"","month":"2019-05"},{"category":"anti-social-behaviour","location_type":"Force","location":{"latitude":"51.579756","street":{"id":975455,"name":"On or near Stephenson Road"},"longitude":"-0.036118"},"context":"","outcome_status":null,"persistent_id":"","id":74286141,"location_subtype":"","month":"2019-05"},{"category":"anti-social-behaviour","location_type":"Force","location":{"latitude":"51.599743","street":{"id":981917,"name":"On or near Mcentee Avenue"},"longitude":"-0.035385"},"context":"","outcome_status":null,"persistent_id":"","id":74286142,"location_subtype":"","month":"2019-05"},{"category":"anti-social-behaviour","location_type":"Force","location":{"latitude":"51.584969","street":{"id":977742,"name":"On or near Longfield Avenue"},"longitude":"-0.036499"},"context":"","outcome_status":null,"persistent_id":"","id":74286140,"location_subtype":"","month":"2019-05"},{"category":"anti-social-behaviour","location_type":"Force","location":{"latitude":"51.586216","street":{"id":977726,"name":"On or near Stoneydown Avenue"},"longitude":"-0.035276"},"context":"","outcome_status":null,"persistent_id":"","id":74286138,"location_subtype":"","month":"2019-05"},{"category":"anti-social-behaviour","location_type":"Force","location":{"latitude":"51.584969","street":{"id":977742,"name":"On or near Longfield Avenue"},"longitude":"-0.036499"},"context":"","outcome_status":null,"persistent_id":"","id":74286139,"location_subtype":"","month":"2019-05"},{"category":"anti-social-behaviour","location_type":"Force","location":{"latitude":"51.596481","street":{"id":981930,"name":"On or near Supermarket"},"longitude":"-0.035541"},"context":"","outcome_status":null,"persistent_id":"","id":74286136,"location_subtype":"","month":"2019-05"},{"category":"anti-social-behaviour","location_type":"Force","location":{"latitude":"51.577351","street":{"id":975469,"name":"On or near Forster Road"},"longitude":"-0.035370"},"context":"","outcome_status":null,"persistent_id":"","id":74285545,"location_subtype":"","month":"2019-05"},{"category":"anti-social-behaviour","location_type":"Force","location":{"latitude":"51.582860","street":{"id":975479,"name":"On or near Petrol Station"},"longitude":"-0.036244"},"context":"","outcome_status":null,"persistent_id":"","id":74285544,"location_subtype":"","month":"2019-05"},{"category":"anti-social-behaviour","location_type":"Force","location":{"latitude":"51.578959","street":{"id":975461,"name":"On or near Lynmouth Road"},"longitude":"-0.035228"},"context":"","outcome_status":null,"persistent_id":"","id":74285542,"location_subtype":"","month":"2019-05"},{"category":"anti-social-behaviour","location_type":"Force","location":{"latitude":"51.577351","street":{"id":975469,"name":"On or near Forster Road"},"longitude":"-0.035370"},"context":"","outcome_status":null,"persistent_id":"","id":74285541,"location_subtype":"","month":"2019-05"},{"category":"anti-social-behaviour","location_type":"Force","location":{"latitude":"51.582250","street":{"id":975467,"name":"On or near Glenthorne Road"},"longitude":"-0.036847"},"context":"","outcome_status":null,"persistent_id":"","id":74286145,"location_subtype":"","month":"2019-05"},{"category":"anti-social-behaviour","location_type":"Force","location":{"latitude":"51.582921","street":{"id":975478,"name":"On or near Maude Road"},"longitude":"-0.034480"},"context":"","outcome_status":null,"persistent_id":"","id":74285540,"location_subtype":"","month":"2019-05"},{"category":"anti-social-behaviour","location_type":"Force","location":{"latitude":"51.577996","street":{"id":975464,"name":"On or near Hartington Road"},"longitude":"-0.034664"},"context":"","outcome_status":null,"persistent_id":"","id":74285539,"location_subtype":"","month":"2019-05"},{"category":"anti-social-behaviour","location_type":"Force","location":{"latitude":"51.575842","street":{"id":975474,"name":"On or near Brunel Road"},"longitude":"-0.033819"},"context":"","outcome_status":null,"persistent_id":"","id":74285537,"location_subtype":"","month":"2019-05"},{"category":"anti-social-behaviour","location_type":"Force","location":{"latitude":"51.575842","street":{"id":975474,"name":"On or near Brunel Road"},"longitude":"-0.033819"},"context":"","outcome_status":null,"persistent_id":"","id":74285536,"location_subtype":"","month":"2019-05"},{"category":"anti-social-behaviour","location_type":"Force","location":{"latitude":"51.575842","street":{"id":975474,"name":"On or near Brunel Road"},"longitude":"-0.033819"},"context":"","outcome_status":null,"persistent_id":"","id":74285535,"location_subtype":"","month":"2019-05"},{"category":"anti-social-behaviour","location_type":"Force","location":{"latitude":"51.579520","street":{"id":975466,"name":"On or near Grange Road"},"longitude":"-0.034367"},"context":"","outcome_status":null,"persistent_id":"","id":74285534,"location_subtype":"","month":"2019-05"},{"category":"anti-social-behaviour","location_type":"Force","location":{"latitude":"51.575842","street":{"id":975474,"name":"On or near Brunel Road"},"longitude":"-0.033819"},"context":"","outcome_status":null,"persistent_id":"","id":74285532,"location_subtype":"","month":"2019-05"},{"category":"anti-social-behaviour","location_type":"Force","location":{"latitude":"51.595195","street":{"id":977738,"name":"On or near Oakfield Road"},"longitude":"-0.032824"},"context":"","outcome_status":null,"persistent_id":"","id":74285533,"location_subtype":"","month":"2019-05"},{"category":"anti-social-behaviour","location_type":"Force","location":{"latitude":"51.580219","street":{"id":975468,"name":"On or near Frederic Street"},"longitude":"-0.033687"},"context":"","outcome_status":null,"persistent_id":"","id":74285531,"location_subtype":"","month":"2019-05"},{"category":"anti-social-behaviour","location_type":"Force","location":{"latitude":"51.580219","street":{"id":975468,"name":"On or near Frederic Street"},"longitude":"-0.033687"},"context":"","outcome_status":null,"persistent_id":"","id":74285530,"location_subtype":"","month":"2019-05"},{"category":"anti-social-behaviour","location_type":"Force","location":{"latitude":"51.586876","street":{"id":977745,"name":"On or near Ickworth Park Road"},"longitude":"-0.033313"},"context":"","outcome_status":null,"persistent_id":"","id":74285528,"location_subtype":"","month":"2019-05"},{"category":"anti-social-behaviour","location_type":"Force","location":{"latitude":"51.589928","street":{"id":977734,"name":"On or near Pasquier Road"},"longitude":"-0.031926"},"context":"","outcome_status":null,"persistent_id":"","id":74285526,"location_subtype":"","month":"2019-05"},{"category":"anti-social-behaviour","location_type":"Force","location":{"latitude":"51.578035","street":{"id":975460,"name":"On or near Markhouse Avenue"},"longitude":"-0.032685"},"context":"","outcome_status":null,"persistent_id":"","id":74285525,"location_subtype":"","month":"2019-05"},{"category":"anti-social-behaviour","location_type":"Force","location":{"latitude":"51.589928","street":{"id":977734,"name":"On or near Pasquier Road"},"longitude":"-0.031926"},"context":"","outcome_status":null,"persistent_id":"","id":74285524,"location_subtype":"","month":"2019-05"},{"category":"anti-social-behaviour","location_type":"Force","location":{"latitude":"51.588978","street":{"id":977731,"name":"On or near Renness Road"},"longitude":"-0.032111"},"context":"","outcome_status":null,"persistent_id":"","id":74285522,"location_subtype":"","month":"2019-05"},{"category":"anti-social-behaviour","location_type":"Force","location":{"latitude":"51.598034","street":{"id":981905,"name":"On or near Millfield Avenue"},"longitude":"-0.029987"},"context":"","outcome_status":null,"persistent_id":"","id":74285521,"location_subtype":"","month":"2019-05"},{"category":"anti-social-behaviour","location_type":"Force","location":{"latitude":"51.585575","street":{"id":977722,"name":"On or near Warner Road"},"longitude":"-0.032431"},"context":"","outcome_status":null,"persistent_id":"","id":74285520,"location_subtype":"","month":"2019-05"},{"category":"anti-social-behaviour","location_type":"Force","location":{"latitude":"51.592026","street":{"id":977776,"name":"On or near Green Pond Close"},"longitude":"-0.030998"},"context":"","outcome_status":null,"persistent_id":"","id":74285517,"location_subtype":"","month":"2019-05"},{"category":"anti-social-behaviour","location_type":"Force","location":{"latitude":"51.591429","street":{"id":977778,"name":"On or near Bromley Road"},"longitude":"-0.018535"},"context":"","outcome_status":null,"persistent_id":"","id":74284496,"location_subtype":"","month":"2019-05"},{"category":"anti-social-behaviour","location_type":"Force","location":{"latitude":"51.581858","street":{"id":975393,"name":"On or near Cranbrook Mews"},"longitude":"-0.030066"},"context":"","outcome_status":null,"persistent_id":"","id":74285513,"location_subtype":"","month":"2019-05"},{"category":"anti-social-behaviour","location_type":"Force","location":{"latitude":"51.577980","street":{"id":975412,"name":"On or near Ashford Close"},"longitude":"-0.029945"},"context":"","outcome_status":null,"persistent_id":"","id":74285511,"location_subtype":"","month":"2019-05"},{"category":"anti-social-behaviour","location_type":"Force","location":{"latitude":"51.579984","street":{"id":975414,"name":"On or near Arkley Crescent"},"longitude":"-0.029339"},"context":"","outcome_status":null,"persistent_id":"","id":74285510,"location_subtype":"","month":"2019-05"},{"category":"anti-social-behaviour","location_type":"Force","location":{"latitude":"51.579984","street":{"id":975414,"name":"On or near Arkley Crescent"},"longitude":"-0.029339"},"context":"","outcome_status":null,"persistent_id":"","id":74285509,"location_subtype":"","month":"2019-05"},{"category":"anti-social-behaviour","location_type":"Force","location":{"latitude":"51.581858","street":{"id":975393,"name":"On or near Cranbrook Mews"},"longitude":"-0.030066"},"context":"","outcome_status":null,"persistent_id":"","id":74285508,"location_subtype":"","month":"2019-05"},{"category":"anti-social-behaviour","location_type":"Force","location":{"latitude":"51.587150","street":{"id":977736,"name":"On or near Orchard Street"},"longitude":"-0.035698"},"context":"","outcome_status":null,"persistent_id":"","id":74286148,"location_subtype":"","month":"2019-05"},{"category":"anti-social-behaviour","location_type":"Force","location":{"latitude":"51.580096","street":{"id":975371,"name":"On or near Leopold Road"},"longitude":"-0.020501"},"context":"","outcome_status":null,"persistent_id":"","id":74285403,"location_subtype":"","month":"2019-05"},{"category":"anti-social-behaviour","location_type":"Force","location":{"latitude":"51.581858","street":{"id":975393,"name":"On or near Cranbrook Mews"},"longitude":"-0.030066"},"context":"","outcome_status":null,"persistent_id":"","id":74285507,"location_subtype":"","month":"2019-05"},{"category":"anti-social-behaviour","location_type":"Force","location":{"latitude":"51.581858","street":{"id":975393,"name":"On or near Cranbrook Mews"},"longitude":"-0.030066"},"context":"","outcome_status":null,"persistent_id":"","id":74285505,"location_subtype":"","month":"2019-05"},{"category":"anti-social-behaviour","location_type":"Force","location":{"latitude":"51.581858","street":{"id":975393,"name":"On or near Cranbrook Mews"},"longitude":"-0.030066"},"context":"","outcome_status":null,"persistent_id":"","id":74285504,"location_subtype":"","month":"2019-05"},{"category":"anti-social-behaviour","location_type":"Force","location":{"latitude":"51.586712","street":{"id":977755,"name":"On or near Essex Close"},"longitude":"-0.037492"},"context":"","outcome_status":null,"persistent_id":"","id":74286149,"location_subtype":"","month":"2019-05"},{"category":"anti-social-behaviour","location_type":"Force","location":{"latitude":"51.581858","street":{"id":975393,"name":"On or near Cranbrook Mews"},"longitude":"-0.030066"},"context":"","outcome_status":null,"persistent_id":"","id":74285503,"location_subtype":"","month":"2019-05"},{"category":"anti-social-behaviour","location_type":"Force","location":{"latitude":"51.583639","street":{"id":977882,"name":"On or near Bus\/coach Station"},"longitude":"-0.020491"},"context":"","outcome_status":null,"persistent_id":"","id":74285407,"location_subtype":"","month":"2019-05"},{"category":"anti-social-behaviour","location_type":"Force","location":{"latitude":"51.594357","street":{"id":977741,"name":"On or near Lowther Road"},"longitude":"-0.037033"},"context":"","outcome_status":null,"persistent_id":"","id":74286150,"location_subtype":"","month":"2019-05"},{"category":"anti-social-behaviour","location_type":"Force","location":{"latitude":"51.577483","street":{"id":975470,"name":"On or near Essex Road"},"longitude":"-0.036793"},"context":"","outcome_status":null,"persistent_id":"","id":74286146,"location_subtype":"","month":"2019-05"},{"category":"anti-social-behaviour","location_type":"Force","location":{"latitude":"51.581858","street":{"id":975393,"name":"On or near Cranbrook Mews"},"longitude":"-0.030066"},"context":"","outcome_status":null,"persistent_id":"","id":74285502,"location_subtype":"","month":"2019-05"},{"category":"anti-social-behaviour","location_type":"Force","location":{"latitude":"51.588435","street":{"id":977796,"name":"On or near Russell Road"},"longitude":"-0.029233"},"context":"","outcome_status":null,"persistent_id":"","id":74285501,"location_subtype":"","month":"2019-05"},{"category":"anti-social-behaviour","location_type":"Force","location":{"latitude":"51.582042","street":{"id":975345,"name":"On or near South Grove"},"longitude":"-0.028210"},"context":"","outcome_status":null,"persistent_id":"","id":74285499,"location_subtype":"","month":"2019-05"},{"category":"anti-social-behaviour","location_type":"Force","location":{"latitude":"51.580666","street":{"id":975346,"name":"On or near South Grove"},"longitude":"-0.029251"},"context":"","outcome_status":null,"persistent_id":"","id":74285497,"location_subtype":"","month":"2019-05"},{"category":"anti-social-behaviour","location_type":"Force","location":{"latitude":"51.583562","street":{"id":977878,"name":"On or near Osborne Grove"},"longitude":"-0.028202"},"context":"","outcome_status":null,"persistent_id":"","id":74285496,"location_subtype":"","month":"2019-05"},{"category":"anti-social-behaviour","location_type":"Force","location":{"latitude":"51.583562","street":{"id":977878,"name":"On or near Osborne Grove"},"longitude":"-0.028202"},"context":"","outcome_status":null,"persistent_id":"","id":74285495,"location_subtype":"","month":"2019-05"},{"category":"anti-social-behaviour","location_type":"Force","location":{"latitude":"51.577483","street":{"id":975470,"name":"On or near Essex Road"},"longitude":"-0.036793"},"context":"","outcome_status":null,"persistent_id":"","id":74286147,"location_subtype":"","month":"2019-05"},{"category":"anti-social-behaviour","location_type":"Force","location":{"latitude":"51.583639","street":{"id":977882,"name":"On or near Bus\/coach Station"},"longitude":"-0.020491"},"context":"","outcome_status":null,"persistent_id":"","id":74285408,"location_subtype":"","month":"2019-05"},{"category":"anti-social-behaviour","location_type":"Force","location":{"latitude":"51.577096","street":{"id":975401,"name":"On or near Callis Road"},"longitude":"-0.028699"},"context":"","outcome_status":null,"persistent_id":"","id":74285493,"location_subtype":"","month":"2019-05"},{"category":"anti-social-behaviour","location_type":"Force","location":{"latitude":"51.589403","street":{"id":923742,"name":"On or near Petrol Station"},"longitude":"-0.027949"},"context":"","outcome_status":null,"persistent_id":"","id":74285492,"location_subtype":"","month":"2019-05"},{"category":"anti-social-behaviour","location_type":"Force","location":{"latitude":"51.580233","street":{"id":975402,"name":"On or near Bude Close"},"longitude":"-0.028087"},"context":"","outcome_status":null,"persistent_id":"","id":74285491,"location_subtype":"","month":"2019-05"},{"category":"anti-social-behaviour","location_type":"Force","location":{"latitude":"51.580233","street":{"id":975402,"name":"On or near Bude Close"},"longitude":"-0.028087"},"context":"","outcome_status":null,"persistent_id":"","id":74285490,"location_subtype":"","month":"2019-05"},{"category":"anti-social-behaviour","location_type":"Force","location":{"latitude":"51.580233","street":{"id":975402,"name":"On or near Bude Close"},"longitude":"-0.028087"},"context":"","outcome_status":null,"persistent_id":"","id":74285489,"location_subtype":"","month":"2019-05"},{"category":"anti-social-behaviour","location_type":"Force","location":{"latitude":"51.585694","street":{"id":977848,"name":"On or near Cleveland Park Avenue"},"longitude":"-0.021340"},"context":"","outcome_status":null,"persistent_id":"","id":74285424,"location_subtype":"","month":"2019-05"},{"category":"anti-social-behaviour","location_type":"Force","location":{"latitude":"51.596212","street":{"id":977823,"name":"On or near Heron Close"},"longitude":"-0.028059"},"context":"","outcome_status":null,"persistent_id":"","id":74285488,"location_subtype":"","month":"2019-05"},{"category":"anti-social-behaviour","location_type":"Force","location":{"latitude":"51.585740","street":{"id":977841,"name":"On or near Eastfield Road"},"longitude":"-0.018725"},"context":"","outcome_status":null,"persistent_id":"","id":74284481,"location_subtype":"","month":"2019-05"},{"category":"anti-social-behaviour","location_type":"Force","location":{"latitude":"51.591429","street":{"id":977778,"name":"On or near Bromley Road"},"longitude":"-0.018535"},"context":"","outcome_status":null,"persistent_id":"","id":74284492,"location_subtype":"","month":"2019-05"},{"category":"anti-social-behaviour","location_type":"Force","location":{"latitude":"51.591429","street":{"id":977778,"name":"On or near Bromley Road"},"longitude":"-0.018535"},"context":"","outcome_status":null,"persistent_id":"","id":74284494,"location_subtype":"","month":"2019-05"},{"category":"anti-social-behaviour","location_type":"Force","location":{"latitude":"51.591429","street":{"id":977778,"name":"On or near Bromley Road"},"longitude":"-0.018535"},"context":"","outcome_status":null,"persistent_id":"","id":74284493,"location_subtype":"","month":"2019-05"},{"category":"anti-social-behaviour","location_type":"Force","location":{"latitude":"51.591429","street":{"id":977778,"name":"On or near Bromley Road"},"longitude":"-0.018535"},"context":"","outcome_status":null,"persistent_id":"","id":74284495,"location_subtype":"","month":"2019-05"},{"category":"anti-social-behaviour","location_type":"Force","location":{"latitude":"51.591429","street":{"id":977778,"name":"On or near Bromley Road"},"longitude":"-0.018535"},"context":"","outcome_status":null,"persistent_id":"","id":74284497,"location_subtype":"","month":"2019-05"},{"category":"anti-social-behaviour","location_type":"Force","location":{"latitude":"51.582702","street":{"id":975429,"name":"On or near Station Approach"},"longitude":"-0.019305"},"context":"","outcome_status":null,"persistent_id":"","id":74284498,"location_subtype":"","month":"2019-05"},{"category":"anti-social-behaviour","location_type":"Force","location":{"latitude":"51.582702","street":{"id":975429,"name":"On or near Station Approach"},"longitude":"-0.019305"},"context":"","outcome_status":null,"persistent_id":"","id":74284499,"location_subtype":"","month":"2019-05"},{"category":"anti-social-behaviour","location_type":"Force","location":{"latitude":"51.582702","street":{"id":975429,"name":"On or near Station Approach"},"longitude":"-0.019305"},"context":"","outcome_status":null,"persistent_id":"","id":74284500,"location_subtype":"","month":"2019-05"},{"category":"anti-social-behaviour","location_type":"Force","location":{"latitude":"51.582702","street":{"id":975429,"name":"On or near Station Approach"},"longitude":"-0.019305"},"context":"","outcome_status":null,"persistent_id":"","id":74284501,"location_subtype":"","month":"2019-05"},{"category":"anti-social-behaviour","location_type":"Force","location":{"latitude":"51.579219","street":{"id":975418,"name":"On or near Abbey Mews"},"longitude":"-0.019139"},"context":"","outcome_status":null,"persistent_id":"","id":74284504,"location_subtype":"","month":"2019-05"},{"category":"anti-social-behaviour","location_type":"Force","location":{"latitude":"51.578813","street":{"id":975331,"name":"On or near Yunus Khan Close"},"longitude":"-0.019633"},"context":"","outcome_status":null,"persistent_id":"","id":74284517,"location_subtype":"","month":"2019-05"},{"category":"anti-social-behaviour","location_type":"Force","location":{"latitude":"51.578813","street":{"id":975331,"name":"On or near Yunus Khan Close"},"longitude":"-0.019633"},"context":"","outcome_status":null,"persistent_id":"","id":74284518,"location_subtype":"","month":"2019-05"},{"category":"anti-social-behaviour","location_type":"Force","location":{"latitude":"51.585144","street":{"id":977821,"name":"On or near Hoe Street"},"longitude":"-0.019646"},"context":"","outcome_status":null,"persistent_id":"","id":74284521,"location_subtype":"","month":"2019-05"},{"category":"anti-social-behaviour","location_type":"Force","location":{"latitude":"51.585144","street":{"id":977821,"name":"On or near Hoe Street"},"longitude":"-0.019646"},"context":"","outcome_status":null,"persistent_id":"","id":74284522,"location_subtype":"","month":"2019-05"},{"category":"anti-social-behaviour","location_type":"Force","location":{"latitude":"51.579908","street":{"id":975360,"name":"On or near Queens Road"},"longitude":"-0.019498"},"context":"","outcome_status":null,"persistent_id":"","id":74284524,"location_subtype":"","month":"2019-05"},{"category":"anti-social-behaviour","location_type":"Force","location":{"latitude":"51.579908","street":{"id":975360,"name":"On or near Queens Road"},"longitude":"-0.019498"},"context":"","outcome_status":null,"persistent_id":"","id":74284523,"location_subtype":"","month":"2019-05"},{"category":"anti-social-behaviour","location_type":"Force","location":{"latitude":"51.579908","street":{"id":975360,"name":"On or near Queens Road"},"longitude":"-0.019498"},"context":"","outcome_status":null,"persistent_id":"","id":74284525,"location_subtype":"","month":"2019-05"},{"category":"anti-social-behaviour","location_type":"Force","location":{"latitude":"51.587825","street":{"id":977905,"name":"On or near Ferry Lane"},"longitude":"-0.056803"},"context":"","outcome_status":null,"persistent_id":"","id":74288375,"location_subtype":"","month":"2019-05"},{"category":"anti-social-behaviour","location_type":"Force","location":{"latitude":"51.594379","street":{"id":977900,"name":"On or near Pedestrian Subway"},"longitude":"-0.057245"},"context":"","outcome_status":null,"persistent_id":"","id":74288378,"location_subtype":"","month":"2019-05"},{"category":"anti-social-behaviour","location_type":"Force","location":{"latitude":"51.594379","street":{"id":977900,"name":"On or near Pedestrian Subway"},"longitude":"-0.057245"},"context":"","outcome_status":null,"persistent_id":"","id":74288379,"location_subtype":"","month":"2019-05"},{"category":"anti-social-behaviour","location_type":"Force","location":{"latitude":"51.587825","street":{"id":977905,"name":"On or near Ferry Lane"},"longitude":"-0.056803"},"context":"","outcome_status":null,"persistent_id":"","id":74288380,"location_subtype":"","month":"2019-05"},{"category":"anti-social-behaviour","location_type":"Force","location":{"latitude":"51.583188","street":{"id":975317,"name":"On or near Kessock Close"},"longitude":"-0.058646"},"context":"","outcome_status":null,"persistent_id":"","id":74288381,"location_subtype":"","month":"2019-05"},{"category":"anti-social-behaviour","location_type":"Force","location":{"latitude":"51.584513","street":{"id":977937,"name":"On or near Runcorn Close"},"longitude":"-0.058301"},"context":"","outcome_status":null,"persistent_id":"","id":74288383,"location_subtype":"","month":"2019-05"},{"category":"anti-social-behaviour","location_type":"Force","location":{"latitude":"51.589032","street":{"id":977999,"name":"On or near Parking Area"},"longitude":"-0.060173"},"context":"","outcome_status":null,"persistent_id":"","id":74288384,"location_subtype":"","month":"2019-05"},{"category":"anti-social-behaviour","location_type":"Force","location":{"latitude":"51.589032","street":{"id":977999,"name":"On or near Parking Area"},"longitude":"-0.060173"},"context":"","outcome_status":null,"persistent_id":"","id":74288402,"location_subtype":"","month":"2019-05"},{"category":"anti-social-behaviour","location_type":"Force","location":{"latitude":"51.587120","street":{"id":978082,"name":"On or near Shopping Area"},"longitude":"-0.062030"},"context":"","outcome_status":null,"persistent_id":"","id":74288407,"location_subtype":"","month":"2019-05"},{"category":"anti-social-behaviour","location_type":"Force","location":{"latitude":"51.593283","street":{"id":977728,"name":"On or near St Andrews Road"},"longitude":"-0.037325"},"context":"","outcome_status":null,"persistent_id":"","id":74286151,"location_subtype":"","month":"2019-05"},{"category":"anti-social-behaviour","location_type":"Force","location":{"latitude":"51.579150","street":{"id":975404,"name":"On or near Brighton Avenue"},"longitude":"-0.027859"},"context":"","outcome_status":null,"persistent_id":"","id":74285484,"location_subtype":"","month":"2019-05"},{"category":"anti-social-behaviour","location_type":"Force","location":{"latitude":"51.594287","street":{"id":977795,"name":"On or near Sherwood Close"},"longitude":"-0.027478"},"context":"","outcome_status":null,"persistent_id":"","id":74285482,"location_subtype":"","month":"2019-05"},{"category":"anti-social-behaviour","location_type":"Force","location":{"latitude":"51.593334","street":{"id":977815,"name":"On or near Lisbon Close"},"longitude":"-0.026451"},"context":"","outcome_status":null,"persistent_id":"","id":74285480,"location_subtype":"","month":"2019-05"},{"category":"anti-social-behaviour","location_type":"Force","location":{"latitude":"51.585694","street":{"id":977848,"name":"On or near Cleveland Park Avenue"},"longitude":"-0.021340"},"context":"","outcome_status":null,"persistent_id":"","id":74285426,"location_subtype":"","month":"2019-05"},{"category":"anti-social-behaviour","location_type":"Force","location":{"latitude":"51.587718","street":{"id":977846,"name":"On or near Coleridge Road"},"longitude":"-0.028282"},"context":"","outcome_status":null,"persistent_id":"","id":74285479,"location_subtype":"","month":"2019-05"},{"category":"anti-social-behaviour","location_type":"Force","location":{"latitude":"51.589673","street":{"id":977864,"name":"On or near Police Station"},"longitude":"-0.025830"},"context":"","outcome_status":null,"persistent_id":"","id":74285477,"location_subtype":"","month":"2019-05"},{"category":"anti-social-behaviour","location_type":"Force","location":{"latitude":"51.579920","street":{"id":975380,"name":"On or near Gosport Road"},"longitude":"-0.027119"},"context":"","outcome_status":null,"persistent_id":"","id":74285478,"location_subtype":"","month":"2019-05"},{"category":"anti-social-behaviour","location_type":"Force","location":{"latitude":"51.583047","street":{"id":975313,"name":"On or near Southcote Road"},"longitude":"-0.038256"},"context":"","outcome_status":null,"persistent_id":"","id":74286152,"location_subtype":"","month":"2019-05"},{"category":"anti-social-behaviour","location_type":"Force","location":{"latitude":"51.573935","street":{"id":975415,"name":"On or near Alexandra Road"},"longitude":"-0.026844"},"context":"","outcome_status":null,"persistent_id":"","id":74285476,"location_subtype":"","month":"2019-05"},{"category":"anti-social-behaviour","location_type":"Force","location":{"latitude":"51.583323","street":{"id":977933,"name":"On or near Manning Road"},"longitude":"-0.038071"},"context":"","outcome_status":null,"persistent_id":"","id":74286153,"location_subtype":"","month":"2019-05"},{"category":"anti-social-behaviour","location_type":"Force","location":{"latitude":"51.573935","street":{"id":975415,"name":"On or near Alexandra Road"},"longitude":"-0.026844"},"context":"","outcome_status":null,"persistent_id":"","id":74285475,"location_subtype":"","month":"2019-05"},{"category":"anti-social-behaviour","location_type":"Force","location":{"latitude":"51.583733","street":{"id":977873,"name":"On or near Storey Road"},"longitude":"-0.027127"},"context":"","outcome_status":null,"persistent_id":"","id":74285474,"location_subtype":"","month":"2019-05"},{"category":"anti-social-behaviour","location_type":"Force","location":{"latitude":"51.581858","street":{"id":975393,"name":"On or near Cranbrook Mews"},"longitude":"-0.030066"},"context":"","outcome_status":null,"persistent_id":"","id":74285506,"location_subtype":"","month":"2019-05"},{"category":"anti-social-behaviour","location_type":"Force","location":{"latitude":"51.597342","street":{"id":981941,"name":"On or near Keith Road"},"longitude":"-0.025714"},"context":"","outcome_status":null,"persistent_id":"","id":74285470,"location_subtype":"","month":"2019-05"},{"category":"anti-social-behaviour","location_type":"Force","location":{"latitude":"51.596611","street":{"id":981934,"name":"On or near Thorpe Crescent"},"longitude":"-0.025601"},"context":"","outcome_status":null,"persistent_id":"","id":74285468,"location_subtype":"","month":"2019-05"},{"category":"anti-social-behaviour","location_type":"Force","location":{"latitude":"51.574013","street":{"id":975403,"name":"On or near Broomfield"},"longitude":"-0.026119"},"context":"","outcome_status":null,"persistent_id":"","id":74285467,"location_subtype":"","month":"2019-05"},{"category":"anti-social-behaviour","location_type":"Force","location":{"latitude":"51.598634","street":{"id":981903,"name":"On or near Fair View Close"},"longitude":"-0.033628"},"context":"","outcome_status":null,"persistent_id":"","id":74285527,"location_subtype":"","month":"2019-05"},{"category":"anti-social-behaviour","location_type":"Force","location":{"latitude":"51.583323","street":{"id":977933,"name":"On or near Manning Road"},"longitude":"-0.038071"},"context":"","outcome_status":null,"persistent_id":"","id":74286154,"location_subtype":"","month":"2019-05"},{"category":"anti-social-behaviour","location_type":"Force","location":{"latitude":"51.584176","street":{"id":977881,"name":"On or near Eldon Road"},"longitude":"-0.026227"},"context":"","outcome_status":null,"persistent_id":"","id":74285466,"location_subtype":"","month":"2019-05"},{"category":"anti-social-behaviour","location_type":"Force","location":{"latitude":"51.585000","street":{"id":977836,"name":"On or near Erskine Road"},"longitude":"-0.025498"},"context":"","outcome_status":null,"persistent_id":"","id":74285465,"location_subtype":"","month":"2019-05"},{"category":"anti-social-behaviour","location_type":"Force","location":{"latitude":"51.596090","street":{"id":977803,"name":"On or near Pennant Terrace"},"longitude":"-0.025104"},"context":"","outcome_status":null,"persistent_id":"","id":74285460,"location_subtype":"","month":"2019-05"},{"category":"anti-social-behaviour","location_type":"Force","location":{"latitude":"51.575330","street":{"id":975369,"name":"On or near Longfellow Road"},"longitude":"-0.025845"},"context":"","outcome_status":null,"persistent_id":"","id":74285459,"location_subtype":"","month":"2019-05"},{"category":"anti-social-behaviour","location_type":"Force","location":{"latitude":"51.583323","street":{"id":977933,"name":"On or near Manning Road"},"longitude":"-0.038071"},"context":"","outcome_status":null,"persistent_id":"","id":74286155,"location_subtype":"","month":"2019-05"},{"category":"anti-social-behaviour","location_type":"Force","location":{"latitude":"51.575330","street":{"id":975369,"name":"On or near Longfellow Road"},"longitude":"-0.025845"},"context":"","outcome_status":null,"persistent_id":"","id":74285458,"location_subtype":"","month":"2019-05"},{"category":"anti-social-behaviour","location_type":"Force","location":{"latitude":"51.580219","street":{"id":975468,"name":"On or near Frederic Street"},"longitude":"-0.033687"},"context":"","outcome_status":null,"persistent_id":"","id":74285529,"location_subtype":"","month":"2019-05"},{"category":"anti-social-behaviour","location_type":"Force","location":{"latitude":"51.591047","street":{"id":977931,"name":"On or near Theatre\/concert Hall"},"longitude":"-0.038605"},"context":"","outcome_status":null,"persistent_id":"","id":74286157,"location_subtype":"","month":"2019-05"},{"category":"anti-social-behaviour","location_type":"Force","location":{"latitude":"51.594278","street":{"id":977834,"name":"On or near Fleeming Road"},"longitude":"-0.024288"},"context":"","outcome_status":null,"persistent_id":"","id":74285457,"location_subtype":"","month":"2019-05"},{"category":"anti-social-behaviour","location_type":"Force","location":{"latitude":"51.574995","street":{"id":975343,"name":"On or near Stafford Close"},"longitude":"-0.025167"},"context":"","outcome_status":null,"persistent_id":"","id":74285456,"location_subtype":"","month":"2019-05"},{"category":"anti-social-behaviour","location_type":"Force","location":{"latitude":"51.599743","street":{"id":981917,"name":"On or near Mcentee Avenue"},"longitude":"-0.035385"},"context":"","outcome_status":null,"persistent_id":"","id":74286144,"location_subtype":"","month":"2019-05"},{"category":"anti-social-behaviour","location_type":"Force","location":{"latitude":"51.588202","street":{"id":977829,"name":"On or near Greenleaf Road"},"longitude":"-0.023930"},"context":"","outcome_status":null,"persistent_id":"","id":74285455,"location_subtype":"","month":"2019-05"},{"category":"anti-social-behaviour","location_type":"Force","location":{"latitude":"51.576626","street":{"id":975372,"name":"On or near Lennox Road"},"longitude":"-0.024288"},"context":"","outcome_status":null,"persistent_id":"","id":74285454,"location_subtype":"","month":"2019-05"},{"category":"anti-social-behaviour","location_type":"Force","location":{"latitude":"51.582865","street":{"id":975431,"name":"On or near Supermarket"},"longitude":"-0.024725"},"context":"","outcome_status":null,"persistent_id":"","id":74285453,"location_subtype":"","month":"2019-05"},{"category":"anti-social-behaviour","location_type":"Force","location":{"latitude":"51.593652","street":{"id":977916,"name":"On or near Shakespeare Road"},"longitude":"-0.038435"},"context":"","outcome_status":null,"persistent_id":"","id":74286158,"location_subtype":"","month":"2019-05"},{"category":"anti-social-behaviour","location_type":"Force","location":{"latitude":"51.586906","street":{"id":977790,"name":"On or near Westbury Road"},"longitude":"-0.023886"},"context":"","outcome_status":null,"persistent_id":"","id":74285451,"location_subtype":"","month":"2019-05"},{"category":"anti-social-behaviour","location_type":"Force","location":{"latitude":"51.582865","street":{"id":975431,"name":"On or near Supermarket"},"longitude":"-0.024725"},"context":"","outcome_status":null,"persistent_id":"","id":74285452,"location_subtype":"","month":"2019-05"},{"category":"anti-social-behaviour","location_type":"Force","location":{"latitude":"51.586906","street":{"id":977790,"name":"On or near Westbury Road"},"longitude":"-0.023886"},"context":"","outcome_status":null,"persistent_id":"","id":74285450,"location_subtype":"","month":"2019-05"},{"category":"anti-social-behaviour","location_type":"Force","location":{"latitude":"51.586906","street":{"id":977790,"name":"On or near Westbury Road"},"longitude":"-0.023886"},"context":"","outcome_status":null,"persistent_id":"","id":74285449,"location_subtype":"","month":"2019-05"},{"category":"anti-social-behaviour","location_type":"Force","location":{"latitude":"51.579951","street":{"id":975390,"name":"On or near Edinburgh Road"},"longitude":"-0.023653"},"context":"","outcome_status":null,"persistent_id":"","id":74285447,"location_subtype":"","month":"2019-05"},{"category":"anti-social-behaviour","location_type":"Force","location":{"latitude":"51.594439","street":{"id":977851,"name":"On or near Carr Road"},"longitude":"-0.023183"},"context":"","outcome_status":null,"persistent_id":"","id":74285448,"location_subtype":"","month":"2019-05"},{"category":"anti-social-behaviour","location_type":"Force","location":{"latitude":"51.585405","street":{"id":977789,"name":"On or near Westbury Road"},"longitude":"-0.023345"},"context":"","outcome_status":null,"persistent_id":"","id":74285446,"location_subtype":"","month":"2019-05"},{"category":"anti-social-behaviour","location_type":"Force","location":{"latitude":"51.585405","street":{"id":977789,"name":"On or near Westbury Road"},"longitude":"-0.023345"},"context":"","outcome_status":null,"persistent_id":"","id":74285445,"location_subtype":"","month":"2019-05"},{"category":"anti-social-behaviour","location_type":"Force","location":{"latitude":"51.582154","street":{"id":975389,"name":"On or near Edison Close"},"longitude":"-0.022576"},"context":"","outcome_status":null,"persistent_id":"","id":74285441,"location_subtype":"","month":"2019-05"},{"category":"anti-social-behaviour","location_type":"Force","location":{"latitude":"51.585405","street":{"id":977789,"name":"On or near Westbury Road"},"longitude":"-0.023345"},"context":"","outcome_status":null,"persistent_id":"","id":74285444,"location_subtype":"","month":"2019-05"},{"category":"anti-social-behaviour","location_type":"Force","location":{"latitude":"51.584641","street":{"id":977880,"name":"On or near Gillards Way"},"longitude":"-0.022353"},"context":"","outcome_status":null,"persistent_id":"","id":74285440,"location_subtype":"","month":"2019-05"},{"category":"anti-social-behaviour","location_type":"Force","location":{"latitude":"51.584641","street":{"id":977880,"name":"On or near Gillards Way"},"longitude":"-0.022353"},"context":"","outcome_status":null,"persistent_id":"","id":74285438,"location_subtype":"","month":"2019-05"},{"category":"anti-social-behaviour","location_type":"Force","location":{"latitude":"51.579305","street":{"id":975301,"name":"On or near York Road"},"longitude":"-0.039803"},"context":"","outcome_status":null,"persistent_id":"","id":74286171,"location_subtype":"","month":"2019-05"},{"category":"anti-social-behaviour","location_type":"Force","location":{"latitude":"51.584641","street":{"id":977880,"name":"On or near Gillards Way"},"longitude":"-0.022353"},"context":"","outcome_status":null,"persistent_id":"","id":74285437,"location_subtype":"","month":"2019-05"},{"category":"anti-social-behaviour","location_type":"Force","location":{"latitude":"51.584641","street":{"id":977880,"name":"On or near Gillards Way"},"longitude":"-0.022353"},"context":"","outcome_status":null,"persistent_id":"","id":74285439,"location_subtype":"","month":"2019-05"},{"category":"anti-social-behaviour","location_type":"Force","location":{"latitude":"51.591492","street":{"id":977914,"name":"On or near Sutherland Road"},"longitude":"-0.038311"},"context":"","outcome_status":null,"persistent_id":"","id":74286159,"location_subtype":"","month":"2019-05"},{"category":"anti-social-behaviour","location_type":"Force","location":{"latitude":"51.594379","street":{"id":977900,"name":"On or near Pedestrian Subway"},"longitude":"-0.057245"},"context":"","outcome_status":null,"persistent_id":"","id":74288377,"location_subtype":"","month":"2019-05"},{"category":"anti-social-behaviour","location_type":"Force","location":{"latitude":"51.584641","street":{"id":977880,"name":"On or near Gillards Way"},"longitude":"-0.022353"},"context":"","outcome_status":null,"persistent_id":"","id":74285436,"location_subtype":"","month":"2019-05"},{"category":"anti-social-behaviour","location_type":"Force","location":{"latitude":"51.594379","street":{"id":977900,"name":"On or near Pedestrian Subway"},"longitude":"-0.057245"},"context":"","outcome_status":null,"persistent_id":"","id":74288385,"location_subtype":"","month":"2019-05"},{"category":"anti-social-behaviour","location_type":"Force","location":{"latitude":"51.584641","street":{"id":977880,"name":"On or near Gillards Way"},"longitude":"-0.022353"},"context":"","outcome_status":null,"persistent_id":"","id":74285435,"location_subtype":"","month":"2019-05"},{"category":"anti-social-behaviour","location_type":"Force","location":{"latitude":"51.584641","street":{"id":977880,"name":"On or near Gillards Way"},"longitude":"-0.022353"},"context":"","outcome_status":null,"persistent_id":"","id":74285433,"location_subtype":"","month":"2019-05"},{"category":"anti-social-behaviour","location_type":"Force","location":{"latitude":"51.584641","street":{"id":977880,"name":"On or near Gillards Way"},"longitude":"-0.022353"},"context":"","outcome_status":null,"persistent_id":"","id":74285434,"location_subtype":"","month":"2019-05"},{"category":"anti-social-behaviour","location_type":"Force","location":{"latitude":"51.587471","street":{"id":977859,"name":"On or near Boleyn Court"},"longitude":"-0.022677"},"context":"","outcome_status":null,"persistent_id":"","id":74285432,"location_subtype":"","month":"2019-05"},{"category":"bicycle-theft","location_type":"Force","location":{"latitude":"51.594439","street":{"id":977851,"name":"On or near Carr Road"},"longitude":"-0.023183"},"context":"","outcome_status":{"category":"Status update unavailable","date":"2019-09"},"persistent_id":"d6043f497ab55cad2d5c91cd5495171263e3f4d9e22d88157bb8475f882116f3","id":74349906,"location_subtype":"","month":"2019-05"},{"category":"bicycle-theft","location_type":"Force","location":{"latitude":"51.581415","street":{"id":975432,"name":"On or near Pedestrian Subway"},"longitude":"-0.031543"},"context":"","outcome_status":{"category":"Status update unavailable","date":"2019-09"},"persistent_id":"9df6f142961e9696a6470e6628e47b6c1b0127cf17f091d1ab8d77811416f696","id":74361903,"location_subtype":"","month":"2019-05"},{"category":"bicycle-theft","location_type":"Force","location":{"latitude":"51.584109","street":{"id":977885,"name":"On or near Police Station"},"longitude":"-0.024397"},"context":"","outcome_status":{"category":"Status update unavailable","date":"2019-09"},"persistent_id":"90cf1d357e92e72a71261c4c65c6fbcf8260edacd4782e1bf08094162ecada62","id":74372039,"location_subtype":"","month":"2019-05"},{"category":"bicycle-theft","location_type":"Force","location":{"latitude":"51.596611","street":{"id":981934,"name":"On or near Thorpe Crescent"},"longitude":"-0.025601"},"context":"","outcome_status":{"category":"Status update unavailable","date":"2019-09"},"persistent_id":"033a3811f9938a5f78500c4b0660d921fc9daa7cd0d6a15649c1d769a632b455","id":74350409,"location_subtype":"","month":"2019-05"},{"category":"bicycle-theft","location_type":"Force","location":{"latitude":"51.582702","street":{"id":975429,"name":"On or near Station Approach"},"longitude":"-0.019305"},"context":"","outcome_status":{"category":"Status update unavailable","date":"2019-09"},"persistent_id":"cab45c2711368298f5e2c2ece0e0b3e47c20368a08b239cb70f365435e7f85c4","id":74350297,"location_subtype":"","month":"2019-05"},{"category":"bicycle-theft","location_type":"Force","location":{"latitude":"51.586003","street":{"id":977847,"name":"On or near Cleveland Park Crescent"},"longitude":"-0.022048"},"context":"","outcome_status":{"category":"Status update unavailable","date":"2019-09"},"persistent_id":"4f6f5fff0a9150fc0cdcf397b5b55dd7358a30bcf2105a3b4f7bc1d25fc57231","id":74295641,"location_subtype":"","month":"2019-05"},{"category":"bicycle-theft","location_type":"Force","location":{"latitude":"51.584361","street":{"id":977874,"name":"On or near Stainforth Road"},"longitude":"-0.017962"},"context":"","outcome_status":{"category":"Status update unavailable","date":"2019-09"},"persistent_id":"0cbfef900a941752d8d5cc9ad6523985f5c8d3b82e371995192db20bce9f1658","id":74353592,"location_subtype":"","month":"2019-05"},{"category":"bicycle-theft","location_type":"Force","location":{"latitude":"51.589032","street":{"id":977999,"name":"On or near Parking Area"},"longitude":"-0.060173"},"context":"","outcome_status":{"category":"Status update unavailable","date":"2019-09"},"persistent_id":"92a6b77f858c807b6801dd23542d63c56906c0b7463d102edffb90fd356f876a","id":74297624,"location_subtype":"","month":"2019-05"},{"category":"bicycle-theft","location_type":"Force","location":{"latitude":"51.580096","street":{"id":975371,"name":"On or near Leopold Road"},"longitude":"-0.020501"},"context":"","outcome_status":{"category":"Status update unavailable","date":"2019-09"},"persistent_id":"23f326e2829f10c29ea4c0ae042f6fc063785acece35851e0070f6ac1bdf832c","id":74299538,"location_subtype":"","month":"2019-05"},{"category":"bicycle-theft","location_type":"Force","location":{"latitude":"51.593283","street":{"id":977728,"name":"On or near St Andrews Road"},"longitude":"-0.037325"},"context":"","outcome_status":{"category":"Status update unavailable","date":"2019-09"},"persistent_id":"76305cc37a4091a146e92e2ab9691ff8c4dc5df5e94c18a93aa0c8edbfe0b5f8","id":74330715,"location_subtype":"","month":"2019-05"},{"category":"bicycle-theft","location_type":"Force","location":{"latitude":"51.575871","street":{"id":975419,"name":"On or near Petrol Station"},"longitude":"-0.030209"},"context":"","outcome_status":{"category":"Status update unavailable","date":"2019-09"},"persistent_id":"139408e58f4646a9af4fb4eed1c3bc16d2118b82d16c88765f2c25b544a92fc3","id":74330242,"location_subtype":"","month":"2019-05"},{"category":"bicycle-theft","location_type":"Force","location":{"latitude":"51.587120","street":{"id":978082,"name":"On or near Shopping Area"},"longitude":"-0.062030"},"context":"","outcome_status":{"category":"Status update unavailable","date":"2019-09"},"persistent_id":"8e6f8b503a0489582b81b1e05963bd398448f8d0df97d630979aa51fad8005cb","id":74333641,"location_subtype":"","month":"2019-05"},{"category":"bicycle-theft","location_type":"Force","location":{"latitude":"51.576216","street":{"id":975367,"name":"On or near Markhouse Road"},"longitude":"-0.029877"},"context":"","outcome_status":{"category":"Status update unavailable","date":"2019-09"},"persistent_id":"6dde7d3cce1c9b6063bf86dd269ef9af2a2a8595dceb96517be633a27d4e866a","id":74306266,"location_subtype":"","month":"2019-05"},{"category":"bicycle-theft","location_type":"BTP","location":{"latitude":"51.581500","street":{"id":1486835,"name":"Walthamstow Queens Road (station)"},"longitude":"-0.023828"},"context":"","outcome_status":{"category":"Status update unavailable","date":"2019-09"},"persistent_id":"","id":88721610,"location_subtype":"STATION","month":"2019-05"},{"category":"bicycle-theft","location_type":"BTP","location":{"latitude":"51.582816","street":{"id":1490403,"name":"Walthamstow Central (lu Station)"},"longitude":"-0.019069"},"context":"","outcome_status":{"category":"Status update unavailable","date":"2019-09"},"persistent_id":"","id":88721875,"location_subtype":"LU STATION","month":"2019-05"},{"category":"burglary","location_type":"Force","location":{"latitude":"51.584194","street":{"id":977871,"name":"On or near Tower Mews"},"longitude":"-0.019803"},"context":"","outcome_status":{"category":"Status update unavailable","date":"2019-09"},"persistent_id":"7f5b4e5beb0c30b931d0641d1b5cc1e0d7dbca844821b959e01fcd5170ccf5dd","id":74325403,"location_subtype":"","month":"2019-05"},{"category":"burglary","location_type":"Force","location":{"latitude":"51.587120","street":{"id":978082,"name":"On or near Shopping Area"},"longitude":"-0.062030"},"context":"","outcome_status":{"category":"Court result unavailable","date":"2019-12"},"persistent_id":"5e3a47f9f12ef2b1b5ceccdf0fd515b395bd6c9dd892e82b37aa03d9d0441565","id":74314722,"location_subtype":"","month":"2019-05"},{"category":"burglary","location_type":"Force","location":{"latitude":"51.590608","street":{"id":977761,"name":"On or near Chamberlain Place"},"longitude":"-0.033311"},"context":"","outcome_status":{"category":"Status update unavailable","date":"2019-09"},"persistent_id":"a4e81ee5893068e4b92114ec61baea55b9c6e91c1e969406589a9d03f1504e88","id":74329027,"location_subtype":"","month":"2019-05"},{"category":"burglary","location_type":"Force","location":{"latitude":"51.596481","street":{"id":981930,"name":"On or near Supermarket"},"longitude":"-0.035541"},"context":"","outcome_status":{"category":"Status update unavailable","date":"2019-09"},"persistent_id":"5ac2a0a21ec0518f2af2aef2f95b277b00532abfebe8eff85739c0eacb1d9cf9","id":74325405,"location_subtype":"","month":"2019-05"},{"category":"burglary","location_type":"Force","location":{"latitude":"51.585694","street":{"id":977848,"name":"On or near Cleveland Park Avenue"},"longitude":"-0.021340"},"context":"","outcome_status":{"category":"Status update unavailable","date":"2019-09"},"persistent_id":"18835d56ee7c4bbc7fcbdf2b2b2062f5238fa7cdf4527dc72ec032f279f804f3","id":74330046,"location_subtype":"","month":"2019-05"},{"category":"burglary","location_type":"Force","location":{"latitude":"51.590608","street":{"id":977761,"name":"On or near Chamberlain Place"},"longitude":"-0.033311"},"context":"","outcome_status":{"category":"Status update unavailable","date":"2019-09"},"persistent_id":"ae248eb45ec1c26fc9cd2e98e9b781d9eeac84a58bf157beced02b0ebfe953e7","id":74348022,"location_subtype":"","month":"2019-05"},{"category":"burglary","location_type":"Force","location":{"latitude":"51.590961","street":{"id":977860,"name":"On or near Bemsted Road"},"longitude":"-0.025976"},"context":"","outcome_status":{"category":"Status update unavailable","date":"2019-09"},"persistent_id":"74ddcbd7b29c3c67d17c3616611ed70b500206907860f9187256158dcf5dfb33","id":74331111,"location_subtype":"","month":"2019-05"},{"category":"burglary","location_type":"Force","location":{"latitude":"51.587120","street":{"id":978082,"name":"On or near Shopping Area"},"longitude":"-0.062030"},"context":"","outcome_status":{"category":"Status update unavailable","date":"2019-09"},"persistent_id":"d6d1e63ca3a34b7b99ba0715ad2178149e3dcfbfe30170f4044fedfc5cc0ae0e","id":74343286,"location_subtype":"","month":"2019-05"},{"category":"burglary","location_type":"Force","location":{"latitude":"51.588978","street":{"id":977731,"name":"On or near Renness Road"},"longitude":"-0.032111"},"context":"","outcome_status":{"category":"Status update unavailable","date":"2019-09"},"persistent_id":"889ef851d6fa02f3e75ba71b701c8e7e0c639d38d9000fddac31c02f9413e5db","id":74290036,"location_subtype":"","month":"2019-05"},{"category":"burglary","location_type":"Force","location":{"latitude":"51.591521","street":{"id":977862,"name":"On or near Badlis Road"},"longitude":"-0.022877"},"context":"","outcome_status":{"category":"Status update unavailable","date":"2019-09"},"persistent_id":"8f3d0718089256345c502c268021b99b972ae128455744cabe44dc54e004eb17","id":74296090,"location_subtype":"","month":"2019-05"},{"category":"burglary","location_type":"Force","location":{"latitude":"51.583562","street":{"id":977878,"name":"On or near Osborne Grove"},"longitude":"-0.028202"},"context":"","outcome_status":{"category":"Status update unavailable","date":"2019-09"},"persistent_id":"ecb7474744da654bb6e559904dc17068b945bff2711c69cbe62b095d9c9d3d91","id":74323911,"location_subtype":"","month":"2019-05"},{"category":"burglary","location_type":"Force","location":{"latitude":"51.582047","street":{"id":975450,"name":"On or near Parking Area"},"longitude":"-0.033868"},"context":"","outcome_status":{"category":"Status update unavailable","date":"2019-09"},"persistent_id":"81ff8c2d695cc18696ccf2822a68b69fdeedd908659db07adea22184e922e36d","id":74325418,"location_subtype":"","month":"2019-05"},{"category":"burglary","location_type":"Force","location":{"latitude":"51.590065","street":{"id":977732,"name":"On or near Queen Elizabeth Road"},"longitude":"-0.033623"},"context":"","outcome_status":{"category":"Status update unavailable","date":"2019-09"},"persistent_id":"1d9371250aaba161f5e0e319c86a5384f357a6a3a004c5553b38d6426423c255","id":74305098,"location_subtype":"","month":"2019-05"},{"category":"burglary","location_type":"Force","location":{"latitude":"51.592878","street":{"id":977735,"name":"On or near Papermill Place"},"longitude":"-0.037299"},"context":"","outcome_status":{"category":"Status update unavailable","date":"2019-09"},"persistent_id":"8f7e7a6e795167958873548fcfb2f60e89a1ecd27a20eb233884d3642034a08e","id":74345765,"location_subtype":"","month":"2019-05"},{"category":"burglary","location_type":"Force","location":{"latitude":"51.596481","street":{"id":981930,"name":"On or near Supermarket"},"longitude":"-0.035541"},"context":"","outcome_status":{"category":"Status update unavailable","date":"2019-09"},"persistent_id":"e454e0546b1cb2ddbe9973ec563c6dbe5df03d79fb2b8fcf3f657d7640479cad","id":74368916,"location_subtype":"","month":"2019-05"},{"category":"burglary","location_type":"Force","location":{"latitude":"51.587120","street":{"id":978082,"name":"On or near Shopping Area"},"longitude":"-0.062030"},"context":"","outcome_status":{"category":"Status update unavailable","date":"2019-09"},"persistent_id":"1456f312a90d10738089ad04ad5ce64bf25edd5d1bdd6f084fbdaa9fab10f187","id":74309574,"location_subtype":"","month":"2019-05"},{"category":"burglary","location_type":"Force","location":{"latitude":"51.587022","street":{"id":977810,"name":"On or near Milton Road"},"longitude":"-0.018496"},"context":"","outcome_status":{"category":"Status update unavailable","date":"2019-09"},"persistent_id":"975ffdbff851ed3873f87ebcca3d45e43d40245116e454c084da33f867e53c51","id":74309769,"location_subtype":"","month":"2019-05"},{"category":"burglary","location_type":"Force","location":{"latitude":"51.587281","street":{"id":977773,"name":"On or near Melbourne Road"},"longitude":"-0.031174"},"context":"","outcome_status":{"category":"Status update unavailable","date":"2019-09"},"persistent_id":"3bbe0358d48688bffe7fd37115b8230b918b61f3cabdae621496b572bf978248","id":74345162,"location_subtype":"","month":"2019-05"},{"category":"burglary","location_type":"Force","location":{"latitude":"51.589373","street":{"id":977819,"name":"On or near Jewel Road"},"longitude":"-0.021368"},"context":"","outcome_status":{"category":"Status update unavailable","date":"2019-09"},"persistent_id":"7bfef5c7d8c80d97f6e479ddd96b5a230d87fe518f5a6d46d11d304f4bc28e30","id":74296926,"location_subtype":"","month":"2019-05"},{"category":"burglary","location_type":"Force","location":{"latitude":"51.597414","street":{"id":981929,"name":"On or near Carlton Road"},"longitude":"-0.032714"},"context":"","outcome_status":{"category":"Status update unavailable","date":"2019-09"},"persistent_id":"c21e9fd5f29464f8c9dc6f114457f086cf22f97b0d0aac96cd91244e6e4b6090","id":74293990,"location_subtype":"","month":"2019-05"},{"category":"burglary","location_type":"Force","location":{"latitude":"51.582702","street":{"id":975429,"name":"On or near Station Approach"},"longitude":"-0.019305"},"context":"","outcome_status":{"category":"Status update unavailable","date":"2019-09"},"persistent_id":"6655f4c109e67d0e3d1bcea29a80fd886e431feb36ea25ba7883d993dd87efae","id":74313195,"location_subtype":"","month":"2019-05"},{"category":"burglary","location_type":"Force","location":{"latitude":"51.587390","street":{"id":977764,"name":"On or near Bristol Park Road"},"longitude":"-0.033955"},"context":"","outcome_status":{"category":"Status update unavailable","date":"2019-09"},"persistent_id":"d7c49658aafa4fe2e32e6d44c8dab86a424995b71f293ccdea8dc6d577a0100a","id":74325783,"location_subtype":"","month":"2019-05"},{"category":"burglary","location_type":"Force","location":{"latitude":"51.596548","street":{"id":977908,"name":"On or near Sports\/recreation Area"},"longitude":"-0.051969"},"context":"","outcome_status":{"category":"Status update unavailable","date":"2019-09"},"persistent_id":"bc8fd0c11ba3d67e9dbb8774debdd5bc60409b1761075f0447f9570e7551dc40","id":74359795,"location_subtype":"","month":"2019-05"},{"category":"burglary","location_type":"Force","location":{"latitude":"51.593821","street":{"id":977911,"name":"On or near Park\/open Space"},"longitude":"-0.042600"},"context":"","outcome_status":{"category":"Status update unavailable","date":"2019-09"},"persistent_id":"deb406d712e6ae09d77697504f0c592da8291120499cf6f35ead8eeb3723ed05","id":74293530,"location_subtype":"","month":"2019-05"},{"category":"burglary","location_type":"Force","location":{"latitude":"51.582702","street":{"id":975429,"name":"On or near Station Approach"},"longitude":"-0.019305"},"context":"","outcome_status":{"category":"Investigation complete; no suspect identified","date":"2020-03"},"persistent_id":"f9029cc987f77221ec6eddcc0538b069e78104cb8628623543e000944f03152a","id":74320147,"location_subtype":"","month":"2019-05"},{"category":"burglary","location_type":"Force","location":{"latitude":"51.576596","street":{"id":975396,"name":"On or near Chelmsford Road"},"longitude":"-0.022514"},"context":"","outcome_status":{"category":"Court result unavailable","date":"2019-12"},"persistent_id":"da4d002e9ca8b508edcad34c237244a47912af874faeb35886cf695cdc161277","id":74332471,"location_subtype":"","month":"2019-05"},{"category":"burglary","location_type":"Force","location":{"latitude":"51.586932","street":{"id":977826,"name":"On or near Hatherley Road"},"longitude":"-0.020622"},"context":"","outcome_status":{"category":"Court result unavailable","date":"2019-11"},"persistent_id":"541cff2752dc1013ec37714d243e220cef777fc9670ad446261b11002c494d4b","id":74349124,"location_subtype":"","month":"2019-05"},{"category":"burglary","location_type":"Force","location":{"latitude":"51.588348","street":{"id":977812,"name":"On or near Melville Road"},"longitude":"-0.024588"},"context":"","outcome_status":{"category":"Status update unavailable","date":"2019-09"},"persistent_id":"c67ede0319d6d08f59b37fcd0985f029d46a96e308c4c48f5dfe792e425ba099","id":74344529,"location_subtype":"","month":"2019-05"},{"category":"burglary","location_type":"Force","location":{"latitude":"51.596481","street":{"id":981930,"name":"On or near Supermarket"},"longitude":"-0.035541"},"context":"","outcome_status":{"category":"Status update unavailable","date":"2019-09"},"persistent_id":"78c6bda82d3ac79023a028007e3475fe623b32daa90cff3ce4aa14ce61c99f9c","id":74368499,"location_subtype":"","month":"2019-05"},{"category":"burglary","location_type":"Force","location":{"latitude":"51.591133","street":{"id":977811,"name":"On or near Mersey Road"},"longitude":"-0.024929"},"context":"","outcome_status":{"category":"Status update unavailable","date":"2019-09"},"persistent_id":"ef8564e7cc75652ccc747611b199bfbeecfcecca4dff8d099cc4aadc2a2baa54","id":74314828,"location_subtype":"","month":"2019-05"},{"category":"burglary","location_type":"Force","location":{"latitude":"51.586414","street":{"id":977827,"name":"On or near Hatherley Mews"},"longitude":"-0.020789"},"context":"","outcome_status":{"category":"Status update unavailable","date":"2019-09"},"persistent_id":"0ec24197b21a62e67d9ee4822301b4a94010909c9e0815d2320d99fd5a48a5bb","id":74314863,"location_subtype":"","month":"2019-05"},{"category":"burglary","location_type":"Force","location":{"latitude":"51.577258","street":{"id":975375,"name":"On or near Kirk Road"},"longitude":"-0.024463"},"context":"","outcome_status":{"category":"Status update unavailable","date":"2019-09"},"persistent_id":"4d941aaac05032b893190fe478115a7bfc00eeb6ee7f4380013b4e546e59c2e3","id":74352769,"location_subtype":"","month":"2019-05"},{"category":"burglary","location_type":"Force","location":{"latitude":"51.582593","street":{"id":975427,"name":"On or near Parking Area"},"longitude":"-0.027263"},"context":"","outcome_status":{"category":"Status update unavailable","date":"2019-09"},"persistent_id":"c598b1d7b9093d4bf3dd3ac17c643a4ebc8262f460e8d00912a83416cd08beb6","id":74291770,"location_subtype":"","month":"2019-05"},{"category":"burglary","location_type":"Force","location":{"latitude":"51.596481","street":{"id":981930,"name":"On or near Supermarket"},"longitude":"-0.035541"},"context":"","outcome_status":{"category":"Status update unavailable","date":"2019-09"},"persistent_id":"b970cd584d0ef84aba166455385f21c3d0079ae4c245d7b5b3014bdbcac84d19","id":74349058,"location_subtype":"","month":"2019-05"},{"category":"burglary","location_type":"Force","location":{"latitude":"51.574145","street":{"id":975336,"name":"On or near Verulam Avenue"},"longitude":"-0.029707"},"context":"","outcome_status":{"category":"Investigation complete; no suspect identified","date":"2020-03"},"persistent_id":"0e7add04fe4201389564af580dc67cff45fb73c3a9a71be1e2d663ad16aee765","id":74330047,"location_subtype":"","month":"2019-05"},{"category":"burglary","location_type":"Force","location":{"latitude":"51.586415","street":{"id":977854,"name":"On or near Cairo Road"},"longitude":"-0.018234"},"context":"","outcome_status":{"category":"Court result unavailable","date":"2019-12"},"persistent_id":"d30e205aed0cad2047b6081fed3978d7f8e89c98c7bd581b6c78f5f97e8eb709","id":74353444,"location_subtype":"","month":"2019-05"},{"category":"burglary","location_type":"Force","location":{"latitude":"51.579984","street":{"id":975414,"name":"On or near Arkley Crescent"},"longitude":"-0.029339"},"context":"","outcome_status":{"category":"Status update unavailable","date":"2019-09"},"persistent_id":"c8f24903d1c3796f518afbd1d293a0ea053bf125a0702d7765a7a88d5def9d56","id":74323897,"location_subtype":"","month":"2019-05"},{"category":"burglary","location_type":"Force","location":{"latitude":"51.588380","street":{"id":977926,"name":"On or near Blackhorse Lane"},"longitude":"-0.039903"},"context":"","outcome_status":{"category":"Status update unavailable","date":"2019-09"},"persistent_id":"e2f464873bf643e05d4bec82c192254728106dd960f5d60fdc16fc0d736e3e0c","id":74326663,"location_subtype":"","month":"2019-05"},{"category":"burglary","location_type":"Force","location":{"latitude":"51.587120","street":{"id":978082,"name":"On or near Shopping Area"},"longitude":"-0.062030"},"context":"","outcome_status":{"category":"Status update unavailable","date":"2019-09"},"persistent_id":"1a74a24640479a80855060bfed6e1e49175da61524f68ee1306920dce739a174","id":74304402,"location_subtype":"","month":"2019-05"},{"category":"burglary","location_type":"Force","location":{"latitude":"51.589061","street":{"id":977857,"name":"On or near Brookdale Road"},"longitude":"-0.023114"},"context":"","outcome_status":{"category":"Status update unavailable","date":"2019-09"},"persistent_id":"97acd2d12be5b122293d23c43f8894cc5c148eb7a82917ca8d81c913d5452304","id":74331618,"location_subtype":"","month":"2019-05"},{"category":"burglary","location_type":"Force","location":{"latitude":"51.586712","street":{"id":977755,"name":"On or near Essex Close"},"longitude":"-0.037492"},"context":"","outcome_status":{"category":"Status update unavailable","date":"2019-09"},"persistent_id":"5d4d9b61bc40fc2c6d53131f125a986a96bfddf64563c94ff1d9ab91ada2d57f","id":74332230,"location_subtype":"","month":"2019-05"},{"category":"burglary","location_type":"Force","location":{"latitude":"51.576216","street":{"id":975367,"name":"On or near Markhouse Road"},"longitude":"-0.029877"},"context":"","outcome_status":{"category":"Status update unavailable","date":"2019-09"},"persistent_id":"e24968f950b91c67f4e43ad308ef1d99d5592a0d9b19084f7a131f14813ae197","id":74358185,"location_subtype":"","month":"2019-05"},{"category":"criminal-damage-arson","location_type":"Force","location":{"latitude":"51.598897","street":{"id":981904,"name":"On or near Shaw Square"},"longitude":"-0.030513"},"context":"","outcome_status":{"category":"Status update unavailable","date":"2019-09"},"persistent_id":"28c7467f1fd641b3f0de1a78ffea714bd09beca9b31ef7f19aced5986020eab8","id":74314489,"location_subtype":"","month":"2019-05"},{"category":"criminal-damage-arson","location_type":"Force","location":{"latitude":"51.589944","street":{"id":977824,"name":"On or near Hawthorne Road"},"longitude":"-0.018961"},"context":"","outcome_status":{"category":"Status update unavailable","date":"2019-09"},"persistent_id":"f38bf54c7f7db5fef953e8041aebfaddc56dc2a3937e16bf4b8baf8bf7f4b1ff","id":74305322,"location_subtype":"","month":"2019-05"},{"category":"criminal-damage-arson","location_type":"Force","location":{"latitude":"51.584654","street":{"id":977887,"name":"On or near Pretoria Avenue"},"longitude":"-0.034896"},"context":"","outcome_status":{"category":"Offender given a caution","date":"2019-05"},"persistent_id":"61779a45076c4e408a0f414cd564bf7ac06f03c849e6c79efaf4830c8b1e0f10","id":74371473,"location_subtype":"","month":"2019-05"},{"category":"criminal-damage-arson","location_type":"Force","location":{"latitude":"51.587120","street":{"id":978082,"name":"On or near Shopping Area"},"longitude":"-0.062030"},"context":"","outcome_status":{"category":"Status update unavailable","date":"2019-09"},"persistent_id":"cd055da39969e1eba1aaa481f1dec44a1a501ce61421c77e302be4da7aa91d81","id":74307549,"location_subtype":"","month":"2019-05"},{"category":"criminal-damage-arson","location_type":"Force","location":{"latitude":"51.585144","street":{"id":977821,"name":"On or near Hoe Street"},"longitude":"-0.019646"},"context":"","outcome_status":{"category":"Investigation complete; no suspect identified","date":"2020-03"},"persistent_id":"6e6264435c890f0c4bfd57651306092df7ad72217322d6e737ad26e713f7697d","id":74311687,"location_subtype":"","month":"2019-05"},{"category":"criminal-damage-arson","location_type":"BTP","location":{"latitude":"51.588638","street":{"id":1489999,"name":"Tottenham Hale (station)"},"longitude":"-0.060276"},"context":"","outcome_status":{"category":"Status update unavailable","date":"2019-09"},"persistent_id":"","id":88718947,"location_subtype":"STATION","month":"2019-05"},{"category":"criminal-damage-arson","location_type":"Force","location":{"latitude":"51.594379","street":{"id":977900,"name":"On or near Pedestrian Subway"},"longitude":"-0.057245"},"context":"","outcome_status":{"category":"Status update unavailable","date":"2019-09"},"persistent_id":"60dda37dbcb6161b02bf7bf24c0d87a11e6e42b08cc73135a98e4167c03db2b7","id":74324493,"location_subtype":"","month":"2019-05"},{"category":"criminal-damage-arson","location_type":"Force","location":{"latitude":"51.596918","street":{"id":981928,"name":"On or near Hecham Close"},"longitude":"-0.035825"},"context":"","outcome_status":{"category":"Status update unavailable","date":"2019-09"},"persistent_id":"5e0a6328f07398ff30c7d1cd78fbb37ac34768ac61286cdc1d4ea799e235b8bf","id":74319710,"location_subtype":"","month":"2019-05"},{"category":"criminal-damage-arson","location_type":"Force","location":{"latitude":"51.582034","street":{"id":975475,"name":"On or near Shopping Area"},"longitude":"-0.032570"},"context":"","outcome_status":{"category":"Status update unavailable","date":"2019-09"},"persistent_id":"bc7866f5b504a9707763e43094b6a806c30203be3db0c1278393ada6da2a02c2","id":74304899,"location_subtype":"","month":"2019-05"},{"category":"criminal-damage-arson","location_type":"Force","location":{"latitude":"51.583173","street":{"id":977879,"name":"On or near Hoe Street"},"longitude":"-0.018490"},"context":"","outcome_status":{"category":"Status update unavailable","date":"2019-09"},"persistent_id":"51a36bb3b67d1cb47333823ccd77c538fba23f9eb97e952279a834ef5cd68beb","id":74304652,"location_subtype":"","month":"2019-05"},{"category":"criminal-damage-arson","location_type":"Force","location":{"latitude":"51.578985","street":{"id":975377,"name":"On or near Hove Avenue"},"longitude":"-0.028761"},"context":"","outcome_status":{"category":"Status update unavailable","date":"2019-09"},"persistent_id":"d873f35713f9674fceb671f456a35c407283b6857b4ab8d201af47424c6e3ef0","id":74333580,"location_subtype":"","month":"2019-05"},{"category":"criminal-damage-arson","location_type":"Force","location":{"latitude":"51.587120","street":{"id":978082,"name":"On or near Shopping Area"},"longitude":"-0.062030"},"context":"","outcome_status":{"category":"Status update unavailable","date":"2019-09"},"persistent_id":"7bc740fbb86615496bf9ad736f6001774bc6a72678208946c8e1d2ca2aa135f2","id":74326835,"location_subtype":"","month":"2019-05"},{"category":"criminal-damage-arson","location_type":"Force","location":{"latitude":"51.587023","street":{"id":977904,"name":"On or near Forest Road"},"longitude":"-0.053473"},"context":"","outcome_status":{"category":"Status update unavailable","date":"2019-09"},"persistent_id":"7b4ba064fa1c1eae9da0845439f1f5d9736eecc98c212ab4527982f4dac7d280","id":74336268,"location_subtype":"","month":"2019-05"},{"category":"criminal-damage-arson","location_type":"Force","location":{"latitude":"51.595121","street":{"id":977749,"name":"On or near Higham Hill Road"},"longitude":"-0.034863"},"context":"","outcome_status":{"category":"Status update unavailable","date":"2019-09"},"persistent_id":"050588a60bb5359ac1819bbee7a6e6aa1052e335ff604fc0b413f10c2e847523","id":74342966,"location_subtype":"","month":"2019-05"},{"category":"criminal-damage-arson","location_type":"Force","location":{"latitude":"51.590961","street":{"id":977860,"name":"On or near Bemsted Road"},"longitude":"-0.025976"},"context":"","outcome_status":{"category":"Status update unavailable","date":"2019-09"},"persistent_id":"1cb9413728b679d35ee5af7aa2c7b4e406be948724a383e274bd052016364513","id":74344244,"location_subtype":"","month":"2019-05"},{"category":"criminal-damage-arson","location_type":"Force","location":{"latitude":"51.587575","street":{"id":977618,"name":"On or near Aubrey Road"},"longitude":"-0.016610"},"context":"","outcome_status":{"category":"Status update unavailable","date":"2019-09"},"persistent_id":"089c709c85128145a9cfb1c7750524d7af7ef8fd1a7815547436f324b119426a","id":74298682,"location_subtype":"","month":"2019-05"},{"category":"criminal-damage-arson","location_type":"Force","location":{"latitude":"51.589673","street":{"id":977864,"name":"On or near Police Station"},"longitude":"-0.025830"},"context":"","outcome_status":{"category":"Status update unavailable","date":"2019-09"},"persistent_id":"e1c8119b092a13b25b59a994d16681230ae81e3cbbbba092e7b93e2d167a12ac","id":74297910,"location_subtype":"","month":"2019-05"},{"category":"criminal-damage-arson","location_type":"Force","location":{"latitude":"51.586414","street":{"id":977827,"name":"On or near Hatherley Mews"},"longitude":"-0.020789"},"context":"","outcome_status":{"category":"Status update unavailable","date":"2019-09"},"persistent_id":"12daafff08fe4881142e6d653411455c61f52e2fc4daffa3d98304f0c6c01bc4","id":74345992,"location_subtype":"","month":"2019-05"},{"category":"criminal-damage-arson","location_type":"Force","location":{"latitude":"51.594439","street":{"id":977851,"name":"On or near Carr Road"},"longitude":"-0.023183"},"context":"","outcome_status":{"category":"Status update unavailable","date":"2019-09"},"persistent_id":"5def334e41545bd8da37938a6ebe76f1dd02dc7b4681380c2fc0c94a1912d8ca","id":74355454,"location_subtype":"","month":"2019-05"},{"category":"criminal-damage-arson","location_type":"Force","location":{"latitude":"51.583180","street":{"id":975314,"name":"On or near Newman Road"},"longitude":"-0.038713"},"context":"","outcome_status":{"category":"Status update unavailable","date":"2019-09"},"persistent_id":"6c58dad8d5d5bb54461c0da9ca6ba8734b73baf5bd40751b23dcd62daedf3c3a","id":74347845,"location_subtype":"","month":"2019-05"},{"category":"criminal-damage-arson","location_type":"Force","location":{"latitude":"51.598634","street":{"id":981903,"name":"On or near Fair View Close"},"longitude":"-0.033628"},"context":"","outcome_status":{"category":"Investigation complete; no suspect identified","date":"2020-03"},"persistent_id":"f7c805c2abbb0078e6388bb555958bc893d95de017a70ff9a1c6a8942541e935","id":74348811,"location_subtype":"","month":"2019-05"},{"category":"criminal-damage-arson","location_type":"Force","location":{"latitude":"51.585144","street":{"id":977821,"name":"On or near Hoe Street"},"longitude":"-0.019646"},"context":"","outcome_status":{"category":"Status update unavailable","date":"2019-09"},"persistent_id":"6222e601b61a6b2e40dc4da769d4331d93d012744cfb1da037ac4b58445cbb8b","id":74319513,"location_subtype":"","month":"2019-05"},{"category":"criminal-damage-arson","location_type":"Force","location":{"latitude":"51.600025","street":{"id":981780,"name":"On or near Travers Close"},"longitude":"-0.040961"},"context":"","outcome_status":{"category":"Status update unavailable","date":"2019-09"},"persistent_id":"4df2f8f0234cc871ae7764c7504f239419899afb699787f552ffa0471e8e4cd1","id":74348896,"location_subtype":"","month":"2019-05"},{"category":"criminal-damage-arson","location_type":"Force","location":{"latitude":"51.600150","street":{"id":981918,"name":"On or near Lawrence Avenue"},"longitude":"-0.037115"},"context":"","outcome_status":{"category":"Investigation complete; no suspect identified","date":"2020-03"},"persistent_id":"77f826cdbf5081236e2dbdef10b22fcea2e2fd2ea4ceb5bb7e9a7df2724b01f8","id":74350355,"location_subtype":"","month":"2019-05"},{"category":"criminal-damage-arson","location_type":"Force","location":{"latitude":"51.584194","street":{"id":977871,"name":"On or near Tower Mews"},"longitude":"-0.019803"},"context":"","outcome_status":{"category":"Status update unavailable","date":"2019-09"},"persistent_id":"3d1f80c79791bfffdfa3c071ee89bf8985d51e611790f493b4078f90dda36f78","id":74350976,"location_subtype":"","month":"2019-05"},{"category":"criminal-damage-arson","location_type":"Force","location":{"latitude":"51.580646","street":{"id":975462,"name":"On or near Leucha Road"},"longitude":"-0.035589"},"context":"","outcome_status":{"category":"Status update unavailable","date":"2019-09"},"persistent_id":"08c0efb5acc142d0052133819d0e6aa2b9888f5c198eda240fc09532611a0fdb","id":74351012,"location_subtype":"","month":"2019-05"},{"category":"criminal-damage-arson","location_type":"Force","location":{"latitude":"51.584361","street":{"id":977874,"name":"On or near Stainforth Road"},"longitude":"-0.017962"},"context":"","outcome_status":{"category":"Status update unavailable","date":"2019-09"},"persistent_id":"c376c8a4ca8aa194307a047f73a3d1977043ed767b0c4bc110087f38146c9d2a","id":74355456,"location_subtype":"","month":"2019-05"},{"category":"criminal-damage-arson","location_type":"Force","location":{"latitude":"51.589673","street":{"id":977864,"name":"On or near Police Station"},"longitude":"-0.025830"},"context":"","outcome_status":{"category":"Investigation complete; no suspect identified","date":"2020-03"},"persistent_id":"12f401cc5eee77a97a882c616547775d2ca4b5452ba2876bff35e3b5f21eab90","id":74329748,"location_subtype":"","month":"2019-05"},{"category":"criminal-damage-arson","location_type":"Force","location":{"latitude":"51.589944","street":{"id":977824,"name":"On or near Hawthorne Road"},"longitude":"-0.018961"},"context":"","outcome_status":{"category":"Investigation complete; no suspect identified","date":"2020-03"},"persistent_id":"e6465bc1b99662be25dbeb34c89fd8bccf171623693d2e21911cda5a5eba70b0","id":74299073,"location_subtype":"","month":"2019-05"},{"category":"criminal-damage-arson","location_type":"Force","location":{"latitude":"51.585740","street":{"id":977841,"name":"On or near Eastfield Road"},"longitude":"-0.018725"},"context":"","outcome_status":{"category":"Investigation complete; no suspect identified","date":"2020-03"},"persistent_id":"9e24a52b584807d7c747829aa5510e2a9432b5f069e6dbe958021c4dd13bae6b","id":74344648,"location_subtype":"","month":"2019-05"},{"category":"criminal-damage-arson","location_type":"Force","location":{"latitude":"51.589673","street":{"id":977864,"name":"On or near Police Station"},"longitude":"-0.025830"},"context":"","outcome_status":{"category":"Investigation complete; no suspect identified","date":"2020-07"},"persistent_id":"caec2197c105a4a8ba043dbd9741f4696d9e0b0836d8ae443f2adda6c675fb17","id":74352373,"location_subtype":"","month":"2019-05"},{"category":"criminal-damage-arson","location_type":"Force","location":{"latitude":"51.584582","street":{"id":977709,"name":"On or near West Avenue Road"},"longitude":"-0.016726"},"context":"","outcome_status":{"category":"Status update unavailable","date":"2019-09"},"persistent_id":"39993ae1d687088b724d70ee0c60c82450b8dc4e953062123b1c7820ea7f8138","id":74353232,"location_subtype":"","month":"2019-05"},{"category":"criminal-damage-arson","location_type":"Force","location":{"latitude":"51.575330","street":{"id":975369,"name":"On or near Longfellow Road"},"longitude":"-0.025845"},"context":"","outcome_status":{"category":"Investigation complete; no suspect identified","date":"2020-03"},"persistent_id":"5d8c1fc796e97c7b0eae6dfd7dbf55cf58ba2f29a079c9964c69395229e5cd46","id":74302211,"location_subtype":"","month":"2019-05"},{"category":"criminal-damage-arson","location_type":"Force","location":{"latitude":"51.594720","street":{"id":977802,"name":"On or near Phoenix Close"},"longitude":"-0.026521"},"context":"","outcome_status":{"category":"Status update unavailable","date":"2019-09"},"persistent_id":"1b5aa05b4a92e4b7a47a14b351f98bb98f6a875d6adecbf3b579e0d7f3a77085","id":74308971,"location_subtype":"","month":"2019-05"},{"category":"drugs","location_type":"BTP","location":{"latitude":"51.582816","street":{"id":1490403,"name":"Walthamstow Central (lu Station)"},"longitude":"-0.019069"},"context":"","outcome_status":{"category":"Status update unavailable","date":"2019-09"},"persistent_id":"","id":88721873,"location_subtype":"LU STATION","month":"2019-05"},{"category":"drugs","location_type":"Force","location":{"latitude":"51.574754","street":{"id":975441,"name":"On or near Luther King Close"},"longitude":"-0.031701"},"context":"","outcome_status":{"category":"Court result unavailable","date":"2019-11"},"persistent_id":"a43b5fdf446672c3257e43da5a6488e4ef5544e59ee04e2fb505131d50746c0e","id":74345085,"location_subtype":"","month":"2019-05"},{"category":"drugs","location_type":"Force","location":{"latitude":"51.592026","street":{"id":977776,"name":"On or near Green Pond Close"},"longitude":"-0.030998"},"context":"","outcome_status":{"category":"Local resolution","date":"2019-05"},"persistent_id":"3bc4663219cf125e2629830dbeaef2e1cc5dc0d70e8d72f1364983271dc3e336","id":74368634,"location_subtype":"","month":"2019-05"},{"category":"drugs","location_type":"Force","location":{"latitude":"51.586932","street":{"id":977826,"name":"On or near Hatherley Road"},"longitude":"-0.020622"},"context":"","outcome_status":{"category":"Local resolution","date":"2019-05"},"persistent_id":"836c2134b158a59f07888dc1d7f41f8aefd546ff1f04afa74f759cba6a35271e","id":74345728,"location_subtype":"","month":"2019-05"},{"category":"drugs","location_type":"Force","location":{"latitude":"51.586932","street":{"id":977826,"name":"On or near Hatherley Road"},"longitude":"-0.020622"},"context":"","outcome_status":{"category":"Court result unavailable","date":"2019-11"},"persistent_id":"3bbe4cd902405ebe28fe2b500ad1c2ea37a0f089abef88f918e16c34c239e847","id":74356268,"location_subtype":"","month":"2019-05"},{"category":"drugs","location_type":"Force","location":{"latitude":"51.579920","street":{"id":975380,"name":"On or near Gosport Road"},"longitude":"-0.027119"},"context":"","outcome_status":{"category":"Offender given penalty notice","date":"2019-05"},"persistent_id":"47b211940e6e9f66ec43eb27e7c78e64a99746ddbf3f256f44177358ae42e91e","id":74319160,"location_subtype":"","month":"2019-05"},{"category":"drugs","location_type":"Force","location":{"latitude":"51.588380","street":{"id":977926,"name":"On or near Blackhorse Lane"},"longitude":"-0.039903"},"context":"","outcome_status":{"category":"Offender fined","date":"2019-05"},"persistent_id":"70c6e1fb05b7fb5b93012a049a80fb127eab8d22104b8bf810edb26d667ae7e8","id":74316378,"location_subtype":"","month":"2019-05"},{"category":"drugs","location_type":"Force","location":{"latitude":"51.589510","street":{"id":977919,"name":"On or near Hooker's Road"},"longitude":"-0.040793"},"context":"","outcome_status":{"category":"Local resolution","date":"2019-05"},"persistent_id":"98053452fdaaca8b1930b86232a935dde8d265f23ba1b6014019af09663ba957","id":74327420,"location_subtype":"","month":"2019-05"},{"category":"drugs","location_type":"Force","location":{"latitude":"51.583126","street":{"id":977884,"name":"On or near Shopping Area"},"longitude":"-0.022592"},"context":"","outcome_status":{"category":"Court result unavailable","date":"2019-11"},"persistent_id":"c88d43e4ffb839d5c261363726c6d802c8a835e3ebae24f74337ef8b6d73b952","id":74345782,"location_subtype":"","month":"2019-05"},{"category":"drugs","location_type":"Force","location":{"latitude":"51.592220","street":{"id":977752,"name":"On or near Green Pond Road"},"longitude":"-0.031841"},"context":"","outcome_status":{"category":"Offender given conditional discharge","date":"2019-05"},"persistent_id":"20686e8de95e6abcab2325a67ff4d5496f39a40b9a9ae2bbee20f395b54116c6","id":74345317,"location_subtype":"","month":"2019-05"},{"category":"drugs","location_type":"Force","location":{"latitude":"51.594130","street":{"id":977921,"name":"On or near Goldsmith Road"},"longitude":"-0.038515"},"context":"","outcome_status":{"category":"Local resolution","date":"2019-09"},"persistent_id":"d2c66b1b0617f544632af9abeed1b292949d4036ad0286b73b60b9514ee173ae","id":74320035,"location_subtype":"","month":"2019-05"},{"category":"drugs","location_type":"Force","location":{"latitude":"51.592803","street":{"id":977913,"name":"On or near Uplands Avenue"},"longitude":"-0.040334"},"context":"","outcome_status":{"category":"Local resolution","date":"2019-05"},"persistent_id":"cae915d8d2cabe4ce82152049d6d0dfd5bd264a2f531f28049ced81f8330f85d","id":74348387,"location_subtype":"","month":"2019-05"},{"category":"drugs","location_type":"Force","location":{"latitude":"51.584194","street":{"id":977871,"name":"On or near Tower Mews"},"longitude":"-0.019803"},"context":"","outcome_status":{"category":"Local resolution","date":"2019-05"},"persistent_id":"a47e37b0bd72b172e5b241371ee9f20deb5a27db5b30d5969a7683be8e436457","id":74326461,"location_subtype":"","month":"2019-05"},{"category":"drugs","location_type":"Force","location":{"latitude":"51.587933","street":{"id":977799,"name":"On or near Richards Place"},"longitude":"-0.020218"},"context":"","outcome_status":{"category":"Local resolution","date":"2019-05"},"persistent_id":"309111df76d7140d640fec3b0b40e30ac44af332c8e43f8a33337cb586bc3940","id":74332891,"location_subtype":"","month":"2019-05"},{"category":"drugs","location_type":"Force","location":{"latitude":"51.581415","street":{"id":975432,"name":"On or near Pedestrian Subway"},"longitude":"-0.031543"},"context":"","outcome_status":{"category":"Local resolution","date":"2019-05"},"persistent_id":"261482dd11138eeed35a01571794d5c157693713afa75bd8df91efc5228489de","id":74312166,"location_subtype":"","month":"2019-05"},{"category":"drugs","location_type":"Force","location":{"latitude":"51.584868","street":{"id":977830,"name":"On or near Gillards Mews"},"longitude":"-0.022458"},"context":"","outcome_status":{"category":"Offender given a drugs possession warning","date":"2019-05"},"persistent_id":"0395f636bb17d5ed83854af5d0becd7d07c16b817aacaf144978699c3c801ae0","id":74363603,"location_subtype":"","month":"2019-05"},{"category":"drugs","location_type":"Force","location":{"latitude":"51.585242","street":{"id":977806,"name":"On or near Palmerston Road"},"longitude":"-0.029169"},"context":"","outcome_status":{"category":"Court result unavailable","date":"2020-01"},"persistent_id":"a52a8891e71b06a6cc00816162d73949a47ff35fb30162270043108fb648f525","id":74326316,"location_subtype":"","month":"2019-05"},{"category":"drugs","location_type":"Force","location":{"latitude":"51.583138","street":{"id":977893,"name":"On or near Carisbrooke Road"},"longitude":"-0.032926"},"context":"","outcome_status":{"category":"Offender given penalty notice","date":"2019-05"},"persistent_id":"3c25421d43fba6231abca8fbd74d5e471211771a7b59888de322baa18de10d5a","id":74336420,"location_subtype":"","month":"2019-05"},{"category":"drugs","location_type":"Force","location":{"latitude":"51.587718","street":{"id":977846,"name":"On or near Coleridge Road"},"longitude":"-0.028282"},"context":"","outcome_status":{"category":"Investigation complete; no suspect identified","date":"2020-03"},"persistent_id":"a7d7b25c00e6fa53db08b1e86cab29244fb18ad5b831458d81e5414dfac2d2e2","id":74290710,"location_subtype":"","month":"2019-05"},{"category":"drugs","location_type":"Force","location":{"latitude":"51.584868","street":{"id":977830,"name":"On or near Gillards Mews"},"longitude":"-0.022458"},"context":"","outcome_status":{"category":"Local resolution","date":"2019-05"},"persistent_id":"3eeb324777b7a21080b4ea4e79d5b8045f1ec743cd01242af45204388457f674","id":74365250,"location_subtype":"","month":"2019-05"},{"category":"drugs","location_type":"Force","location":{"latitude":"51.582698","street":{"id":975430,"name":"On or near Selborne Road"},"longitude":"-0.023375"},"context":"","outcome_status":{"category":"Offender given penalty notice","date":"2019-05"},"persistent_id":"7d6dd4c98b3c80d4219c06295207e24d20ac04fa1a8fbcba1fb66d6c78c6726c","id":74352813,"location_subtype":"","month":"2019-05"},{"category":"drugs","location_type":"Force","location":{"latitude":"51.590987","street":{"id":977898,"name":"On or near Parking Area"},"longitude":"-0.019479"},"context":"","outcome_status":{"category":"Local resolution","date":"2019-05"},"persistent_id":"e381c131632aca0c3a0318e92fa619e2e2110447ed6d31e92906ef4c15f22f2a","id":74325604,"location_subtype":"","month":"2019-05"},{"category":"drugs","location_type":"Force","location":{"latitude":"51.589403","street":{"id":923742,"name":"On or near Petrol Station"},"longitude":"-0.027949"},"context":"","outcome_status":{"category":"Local resolution","date":"2019-05"},"persistent_id":"a97d96002d648867e66224a4fe49d75572fee4e70bf1a05aa5ec86fecdc1ff6f","id":74330203,"location_subtype":"","month":"2019-05"},{"category":"drugs","location_type":"Force","location":{"latitude":"51.592803","street":{"id":977913,"name":"On or near Uplands Avenue"},"longitude":"-0.040334"},"context":"","outcome_status":{"category":"Offender given penalty notice","date":"2019-05"},"persistent_id":"63685f9e356b93b0a442a670b7af9495190c0d9266303589adc2523b568d8d03","id":74334916,"location_subtype":"","month":"2019-05"},{"category":"drugs","location_type":"Force","location":{"latitude":"51.579977","street":{"id":975368,"name":"On or near Lorne Road"},"longitude":"-0.022512"},"context":"","outcome_status":{"category":"Local resolution","date":"2019-06"},"persistent_id":"6a178321d157ca59ca0e4a27370c0641a48befbcbd5267aaf7d8c7bf70c96008","id":74321851,"location_subtype":"","month":"2019-05"},{"category":"drugs","location_type":"Force","location":{"latitude":"51.583639","street":{"id":977882,"name":"On or near Bus\/coach Station"},"longitude":"-0.020491"},"context":"","outcome_status":{"category":"Local resolution","date":"2019-05"},"persistent_id":"bc51824c49ceda1811c019180129b6e7275b719700377bf845fc3a7a7005bd64","id":74347606,"location_subtype":"","month":"2019-05"},{"category":"drugs","location_type":"Force","location":{"latitude":"51.580666","street":{"id":975346,"name":"On or near South Grove"},"longitude":"-0.029251"},"context":"","outcome_status":{"category":"Offender given penalty notice","date":"2019-05"},"persistent_id":"660dff98357bf026b91dc1954d968a741e49ae6baec7add01bf2eeb34fd860fb","id":74335006,"location_subtype":"","month":"2019-05"},{"category":"drugs","location_type":"Force","location":{"latitude":"51.590195","street":{"id":977775,"name":"On or near Higham Hill Road"},"longitude":"-0.031235"},"context":"","outcome_status":{"category":"Court result unavailable","date":"2019-12"},"persistent_id":"7d1b9cc698b7b759ed7d53cb786e93f0f6943ec046f320494c96c37f8c92ef7b","id":74330440,"location_subtype":"","month":"2019-05"},{"category":"drugs","location_type":"Force","location":{"latitude":"51.587150","street":{"id":977736,"name":"On or near Orchard Street"},"longitude":"-0.035698"},"context":"","outcome_status":{"category":"Local resolution","date":"2019-05"},"persistent_id":"5e4597ee25052a380a8c5ba31834f3f2cc9014cd610c51decf47b9824869e6d3","id":74336425,"location_subtype":"","month":"2019-05"},{"category":"drugs","location_type":"Force","location":{"latitude":"51.583639","street":{"id":977882,"name":"On or near Bus\/coach Station"},"longitude":"-0.020491"},"context":"","outcome_status":{"category":"Status update unavailable","date":"2019-09"},"persistent_id":"2bf41ea736cc7713615558a05a4f75727375be4a0969642a63196d033f90a6b0","id":74343455,"location_subtype":"","month":"2019-05"},{"category":"drugs","location_type":"Force","location":{"latitude":"51.599743","street":{"id":981917,"name":"On or near Mcentee Avenue"},"longitude":"-0.035385"},"context":"","outcome_status":{"category":"Local resolution","date":"2019-05"},"persistent_id":"e77d5e56cc3f34a30f9f42d05c66675407001e380d293da255e9b5e96de500b7","id":74336576,"location_subtype":"","month":"2019-05"},{"category":"drugs","location_type":"Force","location":{"latitude":"51.592910","street":{"id":977784,"name":"On or near Park\/open Space"},"longitude":"-0.021012"},"context":"","outcome_status":{"category":"Local resolution","date":"2019-05"},"persistent_id":"ef2e3a81900c23fdddc227d4ab301bda687e0d67c40eeac6d09642ce3df4f2ef","id":74369647,"location_subtype":"","month":"2019-05"},{"category":"drugs","location_type":"Force","location":{"latitude":"51.576796","street":{"id":975446,"name":"On or near Albany Road"},"longitude":"-0.031728"},"context":"","outcome_status":{"category":"Status update unavailable","date":"2019-09"},"persistent_id":"425b521894a77649cccf33b7863d35b7f6f829b33d1eee06718712a62500f087","id":74348600,"location_subtype":"","month":"2019-05"},{"category":"drugs","location_type":"Force","location":{"latitude":"51.579155","street":{"id":975435,"name":"On or near The Crescent"},"longitude":"-0.031929"},"context":"","outcome_status":{"category":"Court result unavailable","date":"2019-12"},"persistent_id":"a6ea27516563387f0a3a44f2e01070a49ca90e9a19155d56943fecc7bae8c9da","id":74327895,"location_subtype":"","month":"2019-05"},{"category":"drugs","location_type":"Force","location":{"latitude":"51.592910","street":{"id":977784,"name":"On or near Park\/open Space"},"longitude":"-0.021012"},"context":"","outcome_status":{"category":"Local resolution","date":"2020-03"},"persistent_id":"ea065436a4e9e74faf8d67e2bbcd35b70a5c906d0cbaa8dfe775c8c36aab406c","id":74306368,"location_subtype":"","month":"2019-05"},{"category":"drugs","location_type":"Force","location":{"latitude":"51.592910","street":{"id":977784,"name":"On or near Park\/open Space"},"longitude":"-0.021012"},"context":"","outcome_status":{"category":"Local resolution","date":"2019-06"},"persistent_id":"de5f09d94e497f682b6c0e33a83b7a0c3614f52622f2d5fb548e289b08dd9ed7","id":74306656,"location_subtype":"","month":"2019-05"},{"category":"drugs","location_type":"Force","location":{"latitude":"51.576332","street":{"id":975443,"name":"On or near Downsfield Road"},"longitude":"-0.031431"},