[{"category":"anti-social-behaviour","location_type":"Force","location":{"latitude":"51.610464","street":{"id":981390,"name":"On or near Grenoble Gardens"},"longitude":"-0.106083"},"context":"","outcome_status":null,"persistent_id":"","id":74285618,"location_subtype":"","month":"2019-05"},{"category":"anti-social-behaviour","location_type":"Force","location":{"latitude":"51.611194","street":{"id":983971,"name":"On or near Fairbrook Road"},"longitude":"-0.105605"},"context":"","outcome_status":null,"persistent_id":"","id":74285613,"location_subtype":"","month":"2019-05"},{"category":"anti-social-behaviour","location_type":"Force","location":{"latitude":"51.618136","street":{"id":983948,"name":"On or near Lodge Drive"},"longitude":"-0.106154"},"context":"","outcome_status":null,"persistent_id":"","id":74285612,"location_subtype":"","month":"2019-05"},{"category":"anti-social-behaviour","location_type":"Force","location":{"latitude":"51.618136","street":{"id":983948,"name":"On or near Lodge Drive"},"longitude":"-0.106154"},"context":"","outcome_status":null,"persistent_id":"","id":74285611,"location_subtype":"","month":"2019-05"},{"category":"anti-social-behaviour","location_type":"Force","location":{"latitude":"51.609783","street":{"id":981380,"name":"On or near Medesenge Way"},"longitude":"-0.101230"},"context":"","outcome_status":null,"persistent_id":"","id":74285603,"location_subtype":"","month":"2019-05"},{"category":"anti-social-behaviour","location_type":"Force","location":{"latitude":"51.612177","street":{"id":983773,"name":"On or near Beale Close"},"longitude":"-0.098025"},"context":"","outcome_status":null,"persistent_id":"","id":74285591,"location_subtype":"","month":"2019-05"},{"category":"anti-social-behaviour","location_type":"Force","location":{"latitude":"51.612177","street":{"id":983773,"name":"On or near Beale Close"},"longitude":"-0.098025"},"context":"","outcome_status":null,"persistent_id":"","id":74285590,"location_subtype":"","month":"2019-05"},{"category":"anti-social-behaviour","location_type":"Force","location":{"latitude":"51.609958","street":{"id":981589,"name":"On or near Godolphin Close"},"longitude":"-0.099229"},"context":"","outcome_status":null,"persistent_id":"","id":74285595,"location_subtype":"","month":"2019-05"},{"category":"anti-social-behaviour","location_type":"Force","location":{"latitude":"51.609958","street":{"id":981589,"name":"On or near Godolphin Close"},"longitude":"-0.099229"},"context":"","outcome_status":null,"persistent_id":"","id":74285593,"location_subtype":"","month":"2019-05"},{"category":"anti-social-behaviour","location_type":"Force","location":{"latitude":"51.609958","street":{"id":981589,"name":"On or near Godolphin Close"},"longitude":"-0.099229"},"context":"","outcome_status":null,"persistent_id":"","id":74285594,"location_subtype":"","month":"2019-05"},{"category":"anti-social-behaviour","location_type":"Force","location":{"latitude":"51.609783","street":{"id":981380,"name":"On or near Medesenge Way"},"longitude":"-0.101230"},"context":"","outcome_status":null,"persistent_id":"","id":74285602,"location_subtype":"","month":"2019-05"},{"category":"anti-social-behaviour","location_type":"Force","location":{"latitude":"51.596663","street":{"id":978345,"name":"On or near Redvers Road"},"longitude":"-0.107899"},"context":"","outcome_status":null,"persistent_id":"","id":74280611,"location_subtype":"","month":"2019-05"},{"category":"anti-social-behaviour","location_type":"Force","location":{"latitude":"51.600453","street":{"id":981351,"name":"On or near Williams Grove"},"longitude":"-0.108175"},"context":"","outcome_status":null,"persistent_id":"","id":74280614,"location_subtype":"","month":"2019-05"},{"category":"anti-social-behaviour","location_type":"Force","location":{"latitude":"51.600453","street":{"id":981351,"name":"On or near Williams Grove"},"longitude":"-0.108175"},"context":"","outcome_status":null,"persistent_id":"","id":74280615,"location_subtype":"","month":"2019-05"},{"category":"anti-social-behaviour","location_type":"Force","location":{"latitude":"51.596663","street":{"id":978345,"name":"On or near Redvers Road"},"longitude":"-0.107899"},"context":"","outcome_status":null,"persistent_id":"","id":74280618,"location_subtype":"","month":"2019-05"},{"category":"anti-social-behaviour","location_type":"Force","location":{"latitude":"51.596663","street":{"id":978345,"name":"On or near Redvers Road"},"longitude":"-0.107899"},"context":"","outcome_status":null,"persistent_id":"","id":74280619,"location_subtype":"","month":"2019-05"},{"category":"anti-social-behaviour","location_type":"Force","location":{"latitude":"51.596663","street":{"id":978345,"name":"On or near Redvers Road"},"longitude":"-0.107899"},"context":"","outcome_status":null,"persistent_id":"","id":74280621,"location_subtype":"","month":"2019-05"},{"category":"anti-social-behaviour","location_type":"Force","location":{"latitude":"51.601958","street":{"id":981386,"name":"On or near Highfield Close"},"longitude":"-0.108372"},"context":"","outcome_status":null,"persistent_id":"","id":74280634,"location_subtype":"","month":"2019-05"},{"category":"anti-social-behaviour","location_type":"Force","location":{"latitude":"51.607978","street":{"id":981383,"name":"On or near Lyndhurst Road"},"longitude":"-0.106966"},"context":"","outcome_status":null,"persistent_id":"","id":74280636,"location_subtype":"","month":"2019-05"},{"category":"anti-social-behaviour","location_type":"Force","location":{"latitude":"51.596530","street":{"id":978378,"name":"On or near Buller Road"},"longitude":"-0.108583"},"context":"","outcome_status":null,"persistent_id":"","id":74280637,"location_subtype":"","month":"2019-05"},{"category":"anti-social-behaviour","location_type":"Force","location":{"latitude":"51.596530","street":{"id":978378,"name":"On or near Buller Road"},"longitude":"-0.108583"},"context":"","outcome_status":null,"persistent_id":"","id":74280638,"location_subtype":"","month":"2019-05"},{"category":"anti-social-behaviour","location_type":"Force","location":{"latitude":"51.596530","street":{"id":978378,"name":"On or near Buller Road"},"longitude":"-0.108583"},"context":"","outcome_status":null,"persistent_id":"","id":74280639,"location_subtype":"","month":"2019-05"},{"category":"anti-social-behaviour","location_type":"Force","location":{"latitude":"51.597926","street":{"id":981486,"name":"On or near Berners Road"},"longitude":"-0.109290"},"context":"","outcome_status":null,"persistent_id":"","id":74280640,"location_subtype":"","month":"2019-05"},{"category":"anti-social-behaviour","location_type":"Force","location":{"latitude":"51.597926","street":{"id":981486,"name":"On or near Berners Road"},"longitude":"-0.109290"},"context":"","outcome_status":null,"persistent_id":"","id":74280641,"location_subtype":"","month":"2019-05"},{"category":"anti-social-behaviour","location_type":"Force","location":{"latitude":"51.597926","street":{"id":981486,"name":"On or near Berners Road"},"longitude":"-0.109290"},"context":"","outcome_status":null,"persistent_id":"","id":74280642,"location_subtype":"","month":"2019-05"},{"category":"anti-social-behaviour","location_type":"Force","location":{"latitude":"51.597232","street":{"id":978344,"name":"On or near River Park Road"},"longitude":"-0.111990"},"context":"","outcome_status":null,"persistent_id":"","id":74280650,"location_subtype":"","month":"2019-05"},{"category":"anti-social-behaviour","location_type":"Force","location":{"latitude":"51.597232","street":{"id":978344,"name":"On or near River Park Road"},"longitude":"-0.111990"},"context":"","outcome_status":null,"persistent_id":"","id":74280651,"location_subtype":"","month":"2019-05"},{"category":"anti-social-behaviour","location_type":"Force","location":{"latitude":"51.608113","street":{"id":981412,"name":"On or near Lascott's Road"},"longitude":"-0.112521"},"context":"","outcome_status":null,"persistent_id":"","id":74280654,"location_subtype":"","month":"2019-05"},{"category":"anti-social-behaviour","location_type":"Force","location":{"latitude":"51.605305","street":{"id":981389,"name":"On or near High Road"},"longitude":"-0.111800"},"context":"","outcome_status":null,"persistent_id":"","id":74280656,"location_subtype":"","month":"2019-05"},{"category":"anti-social-behaviour","location_type":"Force","location":{"latitude":"51.605305","street":{"id":981389,"name":"On or near High Road"},"longitude":"-0.111800"},"context":"","outcome_status":null,"persistent_id":"","id":74280657,"location_subtype":"","month":"2019-05"},{"category":"anti-social-behaviour","location_type":"Force","location":{"latitude":"51.605305","street":{"id":981389,"name":"On or near High Road"},"longitude":"-0.111800"},"context":"","outcome_status":null,"persistent_id":"","id":74280658,"location_subtype":"","month":"2019-05"},{"category":"anti-social-behaviour","location_type":"Force","location":{"latitude":"51.605305","street":{"id":981389,"name":"On or near High Road"},"longitude":"-0.111800"},"context":"","outcome_status":null,"persistent_id":"","id":74280659,"location_subtype":"","month":"2019-05"},{"category":"anti-social-behaviour","location_type":"Force","location":{"latitude":"51.605305","street":{"id":981389,"name":"On or near High Road"},"longitude":"-0.111800"},"context":"","outcome_status":null,"persistent_id":"","id":74280660,"location_subtype":"","month":"2019-05"},{"category":"anti-social-behaviour","location_type":"Force","location":{"latitude":"51.599835","street":{"id":981352,"name":"On or near Wallman Place"},"longitude":"-0.112792"},"context":"","outcome_status":null,"persistent_id":"","id":74280661,"location_subtype":"","month":"2019-05"},{"category":"anti-social-behaviour","location_type":"Force","location":{"latitude":"51.599835","street":{"id":981352,"name":"On or near Wallman Place"},"longitude":"-0.112792"},"context":"","outcome_status":null,"persistent_id":"","id":74280662,"location_subtype":"","month":"2019-05"},{"category":"anti-social-behaviour","location_type":"Force","location":{"latitude":"51.599835","street":{"id":981352,"name":"On or near Wallman Place"},"longitude":"-0.112792"},"context":"","outcome_status":null,"persistent_id":"","id":74280663,"location_subtype":"","month":"2019-05"},{"category":"anti-social-behaviour","location_type":"Force","location":{"latitude":"51.599835","street":{"id":981352,"name":"On or near Wallman Place"},"longitude":"-0.112792"},"context":"","outcome_status":null,"persistent_id":"","id":74280664,"location_subtype":"","month":"2019-05"},{"category":"anti-social-behaviour","location_type":"Force","location":{"latitude":"51.597232","street":{"id":978344,"name":"On or near River Park Road"},"longitude":"-0.111990"},"context":"","outcome_status":null,"persistent_id":"","id":74280665,"location_subtype":"","month":"2019-05"},{"category":"anti-social-behaviour","location_type":"Force","location":{"latitude":"51.605305","street":{"id":981389,"name":"On or near High Road"},"longitude":"-0.111800"},"context":"","outcome_status":null,"persistent_id":"","id":74280666,"location_subtype":"","month":"2019-05"},{"category":"anti-social-behaviour","location_type":"Force","location":{"latitude":"51.595933","street":{"id":978349,"name":"On or near Parkland Road"},"longitude":"-0.112275"},"context":"","outcome_status":null,"persistent_id":"","id":74280671,"location_subtype":"","month":"2019-05"},{"category":"anti-social-behaviour","location_type":"Force","location":{"latitude":"51.599835","street":{"id":981352,"name":"On or near Wallman Place"},"longitude":"-0.112792"},"context":"","outcome_status":null,"persistent_id":"","id":74280672,"location_subtype":"","month":"2019-05"},{"category":"anti-social-behaviour","location_type":"Force","location":{"latitude":"51.596199","street":{"id":978272,"name":"On or near Tower Terrace"},"longitude":"-0.113694"},"context":"","outcome_status":null,"persistent_id":"","id":74280673,"location_subtype":"","month":"2019-05"},{"category":"anti-social-behaviour","location_type":"Force","location":{"latitude":"51.607184","street":{"id":981461,"name":"On or near Cheshire Road"},"longitude":"-0.113484"},"context":"","outcome_status":null,"persistent_id":"","id":74280674,"location_subtype":"","month":"2019-05"},{"category":"anti-social-behaviour","location_type":"Force","location":{"latitude":"51.607184","street":{"id":981461,"name":"On or near Cheshire Road"},"longitude":"-0.113484"},"context":"","outcome_status":null,"persistent_id":"","id":74280675,"location_subtype":"","month":"2019-05"},{"category":"anti-social-behaviour","location_type":"Force","location":{"latitude":"51.607184","street":{"id":981461,"name":"On or near Cheshire Road"},"longitude":"-0.113484"},"context":"","outcome_status":null,"persistent_id":"","id":74280676,"location_subtype":"","month":"2019-05"},{"category":"anti-social-behaviour","location_type":"Force","location":{"latitude":"51.602178","street":{"id":981458,"name":"On or near Commerce Road"},"longitude":"-0.114226"},"context":"","outcome_status":null,"persistent_id":"","id":74280680,"location_subtype":"","month":"2019-05"},{"category":"anti-social-behaviour","location_type":"Force","location":{"latitude":"51.598917","street":{"id":981472,"name":"On or near Ranelagh Road"},"longitude":"-0.114982"},"context":"","outcome_status":null,"persistent_id":"","id":74280681,"location_subtype":"","month":"2019-05"},{"category":"anti-social-behaviour","location_type":"Force","location":{"latitude":"51.602178","street":{"id":981458,"name":"On or near Commerce Road"},"longitude":"-0.114226"},"context":"","outcome_status":null,"persistent_id":"","id":74280682,"location_subtype":"","month":"2019-05"},{"category":"anti-social-behaviour","location_type":"Force","location":{"latitude":"51.602178","street":{"id":981458,"name":"On or near Commerce Road"},"longitude":"-0.114226"},"context":"","outcome_status":null,"persistent_id":"","id":74280683,"location_subtype":"","month":"2019-05"},{"category":"anti-social-behaviour","location_type":"Force","location":{"latitude":"51.606235","street":{"id":981437,"name":"On or near Palmerston Road"},"longitude":"-0.114837"},"context":"","outcome_status":null,"persistent_id":"","id":74280686,"location_subtype":"","month":"2019-05"},{"category":"anti-social-behaviour","location_type":"Force","location":{"latitude":"51.595365","street":{"id":978309,"name":"On or near Conference\/exhibition Centre"},"longitude":"-0.116067"},"context":"","outcome_status":null,"persistent_id":"","id":74280690,"location_subtype":"","month":"2019-05"},{"category":"anti-social-behaviour","location_type":"Force","location":{"latitude":"51.603385","street":{"id":981453,"name":"On or near Finsbury Cottages"},"longitude":"-0.117136"},"context":"","outcome_status":null,"persistent_id":"","id":74280692,"location_subtype":"","month":"2019-05"},{"category":"anti-social-behaviour","location_type":"Force","location":{"latitude":"51.606717","street":{"id":981443,"name":"On or near Marlborough Road"},"longitude":"-0.116868"},"context":"","outcome_status":null,"persistent_id":"","id":74280699,"location_subtype":"","month":"2019-05"},{"category":"anti-social-behaviour","location_type":"Force","location":{"latitude":"51.606717","street":{"id":981443,"name":"On or near Marlborough Road"},"longitude":"-0.116868"},"context":"","outcome_status":null,"persistent_id":"","id":74280700,"location_subtype":"","month":"2019-05"},{"category":"anti-social-behaviour","location_type":"Force","location":{"latitude":"51.606717","street":{"id":981443,"name":"On or near Marlborough Road"},"longitude":"-0.116868"},"context":"","outcome_status":null,"persistent_id":"","id":74280701,"location_subtype":"","month":"2019-05"},{"category":"anti-social-behaviour","location_type":"Force","location":{"latitude":"51.606717","street":{"id":981443,"name":"On or near Marlborough Road"},"longitude":"-0.116868"},"context":"","outcome_status":null,"persistent_id":"","id":74280702,"location_subtype":"","month":"2019-05"},{"category":"anti-social-behaviour","location_type":"Force","location":{"latitude":"51.603385","street":{"id":981453,"name":"On or near Finsbury Cottages"},"longitude":"-0.117136"},"context":"","outcome_status":null,"persistent_id":"","id":74280703,"location_subtype":"","month":"2019-05"},{"category":"anti-social-behaviour","location_type":"Force","location":{"latitude":"51.601971","street":{"id":981435,"name":"On or near Partridge Way"},"longitude":"-0.118147"},"context":"","outcome_status":null,"persistent_id":"","id":74280704,"location_subtype":"","month":"2019-05"},{"category":"anti-social-behaviour","location_type":"Force","location":{"latitude":"51.599125","street":{"id":981475,"name":"On or near Dorset Road"},"longitude":"-0.118944"},"context":"","outcome_status":null,"persistent_id":"","id":74280709,"location_subtype":"","month":"2019-05"},{"category":"anti-social-behaviour","location_type":"Force","location":{"latitude":"51.604780","street":{"id":981460,"name":"On or near Clarence Road"},"longitude":"-0.119475"},"context":"","outcome_status":null,"persistent_id":"","id":74280711,"location_subtype":"","month":"2019-05"},{"category":"anti-social-behaviour","location_type":"Force","location":{"latitude":"51.604780","street":{"id":981460,"name":"On or near Clarence Road"},"longitude":"-0.119475"},"context":"","outcome_status":null,"persistent_id":"","id":74280712,"location_subtype":"","month":"2019-05"},{"category":"anti-social-behaviour","location_type":"Force","location":{"latitude":"51.604780","street":{"id":981460,"name":"On or near Clarence Road"},"longitude":"-0.119475"},"context":"","outcome_status":null,"persistent_id":"","id":74280713,"location_subtype":"","month":"2019-05"},{"category":"anti-social-behaviour","location_type":"Force","location":{"latitude":"51.604780","street":{"id":981460,"name":"On or near Clarence Road"},"longitude":"-0.119475"},"context":"","outcome_status":null,"persistent_id":"","id":74280714,"location_subtype":"","month":"2019-05"},{"category":"anti-social-behaviour","location_type":"Force","location":{"latitude":"51.598398","street":{"id":981469,"name":"On or near St Michael's Terrace"},"longitude":"-0.119060"},"context":"","outcome_status":null,"persistent_id":"","id":74280720,"location_subtype":"","month":"2019-05"},{"category":"anti-social-behaviour","location_type":"Force","location":{"latitude":"51.604780","street":{"id":981460,"name":"On or near Clarence Road"},"longitude":"-0.119475"},"context":"","outcome_status":null,"persistent_id":"","id":74280730,"location_subtype":"","month":"2019-05"},{"category":"anti-social-behaviour","location_type":"Force","location":{"latitude":"51.597922","street":{"id":981478,"name":"On or near Bedford Road"},"longitude":"-0.121361"},"context":"","outcome_status":null,"persistent_id":"","id":74280731,"location_subtype":"","month":"2019-05"},{"category":"anti-social-behaviour","location_type":"Force","location":{"latitude":"51.613467","street":{"id":983985,"name":"On or near Upper Park Road"},"longitude":"-0.137518"},"context":"","outcome_status":null,"persistent_id":"","id":74286341,"location_subtype":"","month":"2019-05"},{"category":"anti-social-behaviour","location_type":"Force","location":{"latitude":"51.610919","street":{"id":981326,"name":"On or near Pinkham Way North Circular Road"},"longitude":"-0.136178"},"context":"","outcome_status":null,"persistent_id":"","id":74286340,"location_subtype":"","month":"2019-05"},{"category":"anti-social-behaviour","location_type":"Force","location":{"latitude":"51.616043","street":{"id":983996,"name":"On or near Bowes Road"},"longitude":"-0.134365"},"context":"","outcome_status":null,"persistent_id":"","id":74286332,"location_subtype":"","month":"2019-05"},{"category":"anti-social-behaviour","location_type":"Force","location":{"latitude":"51.612101","street":{"id":984075,"name":"On or near Telford Road North Circular Road"},"longitude":"-0.134165"},"context":"","outcome_status":null,"persistent_id":"","id":74286329,"location_subtype":"","month":"2019-05"},{"category":"anti-social-behaviour","location_type":"Force","location":{"latitude":"51.613344","street":{"id":984030,"name":"On or near Telford Road North Circular Road"},"longitude":"-0.132049"},"context":"","outcome_status":null,"persistent_id":"","id":74286328,"location_subtype":"","month":"2019-05"},{"category":"anti-social-behaviour","location_type":"Force","location":{"latitude":"51.596759","street":{"id":978333,"name":"On or near Vincent Road"},"longitude":"-0.104906"},"context":"","outcome_status":null,"persistent_id":"","id":74280588,"location_subtype":"","month":"2019-05"},{"category":"anti-social-behaviour","location_type":"Force","location":{"latitude":"51.613344","street":{"id":984030,"name":"On or near Telford Road North Circular Road"},"longitude":"-0.132049"},"context":"","outcome_status":null,"persistent_id":"","id":74286327,"location_subtype":"","month":"2019-05"},{"category":"anti-social-behaviour","location_type":"Force","location":{"latitude":"51.614631","street":{"id":984033,"name":"On or near Shakespeare Avenue"},"longitude":"-0.132097"},"context":"","outcome_status":null,"persistent_id":"","id":74286319,"location_subtype":"","month":"2019-05"},{"category":"anti-social-behaviour","location_type":"Force","location":{"latitude":"51.610233","street":{"id":981277,"name":"On or near Tewkesbury Terrace"},"longitude":"-0.130949"},"context":"","outcome_status":null,"persistent_id":"","id":74286317,"location_subtype":"","month":"2019-05"},{"category":"anti-social-behaviour","location_type":"Force","location":{"latitude":"51.613458","street":{"id":984035,"name":"On or near Pevensey Avenue"},"longitude":"-0.129025"},"context":"","outcome_status":null,"persistent_id":"","id":74285683,"location_subtype":"","month":"2019-05"},{"category":"anti-social-behaviour","location_type":"Force","location":{"latitude":"51.610692","street":{"id":981455,"name":"On or near Elvendon Road"},"longitude":"-0.120271"},"context":"","outcome_status":null,"persistent_id":"","id":74285669,"location_subtype":"","month":"2019-05"},{"category":"anti-social-behaviour","location_type":"Force","location":{"latitude":"51.610692","street":{"id":981455,"name":"On or near Elvendon Road"},"longitude":"-0.120271"},"context":"","outcome_status":null,"persistent_id":"","id":74285668,"location_subtype":"","month":"2019-05"},{"category":"anti-social-behaviour","location_type":"Force","location":{"latitude":"51.609746","street":{"id":981462,"name":"On or near Beech Road"},"longitude":"-0.119602"},"context":"","outcome_status":null,"persistent_id":"","id":74285665,"location_subtype":"","month":"2019-05"},{"category":"anti-social-behaviour","location_type":"Force","location":{"latitude":"51.619998","street":{"id":983898,"name":"On or near Alderman's Hill"},"longitude":"-0.116838"},"context":"","outcome_status":null,"persistent_id":"","id":74285662,"location_subtype":"","month":"2019-05"},{"category":"anti-social-behaviour","location_type":"Force","location":{"latitude":"51.607771","street":{"id":981444,"name":"On or near Manor Road"},"longitude":"-0.117547"},"context":"","outcome_status":null,"persistent_id":"","id":74285660,"location_subtype":"","month":"2019-05"},{"category":"anti-social-behaviour","location_type":"Force","location":{"latitude":"51.607771","street":{"id":981444,"name":"On or near Manor Road"},"longitude":"-0.117547"},"context":"","outcome_status":null,"persistent_id":"","id":74285659,"location_subtype":"","month":"2019-05"},{"category":"anti-social-behaviour","location_type":"Force","location":{"latitude":"51.619998","street":{"id":983898,"name":"On or near Alderman's Hill"},"longitude":"-0.116838"},"context":"","outcome_status":null,"persistent_id":"","id":74285655,"location_subtype":"","month":"2019-05"},{"category":"anti-social-behaviour","location_type":"Force","location":{"latitude":"51.619998","street":{"id":983898,"name":"On or near Alderman's Hill"},"longitude":"-0.116838"},"context":"","outcome_status":null,"persistent_id":"","id":74285654,"location_subtype":"","month":"2019-05"},{"category":"anti-social-behaviour","location_type":"Force","location":{"latitude":"51.619998","street":{"id":983898,"name":"On or near Alderman's Hill"},"longitude":"-0.116838"},"context":"","outcome_status":null,"persistent_id":"","id":74285653,"location_subtype":"","month":"2019-05"},{"category":"anti-social-behaviour","location_type":"Force","location":{"latitude":"51.610997","street":{"id":983970,"name":"On or near Melbourne Avenue"},"longitude":"-0.111824"},"context":"","outcome_status":null,"persistent_id":"","id":74285643,"location_subtype":"","month":"2019-05"},{"category":"anti-social-behaviour","location_type":"Force","location":{"latitude":"51.608801","street":{"id":981289,"name":"On or near Maidstone Road"},"longitude":"-0.124581"},"context":"","outcome_status":null,"persistent_id":"","id":74281569,"location_subtype":"","month":"2019-05"},{"category":"anti-social-behaviour","location_type":"Force","location":{"latitude":"51.617421","street":{"id":983910,"name":"On or near Pilgrims Close"},"longitude":"-0.112048"},"context":"","outcome_status":null,"persistent_id":"","id":74285642,"location_subtype":"","month":"2019-05"},{"category":"anti-social-behaviour","location_type":"Force","location":{"latitude":"51.609590","street":{"id":981400,"name":"On or near Belsize Avenue"},"longitude":"-0.112142"},"context":"","outcome_status":null,"persistent_id":"","id":74285641,"location_subtype":"","month":"2019-05"},{"category":"anti-social-behaviour","location_type":"Force","location":{"latitude":"51.618445","street":{"id":983962,"name":"On or near Alderman's Hill"},"longitude":"-0.111370"},"context":"","outcome_status":null,"persistent_id":"","id":74285639,"location_subtype":"","month":"2019-05"},{"category":"anti-social-behaviour","location_type":"Force","location":{"latitude":"51.618445","street":{"id":983962,"name":"On or near Alderman's Hill"},"longitude":"-0.111370"},"context":"","outcome_status":null,"persistent_id":"","id":74285638,"location_subtype":"","month":"2019-05"},{"category":"anti-social-behaviour","location_type":"Force","location":{"latitude":"51.613918","street":{"id":983911,"name":"On or near Palmerston Crescent"},"longitude":"-0.112251"},"context":"","outcome_status":null,"persistent_id":"","id":74285636,"location_subtype":"","month":"2019-05"},{"category":"anti-social-behaviour","location_type":"Force","location":{"latitude":"51.620156","street":{"id":983944,"name":"On or near Old Park Road"},"longitude":"-0.110461"},"context":"","outcome_status":null,"persistent_id":"","id":74285635,"location_subtype":"","month":"2019-05"},{"category":"anti-social-behaviour","location_type":"Force","location":{"latitude":"51.612806","street":{"id":983924,"name":"On or near Broadway Mews"},"longitude":"-0.110232"},"context":"","outcome_status":null,"persistent_id":"","id":74285633,"location_subtype":"","month":"2019-05"},{"category":"anti-social-behaviour","location_type":"Force","location":{"latitude":"51.612806","street":{"id":983924,"name":"On or near Broadway Mews"},"longitude":"-0.110232"},"context":"","outcome_status":null,"persistent_id":"","id":74285632,"location_subtype":"","month":"2019-05"},{"category":"anti-social-behaviour","location_type":"Force","location":{"latitude":"51.612806","street":{"id":983924,"name":"On or near Broadway Mews"},"longitude":"-0.110232"},"context":"","outcome_status":null,"persistent_id":"","id":74285631,"location_subtype":"","month":"2019-05"},{"category":"anti-social-behaviour","location_type":"Force","location":{"latitude":"51.612806","street":{"id":983924,"name":"On or near Broadway Mews"},"longitude":"-0.110232"},"context":"","outcome_status":null,"persistent_id":"","id":74285630,"location_subtype":"","month":"2019-05"},{"category":"anti-social-behaviour","location_type":"Force","location":{"latitude":"51.612806","street":{"id":983924,"name":"On or near Broadway Mews"},"longitude":"-0.110232"},"context":"","outcome_status":null,"persistent_id":"","id":74285629,"location_subtype":"","month":"2019-05"},{"category":"anti-social-behaviour","location_type":"Force","location":{"latitude":"51.618831","street":{"id":983945,"name":"On or near Old Park Road"},"longitude":"-0.111903"},"context":"","outcome_status":null,"persistent_id":"","id":74285640,"location_subtype":"","month":"2019-05"},{"category":"anti-social-behaviour","location_type":"Force","location":{"latitude":"51.616259","street":{"id":983925,"name":"On or near Bridge Drive"},"longitude":"-0.110782"},"context":"","outcome_status":null,"persistent_id":"","id":74285628,"location_subtype":"","month":"2019-05"},{"category":"anti-social-behaviour","location_type":"Force","location":{"latitude":"51.616259","street":{"id":983925,"name":"On or near Bridge Drive"},"longitude":"-0.110782"},"context":"","outcome_status":null,"persistent_id":"","id":74285627,"location_subtype":"","month":"2019-05"},{"category":"anti-social-behaviour","location_type":"Force","location":{"latitude":"51.616259","street":{"id":983925,"name":"On or near Bridge Drive"},"longitude":"-0.110782"},"context":"","outcome_status":null,"persistent_id":"","id":74285626,"location_subtype":"","month":"2019-05"},{"category":"anti-social-behaviour","location_type":"Force","location":{"latitude":"51.616259","street":{"id":983925,"name":"On or near Bridge Drive"},"longitude":"-0.110782"},"context":"","outcome_status":null,"persistent_id":"","id":74285625,"location_subtype":"","month":"2019-05"},{"category":"anti-social-behaviour","location_type":"Force","location":{"latitude":"51.619184","street":{"id":983964,"name":"On or near Nightclub"},"longitude":"-0.107006"},"context":"","outcome_status":null,"persistent_id":"","id":74285624,"location_subtype":"","month":"2019-05"},{"category":"anti-social-behaviour","location_type":"Force","location":{"latitude":"51.619184","street":{"id":983964,"name":"On or near Nightclub"},"longitude":"-0.107006"},"context":"","outcome_status":null,"persistent_id":"","id":74285623,"location_subtype":"","month":"2019-05"},{"category":"anti-social-behaviour","location_type":"Force","location":{"latitude":"51.619184","street":{"id":983964,"name":"On or near Nightclub"},"longitude":"-0.107006"},"context":"","outcome_status":null,"persistent_id":"","id":74285622,"location_subtype":"","month":"2019-05"},{"category":"anti-social-behaviour","location_type":"Force","location":{"latitude":"51.619184","street":{"id":983964,"name":"On or near Nightclub"},"longitude":"-0.107006"},"context":"","outcome_status":null,"persistent_id":"","id":74285621,"location_subtype":"","month":"2019-05"},{"category":"anti-social-behaviour","location_type":"Force","location":{"latitude":"51.619184","street":{"id":983964,"name":"On or near Nightclub"},"longitude":"-0.107006"},"context":"","outcome_status":null,"persistent_id":"","id":74285620,"location_subtype":"","month":"2019-05"},{"category":"anti-social-behaviour","location_type":"Force","location":{"latitude":"51.612067","street":{"id":983973,"name":"On or near Petrol Station"},"longitude":"-0.107880"},"context":"","outcome_status":null,"persistent_id":"","id":74285619,"location_subtype":"","month":"2019-05"},{"category":"anti-social-behaviour","location_type":"Force","location":{"latitude":"51.611194","street":{"id":983971,"name":"On or near Fairbrook Road"},"longitude":"-0.105605"},"context":"","outcome_status":null,"persistent_id":"","id":74285614,"location_subtype":"","month":"2019-05"},{"category":"anti-social-behaviour","location_type":"Force","location":{"latitude":"51.610513","street":{"id":981436,"name":"On or near Palmerston Road"},"longitude":"-0.114140"},"context":"","outcome_status":null,"persistent_id":"","id":74285648,"location_subtype":"","month":"2019-05"},{"category":"anti-social-behaviour","location_type":"Force","location":{"latitude":"51.595933","street":{"id":978349,"name":"On or near Parkland Road"},"longitude":"-0.112275"},"context":"","outcome_status":null,"persistent_id":"","id":74280670,"location_subtype":"","month":"2019-05"},{"category":"anti-social-behaviour","location_type":"Force","location":{"latitude":"51.605305","street":{"id":981389,"name":"On or near High Road"},"longitude":"-0.111800"},"context":"","outcome_status":null,"persistent_id":"","id":74280655,"location_subtype":"","month":"2019-05"},{"category":"anti-social-behaviour","location_type":"Force","location":{"latitude":"51.596663","street":{"id":978345,"name":"On or near Redvers Road"},"longitude":"-0.107899"},"context":"","outcome_status":null,"persistent_id":"","id":74280620,"location_subtype":"","month":"2019-05"},{"category":"anti-social-behaviour","location_type":"Force","location":{"latitude":"51.601541","street":{"id":981395,"name":"On or near Douglas Road"},"longitude":"-0.104274"},"context":"","outcome_status":null,"persistent_id":"","id":74279890,"location_subtype":"","month":"2019-05"},{"category":"anti-social-behaviour","location_type":"Force","location":{"latitude":"51.601541","street":{"id":981395,"name":"On or near Douglas Road"},"longitude":"-0.104274"},"context":"","outcome_status":null,"persistent_id":"","id":74279887,"location_subtype":"","month":"2019-05"},{"category":"anti-social-behaviour","location_type":"Force","location":{"latitude":"51.601541","street":{"id":981395,"name":"On or near Douglas Road"},"longitude":"-0.104274"},"context":"","outcome_status":null,"persistent_id":"","id":74279888,"location_subtype":"","month":"2019-05"},{"category":"anti-social-behaviour","location_type":"Force","location":{"latitude":"51.601541","street":{"id":981395,"name":"On or near Douglas Road"},"longitude":"-0.104274"},"context":"","outcome_status":null,"persistent_id":"","id":74279889,"location_subtype":"","month":"2019-05"},{"category":"anti-social-behaviour","location_type":"Force","location":{"latitude":"51.600453","street":{"id":981351,"name":"On or near Williams Grove"},"longitude":"-0.108175"},"context":"","outcome_status":null,"persistent_id":"","id":74280616,"location_subtype":"","month":"2019-05"},{"category":"anti-social-behaviour","location_type":"Force","location":{"latitude":"51.598809","street":{"id":981477,"name":"On or near Buckingham Road"},"longitude":"-0.121700"},"context":"","outcome_status":null,"persistent_id":"","id":74281542,"location_subtype":"","month":"2019-05"},{"category":"anti-social-behaviour","location_type":"Force","location":{"latitude":"51.608254","street":{"id":981456,"name":"On or near Eleanor Road"},"longitude":"-0.120733"},"context":"","outcome_status":null,"persistent_id":"","id":74281543,"location_subtype":"","month":"2019-05"},{"category":"anti-social-behaviour","location_type":"Force","location":{"latitude":"51.610833","street":{"id":981302,"name":"On or near Brownlow Road"},"longitude":"-0.122345"},"context":"","outcome_status":null,"persistent_id":"","id":74281547,"location_subtype":"","month":"2019-05"},{"category":"anti-social-behaviour","location_type":"Force","location":{"latitude":"51.605573","street":{"id":981313,"name":"On or near Theatre\/concert Hall"},"longitude":"-0.122923"},"context":"","outcome_status":null,"persistent_id":"","id":74281552,"location_subtype":"","month":"2019-05"},{"category":"anti-social-behaviour","location_type":"Force","location":{"latitude":"51.603983","street":{"id":981295,"name":"On or near Edith Road"},"longitude":"-0.124750"},"context":"","outcome_status":null,"persistent_id":"","id":74281557,"location_subtype":"","month":"2019-05"},{"category":"anti-social-behaviour","location_type":"Force","location":{"latitude":"51.603983","street":{"id":981295,"name":"On or near Edith Road"},"longitude":"-0.124750"},"context":"","outcome_status":null,"persistent_id":"","id":74281558,"location_subtype":"","month":"2019-05"},{"category":"anti-social-behaviour","location_type":"Force","location":{"latitude":"51.606995","street":{"id":981279,"name":"On or near Rhys Avenue"},"longitude":"-0.125276"},"context":"","outcome_status":null,"persistent_id":"","id":74281565,"location_subtype":"","month":"2019-05"},{"category":"anti-social-behaviour","location_type":"Force","location":{"latitude":"51.606995","street":{"id":981279,"name":"On or near Rhys Avenue"},"longitude":"-0.125276"},"context":"","outcome_status":null,"persistent_id":"","id":74281566,"location_subtype":"","month":"2019-05"},{"category":"anti-social-behaviour","location_type":"Force","location":{"latitude":"51.606995","street":{"id":981279,"name":"On or near Rhys Avenue"},"longitude":"-0.125276"},"context":"","outcome_status":null,"persistent_id":"","id":74281567,"location_subtype":"","month":"2019-05"},{"category":"anti-social-behaviour","location_type":"Force","location":{"latitude":"51.604998","street":{"id":981309,"name":"On or near Amethyst Close"},"longitude":"-0.125214"},"context":"","outcome_status":null,"persistent_id":"","id":74281568,"location_subtype":"","month":"2019-05"},{"category":"anti-social-behaviour","location_type":"Force","location":{"latitude":"51.608801","street":{"id":981289,"name":"On or near Maidstone Road"},"longitude":"-0.124581"},"context":"","outcome_status":null,"persistent_id":"","id":74281570,"location_subtype":"","month":"2019-05"},{"category":"anti-social-behaviour","location_type":"Force","location":{"latitude":"51.603856","street":{"id":981273,"name":"On or near Tredegar Road"},"longitude":"-0.125766"},"context":"","outcome_status":null,"persistent_id":"","id":74281571,"location_subtype":"","month":"2019-05"},{"category":"anti-social-behaviour","location_type":"Force","location":{"latitude":"51.598632","street":{"id":981347,"name":"On or near Alexandra Avenue"},"longitude":"-0.127512"},"context":"","outcome_status":null,"persistent_id":"","id":74281573,"location_subtype":"","month":"2019-05"},{"category":"anti-social-behaviour","location_type":"Force","location":{"latitude":"51.604022","street":{"id":981283,"name":"On or near Park Grove"},"longitude":"-0.126583"},"context":"","outcome_status":null,"persistent_id":"","id":74281575,"location_subtype":"","month":"2019-05"},{"category":"anti-social-behaviour","location_type":"Force","location":{"latitude":"51.606989","street":{"id":981292,"name":"On or near Gordon Road"},"longitude":"-0.127154"},"context":"","outcome_status":null,"persistent_id":"","id":74281576,"location_subtype":"","month":"2019-05"},{"category":"anti-social-behaviour","location_type":"Force","location":{"latitude":"51.595914","street":{"id":978474,"name":"On or near Parking Area"},"longitude":"-0.129645"},"context":"","outcome_status":null,"persistent_id":"","id":74281586,"location_subtype":"","month":"2019-05"},{"category":"anti-social-behaviour","location_type":"Force","location":{"latitude":"51.595914","street":{"id":978474,"name":"On or near Parking Area"},"longitude":"-0.129645"},"context":"","outcome_status":null,"persistent_id":"","id":74281587,"location_subtype":"","month":"2019-05"},{"category":"anti-social-behaviour","location_type":"Force","location":{"latitude":"51.598504","street":{"id":981344,"name":"On or near Talbot Road"},"longitude":"-0.132470"},"context":"","outcome_status":null,"persistent_id":"","id":74281593,"location_subtype":"","month":"2019-05"},{"category":"anti-social-behaviour","location_type":"Force","location":{"latitude":"51.597500","street":{"id":978491,"name":"On or near Elgin Road"},"longitude":"-0.133782"},"context":"","outcome_status":null,"persistent_id":"","id":74281594,"location_subtype":"","month":"2019-05"},{"category":"anti-social-behaviour","location_type":"Force","location":{"latitude":"51.597500","street":{"id":978491,"name":"On or near Elgin Road"},"longitude":"-0.133782"},"context":"","outcome_status":null,"persistent_id":"","id":74281595,"location_subtype":"","month":"2019-05"},{"category":"anti-social-behaviour","location_type":"Force","location":{"latitude":"51.610919","street":{"id":981326,"name":"On or near Pinkham Way North Circular Road"},"longitude":"-0.136178"},"context":"","outcome_status":null,"persistent_id":"","id":74281598,"location_subtype":"","month":"2019-05"},{"category":"anti-social-behaviour","location_type":"Force","location":{"latitude":"51.612054","street":{"id":984076,"name":"On or near Station Road"},"longitude":"-0.139150"},"context":"","outcome_status":null,"persistent_id":"","id":74286348,"location_subtype":"","month":"2019-05"},{"category":"anti-social-behaviour","location_type":"Force","location":{"latitude":"51.612054","street":{"id":984076,"name":"On or near Station Road"},"longitude":"-0.139150"},"context":"","outcome_status":null,"persistent_id":"","id":74286347,"location_subtype":"","month":"2019-05"},{"category":"anti-social-behaviour","location_type":"Force","location":{"latitude":"51.613467","street":{"id":983985,"name":"On or near Upper Park Road"},"longitude":"-0.137518"},"context":"","outcome_status":null,"persistent_id":"","id":74286343,"location_subtype":"","month":"2019-05"},{"category":"anti-social-behaviour","location_type":"Force","location":{"latitude":"51.617783","street":{"id":983870,"name":"On or near Park\/open Space"},"longitude":"-0.117782"},"context":"","outcome_status":null,"persistent_id":"","id":74269055,"location_subtype":"","month":"2019-05"},{"category":"anti-social-behaviour","location_type":"Force","location":{"latitude":"51.599483","street":{"id":981561,"name":"On or near Perth Road"},"longitude":"-0.101010"},"context":"","outcome_status":null,"persistent_id":"","id":74279857,"location_subtype":"","month":"2019-05"},{"category":"anti-social-behaviour","location_type":"Force","location":{"latitude":"51.601090","street":{"id":981585,"name":"On or near Leith Road"},"longitude":"-0.100813"},"context":"","outcome_status":null,"persistent_id":"","id":74279873,"location_subtype":"","month":"2019-05"},{"category":"anti-social-behaviour","location_type":"Force","location":{"latitude":"51.601090","street":{"id":981585,"name":"On or near Leith Road"},"longitude":"-0.100813"},"context":"","outcome_status":null,"persistent_id":"","id":74279874,"location_subtype":"","month":"2019-05"},{"category":"anti-social-behaviour","location_type":"Force","location":{"latitude":"51.599770","street":{"id":981357,"name":"On or near Khalsa Court"},"longitude":"-0.102081"},"context":"","outcome_status":null,"persistent_id":"","id":74279877,"location_subtype":"","month":"2019-05"},{"category":"anti-social-behaviour","location_type":"Force","location":{"latitude":"51.599168","street":{"id":981356,"name":"On or near Lordship Lane"},"longitude":"-0.102091"},"context":"","outcome_status":null,"persistent_id":"","id":74279878,"location_subtype":"","month":"2019-05"},{"category":"anti-social-behaviour","location_type":"Force","location":{"latitude":"51.601541","street":{"id":981395,"name":"On or near Douglas Road"},"longitude":"-0.104274"},"context":"","outcome_status":null,"persistent_id":"","id":74279886,"location_subtype":"","month":"2019-05"},{"category":"anti-social-behaviour","location_type":"Force","location":{"latitude":"51.598094","street":{"id":981485,"name":"On or near Coombe Road"},"longitude":"-0.104100"},"context":"","outcome_status":null,"persistent_id":"","id":74279892,"location_subtype":"","month":"2019-05"},{"category":"anti-social-behaviour","location_type":"Force","location":{"latitude":"51.606370","street":{"id":981397,"name":"On or near Cross Road"},"longitude":"-0.105358"},"context":"","outcome_status":null,"persistent_id":"","id":74279893,"location_subtype":"","month":"2019-05"},{"category":"anti-social-behaviour","location_type":"Force","location":{"latitude":"51.596759","street":{"id":978333,"name":"On or near Vincent Road"},"longitude":"-0.104906"},"context":"","outcome_status":null,"persistent_id":"","id":74280595,"location_subtype":"","month":"2019-05"},{"category":"anti-social-behaviour","location_type":"Force","location":{"latitude":"51.596759","street":{"id":978333,"name":"On or near Vincent Road"},"longitude":"-0.104906"},"context":"","outcome_status":null,"persistent_id":"","id":74280596,"location_subtype":"","month":"2019-05"},{"category":"bicycle-theft","location_type":"Force","location":{"latitude":"51.610465","street":{"id":981330,"name":"On or near Petrol Station"},"longitude":"-0.137020"},"context":"","outcome_status":{"category":"Status update unavailable","date":"2019-09"},"persistent_id":"4836daa01d3644e0311a43406e222230b76fcc98cc4f5b8df062214fcc086931","id":74354056,"location_subtype":"","month":"2019-05"},{"category":"bicycle-theft","location_type":"Force","location":{"latitude":"51.620156","street":{"id":983944,"name":"On or near Old Park Road"},"longitude":"-0.110461"},"context":"","outcome_status":{"category":"Status update unavailable","date":"2019-09"},"persistent_id":"d1b6d88d583ae1319e8a68262389ecb5050c393d6e504cb434067b68b562b655","id":74330628,"location_subtype":"","month":"2019-05"},{"category":"bicycle-theft","location_type":"Force","location":{"latitude":"51.600329","street":{"id":981318,"name":"On or near Albert Road"},"longitude":"-0.134677"},"context":"","outcome_status":{"category":"Status update unavailable","date":"2019-09"},"persistent_id":"af02e63db7c7bda085e23296a3c4b1f5ac1c4eb612f49d38fb50f457103a1dab","id":74305501,"location_subtype":"","month":"2019-05"},{"category":"bicycle-theft","location_type":"Force","location":{"latitude":"51.596530","street":{"id":978378,"name":"On or near Buller Road"},"longitude":"-0.108583"},"context":"","outcome_status":{"category":"Status update unavailable","date":"2019-09"},"persistent_id":"b7a66cd598aa6c6d68fd2712529e1b77660959157c8dbe54b7ce18b22c4a4964","id":74325466,"location_subtype":"","month":"2019-05"},{"category":"bicycle-theft","location_type":"Force","location":{"latitude":"51.618445","street":{"id":983962,"name":"On or near Alderman's Hill"},"longitude":"-0.111370"},"context":"","outcome_status":{"category":"Status update unavailable","date":"2019-09"},"persistent_id":"3c95d50441163c882886e4a120eee7cdd30cae2f5a86612c80e1fb5b6dff6d2b","id":74313532,"location_subtype":"","month":"2019-05"},{"category":"bicycle-theft","location_type":"Force","location":{"latitude":"51.610513","street":{"id":981436,"name":"On or near Palmerston Road"},"longitude":"-0.114140"},"context":"","outcome_status":{"category":"Status update unavailable","date":"2019-09"},"persistent_id":"5a7bbb4ad664880e82ba5570b73abc5cef4ea828dfd920e5794b387ac33702ba","id":74310160,"location_subtype":"","month":"2019-05"},{"category":"bicycle-theft","location_type":"Force","location":{"latitude":"51.600329","street":{"id":981318,"name":"On or near Albert Road"},"longitude":"-0.134677"},"context":"","outcome_status":{"category":"Status update unavailable","date":"2019-09"},"persistent_id":"233feef231f43414ffca9cd1ffd38709f2f3b12f98bdbb73cc59ec1cd5614c1b","id":74314778,"location_subtype":"","month":"2019-05"},{"category":"bicycle-theft","location_type":"Force","location":{"latitude":"51.596006","street":{"id":978386,"name":"On or near Nightclub"},"longitude":"-0.109543"},"context":"","outcome_status":{"category":"Status update unavailable","date":"2019-09"},"persistent_id":"dd780a29ea5b46262607eea8c9d812031bebf07f10955001d056c518ccb334fa","id":74337715,"location_subtype":"","month":"2019-05"},{"category":"burglary","location_type":"Force","location":{"latitude":"51.605858","street":{"id":981271,"name":"On or near Woodfield Way"},"longitude":"-0.127850"},"context":"","outcome_status":{"category":"Status update unavailable","date":"2019-09"},"persistent_id":"46a93d4cf6825b6078e0b5b6ee616bb3ef5e3580343287675b6d8e2b67ac11ca","id":74295315,"location_subtype":"","month":"2019-05"},{"category":"burglary","location_type":"Force","location":{"latitude":"51.604213","street":{"id":981270,"name":"On or near Wroxham Gardens"},"longitude":"-0.130691"},"context":"","outcome_status":{"category":"Status update unavailable","date":"2019-09"},"persistent_id":"426d73ae7ae8a914429d43313e2089e182641747cf6f7d4842fd9414f8f724dd","id":74325875,"location_subtype":"","month":"2019-05"},{"category":"burglary","location_type":"Force","location":{"latitude":"51.606370","street":{"id":981397,"name":"On or near Cross Road"},"longitude":"-0.105358"},"context":"","outcome_status":{"category":"Awaiting court outcome","date":"2020-07"},"persistent_id":"90f6fbea4df724aae5e916002a62d89338846f95b4a45644ed629c07cd2656e3","id":74364104,"location_subtype":"","month":"2019-05"},{"category":"burglary","location_type":"Force","location":{"latitude":"51.616908","street":{"id":983982,"name":"On or near Parking Area"},"longitude":"-0.133925"},"context":"","outcome_status":{"category":"Status update unavailable","date":"2019-09"},"persistent_id":"ba1acebc3ee82ed70c673c8ba214ad8fe5422d688fe5455c807582b6a0a5e49d","id":74359030,"location_subtype":"","month":"2019-05"},{"category":"burglary","location_type":"Force","location":{"latitude":"51.609758","street":{"id":981367,"name":"On or near Wolves Lane"},"longitude":"-0.102444"},"context":"","outcome_status":{"category":"Status update unavailable","date":"2019-09"},"persistent_id":"6e4ab6389a98911ac1e6da3432233d2e73b9e115b6733fb9201802120a9666d2","id":74333006,"location_subtype":"","month":"2019-05"},{"category":"burglary","location_type":"Force","location":{"latitude":"51.596530","street":{"id":978378,"name":"On or near Buller Road"},"longitude":"-0.108583"},"context":"","outcome_status":{"category":"Status update unavailable","date":"2019-09"},"persistent_id":"df5ce541327c016dc607272a87119cc90343787f0c3a65f6b40aabde6735bfea","id":74331999,"location_subtype":"","month":"2019-05"},{"category":"burglary","location_type":"Force","location":{"latitude":"51.619557","street":{"id":984053,"name":"On or near Morton Crescent"},"longitude":"-0.129771"},"context":"","outcome_status":{"category":"Status update unavailable","date":"2019-09"},"persistent_id":"9e73e400ca07ca3e420c343796635635bf4c2cc8ccadc8f2bff2491a49c2505a","id":74344311,"location_subtype":"","month":"2019-05"},{"category":"burglary","location_type":"Force","location":{"latitude":"51.608944","street":{"id":981559,"name":"On or near Norfolk Avenue"},"longitude":"-0.099951"},"context":"","outcome_status":{"category":"Status update unavailable","date":"2019-09"},"persistent_id":"c662cc78393014902169a9fa812ccc3a2a159acc13bd714cb8f400042b87a69d","id":74344419,"location_subtype":"","month":"2019-05"},{"category":"burglary","location_type":"Force","location":{"latitude":"51.610218","street":{"id":981450,"name":"On or near Granville Road"},"longitude":"-0.115958"},"context":"","outcome_status":{"category":"Status update unavailable","date":"2019-09"},"persistent_id":"543676128bbd140ed31158410eae6b983aa125ad56b9521179a234c6ec549cba","id":74316510,"location_subtype":"","month":"2019-05"},{"category":"burglary","location_type":"Force","location":{"latitude":"51.606370","street":{"id":981397,"name":"On or near Cross Road"},"longitude":"-0.105358"},"context":"","outcome_status":{"category":"Status update unavailable","date":"2019-09"},"persistent_id":"3909a0100b98f1b8b79fd318bb20f24e49b290c5c93e283a90142c316a5f8210","id":74357204,"location_subtype":"","month":"2019-05"},{"category":"burglary","location_type":"Force","location":{"latitude":"51.608113","street":{"id":981412,"name":"On or near Lascott's Road"},"longitude":"-0.112521"},"context":"","outcome_status":{"category":"Status update unavailable","date":"2019-09"},"persistent_id":"736140274969915e4b1e4a1a0b406220fea56f70004a30cb55656c46bb0dd660","id":74352972,"location_subtype":"","month":"2019-05"},{"category":"burglary","location_type":"Force","location":{"latitude":"51.613069","street":{"id":984042,"name":"On or near Bowes Road (north Circular Road)"},"longitude":"-0.122108"},"context":"","outcome_status":{"category":"Status update unavailable","date":"2019-09"},"persistent_id":"f5cbc1b26f6f7e1f0790409c96b0294a9658a7a791cbb198a242ad6461a920b3","id":74368903,"location_subtype":"","month":"2019-05"},{"category":"burglary","location_type":"Force","location":{"latitude":"51.613069","street":{"id":984042,"name":"On or near Bowes Road (north Circular Road)"},"longitude":"-0.122108"},"context":"","outcome_status":{"category":"Status update unavailable","date":"2019-09"},"persistent_id":"ac0f93e5fbffe83e7743501ca2221d02281df54fe29535c3dae09e74b5ac1e76","id":74311850,"location_subtype":"","month":"2019-05"},{"category":"burglary","location_type":"Force","location":{"latitude":"51.619184","street":{"id":983964,"name":"On or near Nightclub"},"longitude":"-0.107006"},"context":"","outcome_status":{"category":"Status update unavailable","date":"2019-09"},"persistent_id":"37ebb8d0491a7bb64f1a5ec6b6f0eec2387f3b8e17b5eb244a90d86533a69bc5","id":74310727,"location_subtype":"","month":"2019-05"},{"category":"burglary","location_type":"Force","location":{"latitude":"51.612177","street":{"id":983773,"name":"On or near Beale Close"},"longitude":"-0.098025"},"context":"","outcome_status":{"category":"Status update unavailable","date":"2019-09"},"persistent_id":"20476b5495d0664423cf864d25881b733c74e367fc759b4fa4f2f0b43e48b25d","id":74358757,"location_subtype":"","month":"2019-05"},{"category":"burglary","location_type":"Force","location":{"latitude":"51.594479","street":{"id":978321,"name":"On or near Parking Area"},"longitude":"-0.109636"},"context":"","outcome_status":{"category":"Investigation complete; no suspect identified","date":"2020-03"},"persistent_id":"d23a43015598610481e0e968d47352885a33d6df51d3db0e7697d81bc134f919","id":74345439,"location_subtype":"","month":"2019-05"},{"category":"burglary","location_type":"Force","location":{"latitude":"51.598094","street":{"id":981485,"name":"On or near Coombe Road"},"longitude":"-0.104100"},"context":"","outcome_status":{"category":"Status update unavailable","date":"2019-09"},"persistent_id":"2d70254d3e5d0b6e349767bda821b0dda47f963d9802627e762e5d2a5422ec71","id":74368107,"location_subtype":"","month":"2019-05"},{"category":"burglary","location_type":"Force","location":{"latitude":"51.602234","street":{"id":981376,"name":"On or near Newnham Road"},"longitude":"-0.109848"},"context":"","outcome_status":{"category":"Status update unavailable","date":"2019-09"},"persistent_id":"195436878250e2cb9f06a3fde38fdc2739f90989bdb07d7f7fd1b5b76aeca113","id":74368008,"location_subtype":"","month":"2019-05"},{"category":"burglary","location_type":"Force","location":{"latitude":"51.605858","street":{"id":981271,"name":"On or near Woodfield Way"},"longitude":"-0.127850"},"context":"","outcome_status":{"category":"Status update unavailable","date":"2019-09"},"persistent_id":"b42e1b2ab775aa3fdc667bf6d702d7fa96f7fb63234456c5a3173baa17c48d77","id":74335636,"location_subtype":"","month":"2019-05"},{"category":"burglary","location_type":"Force","location":{"latitude":"51.596802","street":{"id":978440,"name":"On or near The Avenue"},"longitude":"-0.134532"},"context":"","outcome_status":{"category":"Status update unavailable","date":"2019-09"},"persistent_id":"7e5d84d518b2f4e161137c2c4f6180d05209119250bb5cd4a08cf8db445bccb2","id":74360847,"location_subtype":"","month":"2019-05"},{"category":"burglary","location_type":"Force","location":{"latitude":"51.609758","street":{"id":981367,"name":"On or near Wolves Lane"},"longitude":"-0.102444"},"context":"","outcome_status":{"category":"Status update unavailable","date":"2019-09"},"persistent_id":"572a95a035d7c97c2ae6c1bea640247cb8747f71de8471b061e472b2ac30e5d7","id":74357857,"location_subtype":"","month":"2019-05"},{"category":"burglary","location_type":"Force","location":{"latitude":"51.617355","street":{"id":983905,"name":"On or near Trade Close"},"longitude":"-0.108483"},"context":"","outcome_status":{"category":"Status update unavailable","date":"2019-09"},"persistent_id":"7f9d1873b483beff4504ffe49881c9b163ba19639b8b8b64a968ed89dd2ef867","id":74365381,"location_subtype":"","month":"2019-05"},{"category":"burglary","location_type":"Force","location":{"latitude":"51.608944","street":{"id":981559,"name":"On or near Norfolk Avenue"},"longitude":"-0.099951"},"context":"","outcome_status":{"category":"Status update unavailable","date":"2019-09"},"persistent_id":"bb974a86c6bacfe94329dbb55d77321a6be23c559930af91a20e9a8c7e2b9732","id":74368778,"location_subtype":"","month":"2019-05"},{"category":"burglary","location_type":"Force","location":{"latitude":"51.596006","street":{"id":978386,"name":"On or near Nightclub"},"longitude":"-0.109543"},"context":"","outcome_status":{"category":"Offender given community sentence","date":"2019-05"},"persistent_id":"9ad384c742e411a80c7bb8fe695e1f5c3263b0d70e7449de8e854dc8f26297c5","id":74325920,"location_subtype":"","month":"2019-05"},{"category":"burglary","location_type":"Force","location":{"latitude":"51.596530","street":{"id":978378,"name":"On or near Buller Road"},"longitude":"-0.108583"},"context":"","outcome_status":{"category":"Court result unavailable","date":"2019-12"},"persistent_id":"a6ce105d121a3ef87f8782a3c7e6a14709557e4dfc9bdb4b93e3b545d2b77299","id":74344206,"location_subtype":"","month":"2019-05"},{"category":"burglary","location_type":"Force","location":{"latitude":"51.596802","street":{"id":978440,"name":"On or near The Avenue"},"longitude":"-0.134532"},"context":"","outcome_status":{"category":"Status update unavailable","date":"2019-09"},"persistent_id":"37c57b3292a3eee890c8fe5ac4bf388f9a495f90674f1ab9097511a38919c16c","id":74349474,"location_subtype":"","month":"2019-05"},{"category":"burglary","location_type":"Force","location":{"latitude":"51.612067","street":{"id":983973,"name":"On or near Petrol Station"},"longitude":"-0.107880"},"context":"","outcome_status":{"category":"Status update unavailable","date":"2019-09"},"persistent_id":"db0559f958245563114b4654a7bb363308868a0888fcb1c5891ab2d65cffcc1c","id":74293745,"location_subtype":"","month":"2019-05"},{"category":"burglary","location_type":"Force","location":{"latitude":"51.598214","street":{"id":981479,"name":"On or near Watsons Road"},"longitude":"-0.112051"},"context":"","outcome_status":{"category":"Status update unavailable","date":"2019-09"},"persistent_id":"e0843428691af97bbbb585f818067637713f925b8c8869f4aaf0564977b91944","id":74328214,"location_subtype":"","month":"2019-05"},{"category":"burglary","location_type":"Force","location":{"latitude":"51.619263","street":{"id":983892,"name":"On or near Grovelands Road"},"longitude":"-0.113041"},"context":"","outcome_status":{"category":"Status update unavailable","date":"2019-09"},"persistent_id":"e6712debd644129b0bf866ed616015ea0919e8b243acb58a71e3c0240a7371b9","id":74349036,"location_subtype":"","month":"2019-05"},{"category":"burglary","location_type":"Force","location":{"latitude":"51.602567","street":{"id":981298,"name":"On or near Crescent Rise"},"longitude":"-0.128404"},"context":"","outcome_status":{"category":"Status update unavailable","date":"2019-09"},"persistent_id":"79ec64a17a91636f49de00b64c66253189cfb43aa8c9901b40166b8978ae098f","id":74337844,"location_subtype":"","month":"2019-05"},{"category":"burglary","location_type":"Force","location":{"latitude":"51.601223","street":{"id":981379,"name":"On or near Neville Place"},"longitude":"-0.111868"},"context":"","outcome_status":{"category":"Status update unavailable","date":"2019-09"},"persistent_id":"3d983cd5541550b165b871b3be353b9ea3727ee13ab12386b0fc5d009f0e79e5","id":74344204,"location_subtype":"","month":"2019-05"},{"category":"burglary","location_type":"Force","location":{"latitude":"51.619998","street":{"id":983898,"name":"On or near Alderman's Hill"},"longitude":"-0.116838"},"context":"","outcome_status":{"category":"Status update unavailable","date":"2019-09"},"persistent_id":"71e89b52ba91a8be096352eccd1162e49cd31c3b51c7a59e7f8082622a4846bb","id":74348872,"location_subtype":"","month":"2019-05"},{"category":"burglary","location_type":"Force","location":{"latitude":"51.599125","street":{"id":981475,"name":"On or near Dorset Road"},"longitude":"-0.118944"},"context":"","outcome_status":{"category":"Status update unavailable","date":"2019-09"},"persistent_id":"3ffdf855eb128175df578d49094c2323694b0b00c667d42ed16c9a40b840c979","id":74351273,"location_subtype":"","month":"2019-05"},{"category":"burglary","location_type":"Force","location":{"latitude":"51.613216","street":{"id":984036,"name":"On or near Ollerton Road"},"longitude":"-0.127981"},"context":"","outcome_status":{"category":"Status update unavailable","date":"2019-09"},"persistent_id":"08025e5496604c4d3b7da33c49b01f41016acebf8d1b95ad90e8a081ba83d9d7","id":74297209,"location_subtype":"","month":"2019-05"},{"category":"burglary","location_type":"Force","location":{"latitude":"51.606717","street":{"id":981443,"name":"On or near Marlborough Road"},"longitude":"-0.116868"},"context":"","outcome_status":{"category":"Status update unavailable","date":"2019-09"},"persistent_id":"5e0de0cce851343f1fcfc7915988dd33ee128a3c1bb5526c6a6b53affd487b6c","id":74361444,"location_subtype":"","month":"2019-05"},{"category":"burglary","location_type":"Force","location":{"latitude":"51.602178","street":{"id":981458,"name":"On or near Commerce Road"},"longitude":"-0.114226"},"context":"","outcome_status":{"category":"Status update unavailable","date":"2019-09"},"persistent_id":"f498815b5279c5d3563c86cfe5a4fb8a0337a46e8bd97707d39f28d0c05deff7","id":74328541,"location_subtype":"","month":"2019-05"},{"category":"burglary","location_type":"Force","location":{"latitude":"51.606370","street":{"id":981397,"name":"On or near Cross Road"},"longitude":"-0.105358"},"context":"","outcome_status":{"category":"Status update unavailable","date":"2019-09"},"persistent_id":"4d46b1e8c6d8cafce075b5898e51cf7638c692f58eb41d5cc0923184b9a68687","id":74360833,"location_subtype":"","month":"2019-05"},{"category":"burglary","location_type":"Force","location":{"latitude":"51.609758","street":{"id":981367,"name":"On or near Wolves Lane"},"longitude":"-0.102444"},"context":"","outcome_status":{"category":"Status update unavailable","date":"2019-09"},"persistent_id":"29f58c703b0ada8eee8f5f7f6a2ff2384e8a981af2e91a4d9bc49eddae935f0f","id":74292921,"location_subtype":"","month":"2019-05"},{"category":"burglary","location_type":"Force","location":{"latitude":"51.606370","street":{"id":981397,"name":"On or near Cross Road"},"longitude":"-0.105358"},"context":"","outcome_status":{"category":"Status update unavailable","date":"2019-09"},"persistent_id":"f23c1b2980a1a98530e3b15e730e5a6598fa9f52735e7a65a08bc3c090979546","id":74360832,"location_subtype":"","month":"2019-05"},{"category":"burglary","location_type":"Force","location":{"latitude":"51.616259","street":{"id":983925,"name":"On or near Bridge Drive"},"longitude":"-0.110782"},"context":"","outcome_status":{"category":"Status update unavailable","date":"2019-09"},"persistent_id":"7f7b73bb621f452408130cf9083f44d026ac90c52c4df35da0cf352b9558b2dc","id":74309266,"location_subtype":"","month":"2019-05"},{"category":"burglary","location_type":"Force","location":{"latitude":"51.596510","street":{"id":978330,"name":"On or near Wellesley Road"},"longitude":"-0.107357"},"context":"","outcome_status":{"category":"Status update unavailable","date":"2019-09"},"persistent_id":"de9446382a7a0f07b56d3ca23ff29dc47dc1b37acda5445c43fb957fec827c27","id":74359247,"location_subtype":"","month":"2019-05"},{"category":"burglary","location_type":"Force","location":{"latitude":"51.607585","street":{"id":981290,"name":"On or near Lynton Gardens"},"longitude":"-0.130653"},"context":"","outcome_status":{"category":"Status update unavailable","date":"2019-09"},"persistent_id":"4a62ede0e6f25dd97144fbdd82b8d0810a1cdf5f8d0b1f168ce6861fd54bcae8","id":74289997,"location_subtype":"","month":"2019-05"},{"category":"burglary","location_type":"Force","location":{"latitude":"51.610567","street":{"id":981391,"name":"On or near Green Lanes"},"longitude":"-0.109704"},"context":"","outcome_status":{"category":"Status update unavailable","date":"2019-09"},"persistent_id":"dae8a1bf9db70ac89b123e24cddf1e2bb7468ba5addb590172f447fcf251a61e","id":74333439,"location_subtype":"","month":"2019-05"},{"category":"burglary","location_type":"Force","location":{"latitude":"51.604780","street":{"id":981460,"name":"On or near Clarence Road"},"longitude":"-0.119475"},"context":"","outcome_status":{"category":"Status update unavailable","date":"2019-09"},"persistent_id":"535bc36ccf749759847339e5009f593beb12ab1ed522ec5ac82de821d428c492","id":74291937,"location_subtype":"","month":"2019-05"},{"category":"burglary","location_type":"Force","location":{"latitude":"51.616259","street":{"id":983925,"name":"On or near Bridge Drive"},"longitude":"-0.110782"},"context":"","outcome_status":{"category":"Investigation complete; no suspect identified","date":"2020-03"},"persistent_id":"e64a5413fbe2ffd1113b8b7f30e50e5081690e75d3829b0ecde02e212843e78e","id":74323540,"location_subtype":"","month":"2019-05"},{"category":"burglary","location_type":"BTP","location":{"latitude":"51.618420","street":{"id":1489888,"name":"Palmers Green (station)"},"longitude":"-0.110389"},"context":"","outcome_status":{"category":"Status update unavailable","date":"2019-09"},"persistent_id":"","id":88718765,"location_subtype":"STATION","month":"2019-05"},{"category":"burglary","location_type":"Force","location":{"latitude":"51.594479","street":{"id":978321,"name":"On or near Parking Area"},"longitude":"-0.109636"},"context":"","outcome_status":{"category":"Status update unavailable","date":"2019-09"},"persistent_id":"7aaa38422248b537444fb052cc4e9dbf31a2514bd55119a78114458eaaab9f7b","id":74306542,"location_subtype":"","month":"2019-05"},{"category":"burglary","location_type":"Force","location":{"latitude":"51.618770","street":{"id":983933,"name":"On or near Parking Area"},"longitude":"-0.110374"},"context":"","outcome_status":{"category":"Status update unavailable","date":"2019-09"},"persistent_id":"5ea34f6a03576d48518c36caab67a1b2bf0991373b3a61eb2c4e91215f255ad3","id":74326476,"location_subtype":"","month":"2019-05"},{"category":"burglary","location_type":"Force","location":{"latitude":"51.609758","street":{"id":981367,"name":"On or near Wolves Lane"},"longitude":"-0.102444"},"context":"","outcome_status":{"category":"Status update unavailable","date":"2019-09"},"persistent_id":"6e4ab6389a98911ac1e6da3432233d2e73b9e115b6733fb9201802120a9666d2","id":74333007,"location_subtype":"","month":"2019-05"},{"category":"burglary","location_type":"Force","location":{"latitude":"51.605422","street":{"id":981272,"name":"On or near Tunnel Gardens"},"longitude":"-0.132634"},"context":"","outcome_status":{"category":"Status update unavailable","date":"2019-09"},"persistent_id":"5e15f67823b167d507c23b05fa73e0dc31cecfbb599e238647a64239157e98db","id":74343475,"location_subtype":"","month":"2019-05"},{"category":"burglary","location_type":"Force","location":{"latitude":"51.616684","street":{"id":983880,"name":"On or near Broomfield Avenue"},"longitude":"-0.113754"},"context":"","outcome_status":{"category":"Status update unavailable","date":"2019-09"},"persistent_id":"9704cd75f97e055b0489f1b54f1c6b9fafeb9e454652f1cb05c4f992f3dbd2e5","id":74356080,"location_subtype":"","month":"2019-05"},{"category":"burglary","location_type":"Force","location":{"latitude":"51.606370","street":{"id":981397,"name":"On or near Cross Road"},"longitude":"-0.105358"},"context":"","outcome_status":{"category":"Status update unavailable","date":"2019-09"},"persistent_id":"a1e99cf82eac7b720a662d580226b5cd638be3039aaa5d0910318614833488e2","id":74356333,"location_subtype":"","month":"2019-05"},{"category":"burglary","location_type":"Force","location":{"latitude":"51.612806","street":{"id":983924,"name":"On or near Broadway Mews"},"longitude":"-0.110232"},"context":"","outcome_status":{"category":"Status update unavailable","date":"2019-09"},"persistent_id":"322ffb6f58fcb679970b2ab89f6d4b01e60e966e6a2d141966fb3cec57974f44","id":74370993,"location_subtype":"","month":"2019-05"},{"category":"burglary","location_type":"Force","location":{"latitude":"51.617682","street":{"id":923690,"name":"On or near Supermarket"},"longitude":"-0.110391"},"context":"","outcome_status":{"category":"Status update unavailable","date":"2019-09"},"persistent_id":"6cb3a37863b73621210f60a9991f20f36b16b509cd7b358d57d6e61f0c8c8f5d","id":74357198,"location_subtype":"","month":"2019-05"},{"category":"criminal-damage-arson","location_type":"Force","location":{"latitude":"51.610432","street":{"id":981276,"name":"On or near Tewkesbury Terrace"},"longitude":"-0.132688"},"context":"","outcome_status":{"category":"Status update unavailable","date":"2019-09"},"persistent_id":"be8b837a8832aa8190c0efbfdc0a1b1266d2582c62ee34532ff3aeea928c6223","id":74337575,"location_subtype":"","month":"2019-05"},{"category":"criminal-damage-arson","location_type":"Force","location":{"latitude":"51.597922","street":{"id":981478,"name":"On or near Bedford Road"},"longitude":"-0.121361"},"context":"","outcome_status":{"category":"Status update unavailable","date":"2019-09"},"persistent_id":"0bce03bb7b1877da4389f5ccc309b2146bbac7bc8246e6db502f084b848ff2c5","id":74337235,"location_subtype":"","month":"2019-05"},{"category":"criminal-damage-arson","location_type":"Force","location":{"latitude":"51.605734","street":{"id":981348,"name":"On or near Bounds Green Road"},"longitude":"-0.122844"},"context":"","outcome_status":{"category":"Court result unavailable","date":"2019-12"},"persistent_id":"3ed13b8188e1ff8f23b27adbb0ac953b3c5e7fce7727b96b742e14271f574c00","id":74329158,"location_subtype":"","month":"2019-05"},{"category":"criminal-damage-arson","location_type":"Force","location":{"latitude":"51.604652","street":{"id":923623,"name":"On or near Winton Avenue"},"longitude":"-0.133402"},"context":"","outcome_status":{"category":"Status update unavailable","date":"2019-09"},"persistent_id":"cf30f71accc30bc1deb5389efc9ac0f1aec6bf4a871b8fc7d67952648b11037d","id":74339444,"location_subtype":"","month":"2019-05"},{"category":"criminal-damage-arson","location_type":"Force","location":{"latitude":"51.599168","street":{"id":981356,"name":"On or near Lordship Lane"},"longitude":"-0.102091"},"context":"","outcome_status":{"category":"Status update unavailable","date":"2019-09"},"persistent_id":"e98a03de40f91256288574489f974f1007ce53f4ee4417a0bf64d6c5aa016fcc","id":74296584,"location_subtype":"","month":"2019-05"},{"category":"criminal-damage-arson","location_type":"Force","location":{"latitude":"51.606891","street":{"id":981408,"name":"On or near Supermarket"},"longitude":"-0.111503"},"context":"","outcome_status":{"category":"Status update unavailable","date":"2019-09"},"persistent_id":"f5a6efc840d5c017dae4066c88ec3d1629728cc4683f93a2545f0fb2db60abc5","id":74302115,"location_subtype":"","month":"2019-05"},{"category":"criminal-damage-arson","location_type":"Force","location":{"latitude":"51.608254","street":{"id":981456,"name":"On or near Eleanor Road"},"longitude":"-0.120733"},"context":"","outcome_status":{"category":"Status update unavailable","date":"2019-09"},"persistent_id":"4be923662e906d8a029fb2f9fc5e5a6e0fe3d1d7f045ac10b1cd4eb213be537c","id":74346911,"location_subtype":"","month":"2019-05"},{"category":"criminal-damage-arson","location_type":"Force","location":{"latitude":"51.596530","street":{"id":978378,"name":"On or near Buller Road"},"longitude":"-0.108583"},"context":"","outcome_status":{"category":"Status update unavailable","date":"2019-09"},"persistent_id":"7f30a6f938d81db98b2e68aa239dfc85ff67d95d156a2d43f055ca550b25bde8","id":74353255,"location_subtype":"","month":"2019-05"},{"category":"criminal-damage-arson","location_type":"Force","location":{"latitude":"51.593990","street":{"id":978387,"name":"On or near Supermarket"},"longitude":"-0.111114"},"context":"","outcome_status":{"category":"Status update unavailable","date":"2019-09"},"persistent_id":"99ddd26fc7c3933d7101573e932692351e81cd065f1670bafcfe508cd63c4764","id":74326311,"location_subtype":"","month":"2019-05"},{"category":"criminal-damage-arson","location_type":"Force","location":{"latitude":"51.597926","street":{"id":981486,"name":"On or near Berners Road"},"longitude":"-0.109290"},"context":"","outcome_status":{"category":"Status update unavailable","date":"2019-09"},"persistent_id":"85d4d64c75c43e90aed4bb8896b0a242c61c401cf5674bedb4abb77a7a4c582a","id":74326283,"location_subtype":"","month":"2019-05"},{"category":"criminal-damage-arson","location_type":"Force","location":{"latitude":"51.594959","street":{"id":978375,"name":"On or near Caxton Road"},"longitude":"-0.110987"},"context":"","outcome_status":{"category":"Status update unavailable","date":"2019-09"},"persistent_id":"d6c8ab5f18b6554ef478acc80d934982779a8eead25ef865f4cca6dcc4181af4","id":74335613,"location_subtype":"","month":"2019-05"},{"category":"criminal-damage-arson","location_type":"Force","location":{"latitude":"51.616276","street":{"id":984040,"name":"On or near Dawlish Avenue"},"longitude":"-0.121961"},"context":"","outcome_status":{"category":"Status update unavailable","date":"2019-09"},"persistent_id":"81e05dd48598598a6e71edb76ab59de2036ecdf207682eecb010e590fd096691","id":74319759,"location_subtype":"","month":"2019-05"},{"category":"criminal-damage-arson","location_type":"Force","location":{"latitude":"51.608581","street":{"id":981388,"name":"On or near High Road"},"longitude":"-0.110306"},"context":"","outcome_status":{"category":"Status update unavailable","date":"2019-09"},"persistent_id":"f24bd71bc5e115552a1b32c37c95ea44f1abe8555c287fc8c259a2bf60015685","id":74371196,"location_subtype":"","month":"2019-05"},{"category":"criminal-damage-arson","location_type":"Force","location":{"latitude":"51.607156","street":{"id":981439,"name":"On or near Northbrook Road"},"longitude":"-0.117890"},"context":"","outcome_status":{"category":"Status update unavailable","date":"2019-09"},"persistent_id":"8cf913bd404b226c480d21bac13e005b0753c06566061bdc8ef81e2fb207c85a","id":74365087,"location_subtype":"","month":"2019-05"},{"category":"criminal-damage-arson","location_type":"BTP","location":{"latitude":"51.607100","street":{"id":1488711,"name":"Bounds Green (lu Station)"},"longitude":"-0.124362"},"context":"","outcome_status":{"category":"Status update unavailable","date":"2019-09"},"persistent_id":"","id":88718001,"location_subtype":"LU STATION","month":"2019-05"},{"category":"criminal-damage-arson","location_type":"Force","location":{"latitude":"51.607778","street":{"id":981301,"name":"On or near Brownlow Road"},"longitude":"-0.123626"},"context":"","outcome_status":{"category":"Status update unavailable","date":"2019-09"},"persistent_id":"b5ab7b5f230ac66ad59dd2334db568b28833fc59299c91ff57d32e2d8ea19111","id":74294145,"location_subtype":"","month":"2019-05"},{"category":"criminal-damage-arson","location_type":"Force","location":{"latitude":"51.596006","street":{"id":978386,"name":"On or near Nightclub"},"longitude":"-0.109543"},"context":"","outcome_status":{"category":"Status update unavailable","date":"2019-09"},"persistent_id":"90374034757aeaacbfbf49ee6753952753bc908bed9b8d9e83588f1c5d9c25e7","id":74368489,"location_subtype":"","month":"2019-05"},{"category":"criminal-damage-arson","location_type":"Force","location":{"latitude":"51.616908","street":{"id":983982,"name":"On or near Parking Area"},"longitude":"-0.133925"},"context":"","outcome_status":{"category":"Status update unavailable","date":"2019-09"},"persistent_id":"1f33a92345600dc5bf75dc64fbe36d7040c249327acf2f3dbc479cbd02417da9","id":74347364,"location_subtype":"","month":"2019-05"},{"category":"criminal-damage-arson","location_type":"Force","location":{"latitude":"51.615312","street":{"id":983928,"name":"On or near Petrol Station"},"longitude":"-0.101143"},"context":"","outcome_status":{"category":"Status update unavailable","date":"2019-09"},"persistent_id":"9f839d66d555b68ca42153c454760735a7c96f2c678af5dd96dbd4cf75200f38","id":74348167,"location_subtype":"","month":"2019-05"},{"category":"criminal-damage-arson","location_type":"Force","location":{"latitude":"51.600421","street":{"id":981358,"name":"On or near Ewart Grove"},"longitude":"-0.108985"},"context":"","outcome_status":{"category":"Status update unavailable","date":"2019-09"},"persistent_id":"8a1ac54fa3afb7261a6e6ccd9d61a5dd60915cc02bdd95e6c3a107b22bfe9178","id":74328328,"location_subtype":"","month":"2019-05"},{"category":"criminal-damage-arson","location_type":"Force","location":{"latitude":"51.599168","street":{"id":981356,"name":"On or near Lordship Lane"},"longitude":"-0.102091"},"context":"","outcome_status":{"category":"Status update unavailable","date":"2019-09"},"persistent_id":"1fd185d3a4c7e3cfb97f7fb609a6157e53fe182689e57948256f3003c199bdd9","id":74347387,"location_subtype":"","month":"2019-05"},{"category":"criminal-damage-arson","location_type":"Force","location":{"latitude":"51.599483","street":{"id":981561,"name":"On or near Perth Road"},"longitude":"-0.101010"},"context":"","outcome_status":{"category":"Investigation complete; no suspect identified","date":"2020-04"},"persistent_id":"0b8a5b2df5df672c7548f15b6a03ead90e8ad461804320a5a9336defcb336285","id":74358541,"location_subtype":"","month":"2019-05"},{"category":"criminal-damage-arson","location_type":"Force","location":{"latitude":"51.604297","street":{"id":981454,"name":"On or near Falmouth Close"},"longitude":"-0.114008"},"context":"","outcome_status":{"category":"Status update unavailable","date":"2019-09"},"persistent_id":"cac5142b0dfc6ac7ba4864b047a8245a275f186a38ba0e0bc5659f8c7106d495","id":74324499,"location_subtype":"","month":"2019-05"},{"category":"criminal-damage-arson","location_type":"Force","location":{"latitude":"51.607585","street":{"id":981290,"name":"On or near Lynton Gardens"},"longitude":"-0.130653"},"context":"","outcome_status":{"category":"Status update unavailable","date":"2019-09"},"persistent_id":"7bacaf6866fb6b5efa750ceac12e752cfff355e73fb6b364d75d8a8d350a2783","id":74292630,"location_subtype":"","month":"2019-05"},{"category":"criminal-damage-arson","location_type":"Force","location":{"latitude":"51.603431","street":{"id":981411,"name":"On or near Portree Close"},"longitude":"-0.112715"},"context":"","outcome_status":{"category":"Offender given a caution","date":"2019-10"},"persistent_id":"f01676fc5edefa602dcb9c04d783868390a36a18fc5bfc865547529c4856cb64","id":74324401,"location_subtype":"","month":"2019-05"},{"category":"criminal-damage-arson","location_type":"Force","location":{"latitude":"51.610567","street":{"id":981391,"name":"On or near Green Lanes"},"longitude":"-0.109704"},"context":"","outcome_status":{"category":"Local resolution","date":"2019-08"},"persistent_id":"a6138d9e5353b5ef46e94cc6c56246719e73b1aa992602e18ba979bdcb778b07","id":74318102,"location_subtype":"","month":"2019-05"},{"category":"criminal-damage-arson","location_type":"Force","location":{"latitude":"51.604022","street":{"id":981283,"name":"On or near Park Grove"},"longitude":"-0.126583"},"context":"","outcome_status":{"category":"Status update unavailable","date":"2019-09"},"persistent_id":"502178b4d71a17193a0bfae7f5a9c07bb979f6d0f15bc0f90840b70a0860a4d7","id":74354430,"location_subtype":"","month":"2019-05"},{"category":"criminal-damage-arson","location_type":"Force","location":{"latitude":"51.604780","street":{"id":981460,"name":"On or near Clarence Road"},"longitude":"-0.119475"},"context":"","outcome_status":{"category":"Status update unavailable","date":"2019-09"},"persistent_id":"92da90eda726d10794df3ed6ca1e3cf6887f648a903f0f9dfb4681ce35cfee67","id":74334268,"location_subtype":"","month":"2019-05"},{"category":"criminal-damage-arson","location_type":"Force","location":{"latitude":"51.612577","street":{"id":983882,"name":"On or near Bowes Road (north Circular Road)"},"longitude":"-0.113910"},"context":"","outcome_status":{"category":"Status update unavailable","date":"2019-09"},"persistent_id":"ffad383d2ffba938177f622d0764f08e93113102efd3350cfa3d7544572e27f0","id":74358520,"location_subtype":"","month":"2019-05"},{"category":"criminal-damage-arson","location_type":"Force","location":{"latitude":"51.604781","street":{"id":981396,"name":"On or near Crosts Lane"},"longitude":"-0.107764"},"context":"","outcome_status":{"category":"Status update unavailable","date":"2019-09"},"persistent_id":"af250e42fa97c33b0191d15f06dc875bbb1682c33d33165b1ea72558ba055acc","id":74329745,"location_subtype":"","month":"2019-05"},{"category":"criminal-damage-arson","location_type":"Force","location":{"latitude":"51.596006","street":{"id":978386,"name":"On or near Nightclub"},"longitude":"-0.109543"},"context":"","outcome_status":{"category":"Status update unavailable","date":"2019-09"},"persistent_id":"ab3cc5d04d423481b533b977dd04be9e494c758821e5272ab353daefa89aa884","id":74351093,"location_subtype":"","month":"2019-05"},{"category":"criminal-damage-arson","location_type":"Force","location":{"latitude":"51.603431","street":{"id":981411,"name":"On or near Portree Close"},"longitude":"-0.112715"},"context":"","outcome_status":{"category":"Status update unavailable","date":"2019-09"},"persistent_id":"2d49d892c17794809406a91dfde90a92422211c69467fb97e4cc0ef13e81b5bf","id":74302569,"location_subtype":"","month":"2019-05"},{"category":"criminal-damage-arson","location_type":"Force","location":{"latitude":"51.595933","street":{"id":978349,"name":"On or near Parkland Road"},"longitude":"-0.112275"},"context":"","outcome_status":{"category":"Investigation complete; no suspect identified","date":"2020-04"},"persistent_id":"138db25ffb41ad3bcb01923ecba969d042969a6a8aa456807e7408ec3fc2583a","id":74342625,"location_subtype":"","month":"2019-05"},{"category":"criminal-damage-arson","location_type":"Force","location":{"latitude":"51.603431","street":{"id":981411,"name":"On or near Portree Close"},"longitude":"-0.112715"},"context":"","outcome_status":{"category":"Status update unavailable","date":"2019-09"},"persistent_id":"2d49d892c17794809406a91dfde90a92422211c69467fb97e4cc0ef13e81b5bf","id":74302570,"location_subtype":"","month":"2019-05"},{"category":"criminal-damage-arson","location_type":"Force","location":{"latitude":"51.609088","street":{"id":981329,"name":"On or near Cline Road"},"longitude":"-0.133552"},"context":"","outcome_status":{"category":"Investigation complete; no suspect identified","date":"2020-03"},"persistent_id":"807f95cc4a0bb9836ae718e5eb3036d2f3a071866386106896e51bbc040cc8b6","id":74336398,"location_subtype":"","month":"2019-05"},{"category":"criminal-damage-arson","location_type":"Force","location":{"latitude":"51.604658","street":{"id":981433,"name":"On or near Redruth Close"},"longitude":"-0.115235"},"context":"","outcome_status":{"category":"Investigation complete; no suspect identified","date":"2020-03"},"persistent_id":"38408ba57cfecf49b075a744e3061f43891ac25c6b479852d569c6a9be6772e6","id":74323633,"location_subtype":"","month":"2019-05"},{"category":"drugs","location_type":"Force","location":{"latitude":"51.595933","street":{"id":978349,"name":"On or near Parkland Road"},"longitude":"-0.112275"},"context":"","outcome_status":{"category":"Status update unavailable","date":"2019-09"},"persistent_id":"67d8c188a3db097a1dbc682cae89c15215d680f223abc9be7fd9b4f8ddeef7a4","id":74336999,"location_subtype":"","month":"2019-05"},{"category":"drugs","location_type":"Force","location":{"latitude":"51.601958","street":{"id":981386,"name":"On or near Highfield Close"},"longitude":"-0.108372"},"context":"","outcome_status":{"category":"Local resolution","date":"2019-06"},"persistent_id":"bcf7c6a94ed34807d38ae133f621d6c2c5ecfb912cb4b3c3de0b2d9f3e7ad2cf","id":74335881,"location_subtype":"","month":"2019-05"},{"category":"drugs","location_type":"Force","location":{"latitude":"51.610856","street":{"id":983862,"name":"On or near Deans Drive"},"longitude":"-0.098614"},"context":"","outcome_status":{"category":"Investigation complete; no suspect identified","date":"2020-03"},"persistent_id":"a4994827b87b31f256aaf81ccdae4a3c299dff2992b9dd0d85b4a9dda164e046","id":74335093,"location_subtype":"","month":"2019-05"},{"category":"drugs","location_type":"Force","location":{"latitude":"51.609611","street":{"id":981369,"name":"On or near Upsdell Avenue"},"longitude":"-0.106191"},"context":"","outcome_status":{"category":"Offender given penalty notice","date":"2019-05"},"persistent_id":"88bffd16a3fe97e432ba28aaa3060919e96489562d92323f0c0eb7f78b0e68fe","id":74308751,"location_subtype":"","month":"2019-05"},{"category":"drugs","location_type":"Force","location":{"latitude":"51.597980","street":{"id":981482,"name":"On or near Hardy Passage"},"longitude":"-0.109851"},"context":"","outcome_status":{"category":"Court result unavailable","date":"2019-11"},"persistent_id":"f80b1b2667518717d797b564c34cc9683d309159bc5349503e10d4a85a0e770f","id":74356979,"location_subtype":"","month":"2019-05"},{"category":"drugs","location_type":"Force","location":{"latitude":"51.605752","street":{"id":981448,"name":"On or near Hampshire Road"},"longitude":"-0.112807"},"context":"","outcome_status":{"category":"Local resolution","date":"2019-05"},"persistent_id":"ceb555c0d88307a783dfadf90c4552df5ca0b76c836d4d7bb4534bb5c5c5acef","id":74301747,"location_subtype":"","month":"2019-05"},{"category":"drugs","location_type":"Force","location":{"latitude":"51.605752","street":{"id":981448,"name":"On or near Hampshire Road"},"longitude":"-0.112807"},"context":"","outcome_status":{"category":"Offender given a caution","date":"2019-05"},"persistent_id":"4b32f50c9db97a41e58fec1494d696fd687ae05e882c5bea44d0460eefc65bef","id":74303437,"location_subtype":"","month":"2019-05"},{"category":"drugs","location_type":"Force","location":{"latitude":"51.603431","street":{"id":981411,"name":"On or near Portree Close"},"longitude":"-0.112715"},"context":"","outcome_status":{"category":"Offender given penalty notice","date":"2019-05"},"persistent_id":"fb7da08616ae46e50096902fb8712fb3a931f5be844d6c9e036b229392a639e8","id":74337288,"location_subtype":"","month":"2019-05"},{"category":"drugs","location_type":"Force","location":{"latitude":"51.611863","street":{"id":984077,"name":"On or near Lower Park Road"},"longitude":"-0.136760"},"context":"","outcome_status":{"category":"Court result unavailable","date":"2019-11"},"persistent_id":"28523d99072ad65766ed7c06674679711b7f115bba14d0c4b18051c0c670612c","id":74368599,"location_subtype":"","month":"2019-05"},{"category":"drugs","location_type":"Force","location":{"latitude":"51.605838","street":{"id":981312,"name":"On or near Petrol Station"},"longitude":"-0.122089"},"context":"","outcome_status":{"category":"Local resolution","date":"2019-05"},"persistent_id":"8d84ed47ccdb149f73921faddee72b6c6187503ee22eb7b6a18d443a4a8da7b9","id":74337311,"location_subtype":"","month":"2019-05"},{"category":"drugs","location_type":"Force","location":{"latitude":"51.607318","street":{"id":981381,"name":"On or near Maryland Road"},"longitude":"-0.107297"},"context":"","outcome_status":{"category":"Local resolution","date":"2019-05"},"persistent_id":"eacf7cc3420abc75df8ac2e813fb39076d9ff61fa35271f494fb1d443c6fa0e7","id":74291002,"location_subtype":"","month":"2019-05"},{"category":"drugs","location_type":"Force","location":{"latitude":"51.600857","street":{"id":981374,"name":"On or near Progress Way"},"longitude":"-0.106440"},"context":"","outcome_status":{"category":"Local resolution","date":"2019-05"},"persistent_id":"6e262e86215d5b40823e0eae073d8c9ef2d787bbe04b8d5028a41c38751f7ebe","id":74349191,"location_subtype":"","month":"2019-05"},{"category":"drugs","location_type":"Force","location":{"latitude":"51.596510","street":{"id":978330,"name":"On or near Wellesley Road"},"longitude":"-0.107357"},"context":"","outcome_status":{"category":"Local resolution","date":"2019-05"},"persistent_id":"9f54532a36d48669e1e1c08fd46b9bcbd945f0612e1003cc8c2c4da3aedd141a","id":74322151,"location_subtype":"","month":"2019-05"},{"category":"drugs","location_type":"Force","location":{"latitude":"51.599074","street":{"id":981470,"name":"On or near Selborne Road"},"longitude":"-0.114686"},"context":"","outcome_status":{"category":"Local resolution","date":"2019-06"},"persistent_id":"c64b99695146336fb52f8aed454395784f9dffbeb181c9a19c1e44eb8e06dd5e","id":74339728,"location_subtype":"","month":"2019-05"},{"category":"drugs","location_type":"Force","location":{"latitude":"51.603431","street":{"id":981411,"name":"On or near Portree Close"},"longitude":"-0.112715"},"context":"","outcome_status":{"category":"Court result unavailable","date":"2019-11"},"persistent_id":"d279fc2ba2337139908d9c9c28462461defab1ea1ab70dcc408f07c7108633dc","id":74315519,"location_subtype":"","month":"2019-05"},{"category":"drugs","location_type":"Force","location":{"latitude":"51.604780","street":{"id":981460,"name":"On or near Clarence Road"},"longitude":"-0.119475"},"context":"","outcome_status":{"category":"Investigation complete; no suspect identified","date":"2020-04"},"persistent_id":"2991c7cf3b601a04f70690a150c50d82b4ddf29acc90b5a1d0162bdb2f097478","id":74316956,"location_subtype":"","month":"2019-05"},{"category":"drugs","location_type":"Force","location":{"latitude":"51.596847","street":{"id":978302,"name":"On or near Bradley Road"},"longitude":"-0.114316"},"context":"","outcome_status":{"category":"Local resolution","date":"2019-06"},"persistent_id":"a292baa0e5a54c43e6e278210777713a886823369f1ecc043da717204874d4d9","id":74334830,"location_subtype":"","month":"2019-05"},{"category":"other-theft","location_type":"Force","location":{"latitude":"51.614430","street":{"id":983927,"name":"On or near Petrol Station"},"longitude":"-0.109442"},"context":"","outcome_status":{"category":"Status update unavailable","date":"2019-09"},"persistent_id":"88ff97ce2f931d01d9b1390e6aabc2076289e2c0d89262de2ae189081d80e855","id":74292991,"location_subtype":"","month":"2019-05"},{"category":"other-theft","location_type":"Force","location":{"latitude":"51.599168","street":{"id":981356,"name":"On or near Lordship Lane"},"longitude":"-0.102091"},"context":"","outcome_status":{"category":"Status update unavailable","date":"2019-09"},"persistent_id":"b2e671fb3cc2723431ace6de6f043433fec3e29283949baddb824f63caab0bea","id":74292981,"location_subtype":"","month":"2019-05"},{"category":"other-theft","location_type":"Force","location":{"latitude":"51.597980","street":{"id":981482,"name":"On or near Hardy Passage"},"longitude":"-0.109851"},"context":"","outcome_status":{"category":"Status update unavailable","date":"2019-09"},"persistent_id":"4ca512f0a4712b58d0541e339330dcef00d4832622880057d8471bfacc1cc790","id":74369696,"location_subtype":"","month":"2019-05"},{"category":"other-theft","location_type":"Force","location":{"latitude":"51.614430","street":{"id":983927,"name":"On or near Petrol Station"},"longitude":"-0.109442"},"context":"","outcome_status":{"category":"Investigation complete; no suspect identified","date":"2020-03"},"persistent_id":"8854f3802ced7fee4062a294c80d02021f270f2de3fc653a3100fe01d5826fda","id":74316731,"location_subtype":"","month":"2019-05"},{"category":"other-theft","location_type":"Force","location":{"latitude":"51.596981","street":{"id":978275,"name":"On or near Station Road"},"longitude":"-0.117603"},"context":"","outcome_status":{"category":"Status update unavailable","date":"2019-09"},"persistent_id":"9d4a2c074357c2ac10c93a1fe1680d3fc8f3308cb3f6d0af98db62c4c112f971","id":74293089,"location_subtype":"","month":"2019-05"},{"category":"other-theft","location_type":"Force","location":{"latitude":"51.615312","street":{"id":983928,"name":"On or near Petrol Station"},"longitude":"-0.101143"},"context":"","outcome_status":{"category":"Status update unavailable","date":"2019-09"},"persistent_id":"5e2722e8fb4eb36484e242a3c0a3371f89a2da57d815fcb5f8a9cf819c842fee","id":74350264,"location_subtype":"","month":"2019-05"},{"category":"other-theft","location_type":"Force","location":{"latitude":"51.595498","street":{"id":978367,"name":"On or near Gladstone Mews"},"longitude":"-0.108178"},"context":"","outcome_status":{"category":"Status update unavailable","date":"2019-09"},"persistent_id":"1a4c8ddd2f9b28d002e0fd74dd0876486480925130a353bf569982384004fb83","id":74349263,"location_subtype":"","month":"2019-05"},{"category":"other-theft","location_type":"Force","location":{"latitude":"51.615312","street":{"id":983928,"name":"On or near Petrol Station"},"longitude":"-0.101143"},"context":"","outcome_status":{"category":"Status update unavailable","date":"2019-09"},"persistent_id":"9bb7b14dada8ca2811957b720f5dc4eea85c6127716fbdf298cbcdc843f6fea4","id":74350552,"location_subtype":"","month":"2019-05"},{"category":"other-theft","location_type":"Force","location":{"latitude":"51.596530","street":{"id":978378,"name":"On or near Buller Road"},"longitude":"-0.108583"},"context":"","outcome_status":{"category":"Status update unavailable","date":"2019-09"},"persistent_id":"13f4fb6cb22a49b377436648af2e8eebb6f6009fc755240bb7c258decfe603f2","id":74351952,"location_subtype":"","month":"2019-05"},{"category":"other-theft","location_type":"Force","location":{"latitude":"51.605734","street":{"id":981348,"name":"On or near Bounds Green Road"},"longitude":"-0.122844"},"context":"","outcome_status":{"category":"Status update unavailable","date":"2019-09"},"persistent_id":"c07e1ea40759cfbdc9cdb7ad044718f1fc06f6550e5cf9a0abcdbbe7eaf11f6b","id":74354010,"location_subtype":"","month":"2019-05"},{"category":"other-theft","location_type":"Force","location":{"latitude":"51.597144","street":{"id":978342,"name":"On or near Station Road"},"longitude":"-0.110420"},"context":"","outcome_status":{"category":"Status update unavailable","date":"2019-09"},"persistent_id":"c97c5a6f6a5c09ecad6f5b77c6df043b29b28e9dca7d6f6f677169f2e7832b7a","id":74353826,"location_subtype":"","month":"2019-05"},{"category":"other-theft","location_type":"Force","location":{"latitude":"51.594479","street":{"id":978321,"name":"On or near Parking Area"},"longitude":"-0.109636"},"context":"","outcome_status":{"category":"Status update unavailable","date":"2019-09"},"persistent_id":"bc5db1e688cc498f1eda83546e7d90f3b800eee4f165e7092be67967724125d7","id":74328789,"location_subtype":"","month":"2019-05"},{"category":"other-theft","location_type":"Force","location":{"latitude":"51.605734","street":{"id":981348,"name":"On or near Bounds Green Road"},"longitude":"-0.122844"},"context":"","outcome_status":{"category":"Status update unavailable","date":"2019-09"},"persistent_id":"f25ebe68cc13be66dfafb36ed48f17da6941625a0ef1f569e5d61d2514768bf6","id":74307923,"location_subtype":"","month":"2019-05"},{"category":"other-theft","location_type":"Force","location":{"latitude":"51.619171","street":{"id":983957,"name":"On or near Devonshire Mews"},"longitude":"-0.107916"},"context":"","outcome_status":{"category":"Status update unavailable","date":"2019-09"},"persistent_id":"e2033660620f0ce443dca9491fe4f1dfb147fb2aef283a0a257b91940d4ce97b","id":74304218,"location_subtype":"","month":"2019-05"},{"category":"other-theft","location_type":"Force","location":{"latitude":"51.605734","street":{"id":981348,"name":"On or near Bounds Green Road"},"longitude":"-0.122844"},"context":"","outcome_status":{"category":"Status update unavailable","date":"2019-09"},"persistent_id":"e50c31ec358ebc9f348d4b6872d6d5ac4a0e7c9b3f5839b6ff602fbcad7d205f","id":74316247,"location_subtype":"","month":"2019-05"},{"category":"other-theft","location_type":"Force","location":{"latitude":"51.610567","street":{"id":981391,"name":"On or near Green Lanes"},"longitude":"-0.109704"},"context":"","outcome_status":{"category":"Status update unavailable","date":"2019-09"},"persistent_id":"b4af181ffec423152865f53de70ff140ffd70c1a25bfdfe6e74bb05775843fbe","id":74337173,"location_subtype":"","month":"2019-05"},{"category":"other-theft","location_type":"Force","location":{"latitude":"51.610567","street":{"id":981391,"name":"On or near Green Lanes"},"longitude":"-0.109704"},"context":"","outcome_status":{"category":"Status update unavailable","date":"2019-09"},"persistent_id":"b4af181ffec423152865f53de70ff140ffd70c1a25bfdfe6e74bb05775843fbe","id":74337172,"location_subtype":"","month":"2019-05"},{"category":"other-theft","location_type":"Force","location":{"latitude":"51.616259","street":{"id":983925,"name":"On or near Bridge Drive"},"longitude":"-0.110782"},"context":"","outcome_status":{"category":"Status update unavailable","date":"2019-09"},"persistent_id":"b2ccbf0ab31d034651fa016eb371b859320de493d925202e0510264e094638ed","id":74313866,"location_subtype":"","month":"2019-05"},{"category":"other-theft","location_type":"Force","location":{"latitude":"51.597922","street":{"id":981478,"name":"On or near Bedford Road"},"longitude":"-0.121361"},"context":"","outcome_status":{"category":"Status update unavailable","date":"2019-09"},"persistent_id":"62ce2a13c5cffcb493c5e5f54f8382abd06420a60327e7de4344e31cf3c76ec9","id":74355667,"location_subtype":"","month":"2019-05"},{"category":"other-theft","location_type":"Force","location":{"latitude":"51.597980","street":{"id":981482,"name":"On or near Hardy Passage"},"longitude":"-0.109851"},"context":"","outcome_status":{"category":"Status update unavailable","date":"2019-09"},"persistent_id":"f1d999eeb600d343f02f82d0680eeb13f5d60f63e3e7e3560d078e3d69fa5314","id":74316010,"location_subtype":"","month":"2019-05"},{"category":"other-theft","location_type":"Force","location":{"latitude":"51.605734","street":{"id":981348,"name":"On or near Bounds Green Road"},"longitude":"-0.122844"},"context":"","outcome_status":{"category":"Status update unavailable","date":"2019-09"},"persistent_id":"4f19ff1af1a87bde329215fc898b12d190fc8af463b362c85b053b4620e73edd","id":74303285,"location_subtype":"","month":"2019-05"},{"category":"other-theft","location_type":"Force","location":{"latitude":"51.594479","street":{"id":978321,"name":"On or near Parking Area"},"longitude":"-0.109636"},"context":"","outcome_status":{"category":"Status update unavailable","date":"2019-09"},"persistent_id":"3cef8769adeed799693c31ea5144ccd96fbab27a723e3753177f8710b95a22ab","id":74302673,"location_subtype":"","month":"2019-05"},{"category":"other-theft","location_type":"Force","location":{"latitude":"51.615312","street":{"id":983928,"name":"On or near Petrol Station"},"longitude":"-0.101143"},"context":"","outcome_status":{"category":"Status update unavailable","date":"2019-09"},"persistent_id":"df6ab184e13916c6529c601f0c49c7480266a7c7281ec9003800c182893bd04d","id":74350628,"location_subtype":"","month":"2019-05"},{"category":"other-theft","location_type":"Force","location":{"latitude":"51.598214","street":{"id":981479,"name":"On or near Watsons Road"},"longitude":"-0.112051"},"context":"","outcome_status":{"category":"Status update unavailable","date":"2019-09"},"persistent_id":"37bd7b9ca01f484374024f9cd5de280e8799c480ab5a9ae4eaa7aa7791318da4","id":74290352,"location_subtype":"","month":"2019-05"},{"category":"other-theft","location_type":"Force","location":{"latitude":"51.604088","street":{"id":981413,"name":"On or near Adams Mews"},"longitude":"-0.112746"},"context":"","outcome_status":{"category":"Status update unavailable","date":"2019-09"},"persistent_id":"61a67949dac11506c60905acae65ef2c829be3d3abe0d143316daf55a0c2a8c8","id":74290319,"location_subtype":"","month":"2019-05"},{"category":"other-theft","location_type":"Force","location":{"latitude":"51.597926","street":{"id":981486,"name":"On or near Berners Road"},"longitude":"-0.109290"},"context":"","outcome_status":{"category":"Status update unavailable","date":"2019-09"},"persistent_id":"d1e07600351e343c63807339d3eede76be70942a1f2fd6e6191e089078d4b7e4","id":74328445,"location_subtype":"","month":"2019-05"},{"category":"other-theft","location_type":"Force","location":{"latitude":"51.613607","street":{"id":984044,"name":"On or near Bexhill Road"},"longitude":"-0.129915"},"context":"","outcome_status":{"category":"Status update unavailable","date":"2019-09"},