[{"category":"anti-social-behaviour","location_type":"Force","location":{"latitude":"51.651078","street":{"id":987060,"name":"On or near Shopping Area"},"longitude":"-0.081420"},"context":"","outcome_status":null,"persistent_id":"","id":74284671,"location_subtype":"","month":"2019-05"},{"category":"anti-social-behaviour","location_type":"Force","location":{"latitude":"51.641140","street":{"id":985933,"name":"On or near Southfield Road"},"longitude":"-0.049668"},"context":"","outcome_status":null,"persistent_id":"","id":74282500,"location_subtype":"","month":"2019-05"},{"category":"anti-social-behaviour","location_type":"Force","location":{"latitude":"51.641140","street":{"id":985933,"name":"On or near Southfield Road"},"longitude":"-0.049668"},"context":"","outcome_status":null,"persistent_id":"","id":74282502,"location_subtype":"","month":"2019-05"},{"category":"anti-social-behaviour","location_type":"Force","location":{"latitude":"51.635125","street":{"id":985634,"name":"On or near Tramway Avenue"},"longitude":"-0.050259"},"context":"","outcome_status":null,"persistent_id":"","id":74282507,"location_subtype":"","month":"2019-05"},{"category":"anti-social-behaviour","location_type":"Force","location":{"latitude":"51.632374","street":{"id":985614,"name":"On or near Forest Road"},"longitude":"-0.052515"},"context":"","outcome_status":null,"persistent_id":"","id":74282513,"location_subtype":"","month":"2019-05"},{"category":"anti-social-behaviour","location_type":"Force","location":{"latitude":"51.647774","street":{"id":985937,"name":"On or near Poppy Drive"},"longitude":"-0.052231"},"context":"","outcome_status":null,"persistent_id":"","id":74282517,"location_subtype":"","month":"2019-05"},{"category":"anti-social-behaviour","location_type":"Force","location":{"latitude":"51.643242","street":{"id":985938,"name":"On or near Oxford Road"},"longitude":"-0.052801"},"context":"","outcome_status":null,"persistent_id":"","id":74282519,"location_subtype":"","month":"2019-05"},{"category":"anti-social-behaviour","location_type":"Force","location":{"latitude":"51.632950","street":{"id":985599,"name":"On or near North Road"},"longitude":"-0.055207"},"context":"","outcome_status":null,"persistent_id":"","id":74283608,"location_subtype":"","month":"2019-05"},{"category":"anti-social-behaviour","location_type":"Force","location":{"latitude":"51.642370","street":{"id":986158,"name":"On or near Progress Way"},"longitude":"-0.059357"},"context":"","outcome_status":null,"persistent_id":"","id":74283700,"location_subtype":"","month":"2019-05"},{"category":"anti-social-behaviour","location_type":"Force","location":{"latitude":"51.642370","street":{"id":986158,"name":"On or near Progress Way"},"longitude":"-0.059357"},"context":"","outcome_status":null,"persistent_id":"","id":74283702,"location_subtype":"","month":"2019-05"},{"category":"anti-social-behaviour","location_type":"Force","location":{"latitude":"51.628960","street":{"id":985380,"name":"On or near Wrampling Place"},"longitude":"-0.060305"},"context":"","outcome_status":null,"persistent_id":"","id":74283709,"location_subtype":"","month":"2019-05"},{"category":"anti-social-behaviour","location_type":"Force","location":{"latitude":"51.638042","street":{"id":986205,"name":"On or near Cranwich Avenue"},"longitude":"-0.083792"},"context":"","outcome_status":null,"persistent_id":"","id":74284684,"location_subtype":"","month":"2019-05"},{"category":"anti-social-behaviour","location_type":"Force","location":{"latitude":"51.652350","street":{"id":987131,"name":"On or near Burleigh Way"},"longitude":"-0.083347"},"context":"","outcome_status":null,"persistent_id":"","id":74285546,"location_subtype":"","month":"2019-05"},{"category":"anti-social-behaviour","location_type":"Force","location":{"latitude":"51.639199","street":{"id":986018,"name":"On or near Boundary Road"},"longitude":"-0.046500"},"context":"","outcome_status":null,"persistent_id":"","id":74282437,"location_subtype":"","month":"2019-05"},{"category":"anti-social-behaviour","location_type":"Force","location":{"latitude":"51.644899","street":{"id":985969,"name":"On or near Parking Area"},"longitude":"-0.046963"},"context":"","outcome_status":null,"persistent_id":"","id":74282451,"location_subtype":"","month":"2019-05"},{"category":"anti-social-behaviour","location_type":"Force","location":{"latitude":"51.642902","street":{"id":985957,"name":"On or near Clarence Road"},"longitude":"-0.049130"},"context":"","outcome_status":null,"persistent_id":"","id":74282469,"location_subtype":"","month":"2019-05"},{"category":"anti-social-behaviour","location_type":"Force","location":{"latitude":"51.642902","street":{"id":985957,"name":"On or near Clarence Road"},"longitude":"-0.049130"},"context":"","outcome_status":null,"persistent_id":"","id":74282470,"location_subtype":"","month":"2019-05"},{"category":"anti-social-behaviour","location_type":"Force","location":{"latitude":"51.642902","street":{"id":985957,"name":"On or near Clarence Road"},"longitude":"-0.049130"},"context":"","outcome_status":null,"persistent_id":"","id":74282472,"location_subtype":"","month":"2019-05"},{"category":"anti-social-behaviour","location_type":"Force","location":{"latitude":"51.642902","street":{"id":985957,"name":"On or near Clarence Road"},"longitude":"-0.049130"},"context":"","outcome_status":null,"persistent_id":"","id":74282473,"location_subtype":"","month":"2019-05"},{"category":"anti-social-behaviour","location_type":"Force","location":{"latitude":"51.642902","street":{"id":985957,"name":"On or near Clarence Road"},"longitude":"-0.049130"},"context":"","outcome_status":null,"persistent_id":"","id":74282474,"location_subtype":"","month":"2019-05"},{"category":"anti-social-behaviour","location_type":"Force","location":{"latitude":"51.642902","street":{"id":985957,"name":"On or near Clarence Road"},"longitude":"-0.049130"},"context":"","outcome_status":null,"persistent_id":"","id":74282475,"location_subtype":"","month":"2019-05"},{"category":"anti-social-behaviour","location_type":"Force","location":{"latitude":"51.633193","street":{"id":985590,"name":"On or near St Joseph's Road"},"longitude":"-0.050385"},"context":"","outcome_status":null,"persistent_id":"","id":74282478,"location_subtype":"","month":"2019-05"},{"category":"anti-social-behaviour","location_type":"Force","location":{"latitude":"51.644503","street":{"id":985955,"name":"On or near Derby Road"},"longitude":"-0.049148"},"context":"","outcome_status":null,"persistent_id":"","id":74282494,"location_subtype":"","month":"2019-05"},{"category":"anti-social-behaviour","location_type":"Force","location":{"latitude":"51.641140","street":{"id":985933,"name":"On or near Southfield Road"},"longitude":"-0.049668"},"context":"","outcome_status":null,"persistent_id":"","id":74282501,"location_subtype":"","month":"2019-05"},{"category":"anti-social-behaviour","location_type":"Force","location":{"latitude":"51.635814","street":{"id":985639,"name":"On or near Hertford Road"},"longitude":"-0.051732"},"context":"","outcome_status":null,"persistent_id":"","id":74282508,"location_subtype":"","month":"2019-05"},{"category":"anti-social-behaviour","location_type":"Force","location":{"latitude":"51.649392","street":{"id":985959,"name":"On or near Cardiff Road"},"longitude":"-0.050572"},"context":"","outcome_status":null,"persistent_id":"","id":74282509,"location_subtype":"","month":"2019-05"},{"category":"anti-social-behaviour","location_type":"Force","location":{"latitude":"51.643242","street":{"id":985938,"name":"On or near Oxford Road"},"longitude":"-0.052801"},"context":"","outcome_status":null,"persistent_id":"","id":74282518,"location_subtype":"","month":"2019-05"},{"category":"anti-social-behaviour","location_type":"Force","location":{"latitude":"51.640642","street":{"id":986112,"name":"On or near Lee Road"},"longitude":"-0.062538"},"context":"","outcome_status":null,"persistent_id":"","id":74284528,"location_subtype":"","month":"2019-05"},{"category":"anti-social-behaviour","location_type":"Force","location":{"latitude":"51.630097","street":{"id":985437,"name":"On or near Chichester Road"},"longitude":"-0.063782"},"context":"","outcome_status":null,"persistent_id":"","id":74284534,"location_subtype":"","month":"2019-05"},{"category":"anti-social-behaviour","location_type":"Force","location":{"latitude":"51.645815","street":{"id":986100,"name":"On or near Roman Way"},"longitude":"-0.064847"},"context":"","outcome_status":null,"persistent_id":"","id":74284558,"location_subtype":"","month":"2019-05"},{"category":"anti-social-behaviour","location_type":"Force","location":{"latitude":"51.648414","street":{"id":986132,"name":"On or near Bertram Road"},"longitude":"-0.064302"},"context":"","outcome_status":null,"persistent_id":"","id":74284559,"location_subtype":"","month":"2019-05"},{"category":"anti-social-behaviour","location_type":"Force","location":{"latitude":"51.645057","street":{"id":986107,"name":"On or near Main Avenue"},"longitude":"-0.065775"},"context":"","outcome_status":null,"persistent_id":"","id":74284567,"location_subtype":"","month":"2019-05"},{"category":"anti-social-behaviour","location_type":"Force","location":{"latitude":"51.645057","street":{"id":986107,"name":"On or near Main Avenue"},"longitude":"-0.065775"},"context":"","outcome_status":null,"persistent_id":"","id":74284568,"location_subtype":"","month":"2019-05"},{"category":"anti-social-behaviour","location_type":"Force","location":{"latitude":"51.645057","street":{"id":986107,"name":"On or near Main Avenue"},"longitude":"-0.065775"},"context":"","outcome_status":null,"persistent_id":"","id":74284569,"location_subtype":"","month":"2019-05"},{"category":"anti-social-behaviour","location_type":"Force","location":{"latitude":"51.630254","street":{"id":985390,"name":"On or near Stowe Gardens"},"longitude":"-0.065697"},"context":"","outcome_status":null,"persistent_id":"","id":74284572,"location_subtype":"","month":"2019-05"},{"category":"anti-social-behaviour","location_type":"Force","location":{"latitude":"51.640753","street":{"id":986094,"name":"On or near Trinity Avenue"},"longitude":"-0.065958"},"context":"","outcome_status":null,"persistent_id":"","id":74284585,"location_subtype":"","month":"2019-05"},{"category":"anti-social-behaviour","location_type":"Force","location":{"latitude":"51.632056","street":{"id":985397,"name":"On or near Rugby Avenue"},"longitude":"-0.066993"},"context":"","outcome_status":null,"persistent_id":"","id":74284579,"location_subtype":"","month":"2019-05"},{"category":"anti-social-behaviour","location_type":"Force","location":{"latitude":"51.628042","street":{"id":985428,"name":"On or near Cyprus Road"},"longitude":"-0.067886"},"context":"","outcome_status":null,"persistent_id":"","id":74284584,"location_subtype":"","month":"2019-05"},{"category":"anti-social-behaviour","location_type":"Force","location":{"latitude":"51.640753","street":{"id":986094,"name":"On or near Trinity Avenue"},"longitude":"-0.065958"},"context":"","outcome_status":null,"persistent_id":"","id":74284586,"location_subtype":"","month":"2019-05"},{"category":"anti-social-behaviour","location_type":"Force","location":{"latitude":"51.646763","street":{"id":986142,"name":"On or near Sports\/recreation Area"},"longitude":"-0.067235"},"context":"","outcome_status":null,"persistent_id":"","id":74284589,"location_subtype":"","month":"2019-05"},{"category":"anti-social-behaviour","location_type":"Force","location":{"latitude":"51.627132","street":{"id":985379,"name":"On or near Wyldfield Gardens"},"longitude":"-0.067751"},"context":"","outcome_status":null,"persistent_id":"","id":74284593,"location_subtype":"","month":"2019-05"},{"category":"anti-social-behaviour","location_type":"Force","location":{"latitude":"51.638769","street":{"id":986108,"name":"On or near Lynmouth Avenue"},"longitude":"-0.067791"},"context":"","outcome_status":null,"persistent_id":"","id":74284594,"location_subtype":"","month":"2019-05"},{"category":"anti-social-behaviour","location_type":"Force","location":{"latitude":"51.640984","street":{"id":986091,"name":"On or near Wendy Close"},"longitude":"-0.068001"},"context":"","outcome_status":null,"persistent_id":"","id":74284595,"location_subtype":"","month":"2019-05"},{"category":"anti-social-behaviour","location_type":"Force","location":{"latitude":"51.642701","street":{"id":986092,"name":"On or near Tweedy Close"},"longitude":"-0.068477"},"context":"","outcome_status":null,"persistent_id":"","id":74284597,"location_subtype":"","month":"2019-05"},{"category":"anti-social-behaviour","location_type":"Force","location":{"latitude":"51.642701","street":{"id":986092,"name":"On or near Tweedy Close"},"longitude":"-0.068477"},"context":"","outcome_status":null,"persistent_id":"","id":74284598,"location_subtype":"","month":"2019-05"},{"category":"anti-social-behaviour","location_type":"Force","location":{"latitude":"51.629254","street":{"id":985389,"name":"On or near Streamside Close"},"longitude":"-0.069395"},"context":"","outcome_status":null,"persistent_id":"","id":74284600,"location_subtype":"","month":"2019-05"},{"category":"anti-social-behaviour","location_type":"Force","location":{"latitude":"51.641149","street":{"id":986073,"name":"On or near Dryden Road"},"longitude":"-0.071434"},"context":"","outcome_status":null,"persistent_id":"","id":74284606,"location_subtype":"","month":"2019-05"},{"category":"anti-social-behaviour","location_type":"Force","location":{"latitude":"51.646944","street":{"id":986060,"name":"On or near Kingswood Close"},"longitude":"-0.071722"},"context":"","outcome_status":null,"persistent_id":"","id":74284609,"location_subtype":"","month":"2019-05"},{"category":"anti-social-behaviour","location_type":"Force","location":{"latitude":"51.635239","street":{"id":985489,"name":"On or near Porlock Road"},"longitude":"-0.071337"},"context":"","outcome_status":null,"persistent_id":"","id":74284612,"location_subtype":"","month":"2019-05"},{"category":"anti-social-behaviour","location_type":"Force","location":{"latitude":"51.648665","street":{"id":986075,"name":"On or near Cross Road"},"longitude":"-0.071910"},"context":"","outcome_status":null,"persistent_id":"","id":74284615,"location_subtype":"","month":"2019-05"},{"category":"anti-social-behaviour","location_type":"Force","location":{"latitude":"51.634219","street":{"id":985496,"name":"On or near Amberley Gardens"},"longitude":"-0.072739"},"context":"","outcome_status":null,"persistent_id":"","id":74284617,"location_subtype":"","month":"2019-05"},{"category":"anti-social-behaviour","location_type":"Force","location":{"latitude":"51.640881","street":{"id":986042,"name":"On or near Wellington Road"},"longitude":"-0.073208"},"context":"","outcome_status":null,"persistent_id":"","id":74284622,"location_subtype":"","month":"2019-05"},{"category":"anti-social-behaviour","location_type":"Force","location":{"latitude":"51.651618","street":{"id":987245,"name":"On or near Stanley Road"},"longitude":"-0.072666"},"context":"","outcome_status":null,"persistent_id":"","id":74284620,"location_subtype":"","month":"2019-05"},{"category":"anti-social-behaviour","location_type":"Force","location":{"latitude":"51.640881","street":{"id":986042,"name":"On or near Wellington Road"},"longitude":"-0.073208"},"context":"","outcome_status":null,"persistent_id":"","id":74284621,"location_subtype":"","month":"2019-05"},{"category":"anti-social-behaviour","location_type":"Force","location":{"latitude":"51.641704","street":{"id":986056,"name":"On or near Lingfield Close"},"longitude":"-0.075124"},"context":"","outcome_status":null,"persistent_id":"","id":74284626,"location_subtype":"","month":"2019-05"},{"category":"anti-social-behaviour","location_type":"Force","location":{"latitude":"51.653087","street":{"id":987255,"name":"On or near Ladysmith Road"},"longitude":"-0.072315"},"context":"","outcome_status":null,"persistent_id":"","id":74284628,"location_subtype":"","month":"2019-05"},{"category":"anti-social-behaviour","location_type":"Force","location":{"latitude":"51.653087","street":{"id":987255,"name":"On or near Ladysmith Road"},"longitude":"-0.072315"},"context":"","outcome_status":null,"persistent_id":"","id":74284629,"location_subtype":"","month":"2019-05"},{"category":"anti-social-behaviour","location_type":"Force","location":{"latitude":"51.634929","street":{"id":985491,"name":"On or near Clovelly Gardens"},"longitude":"-0.075440"},"context":"","outcome_status":null,"persistent_id":"","id":74284631,"location_subtype":"","month":"2019-05"},{"category":"anti-social-behaviour","location_type":"Force","location":{"latitude":"51.628036","street":{"id":985469,"name":"On or near Hydefield Court"},"longitude":"-0.075703"},"context":"","outcome_status":null,"persistent_id":"","id":74284636,"location_subtype":"","month":"2019-05"},{"category":"anti-social-behaviour","location_type":"Force","location":{"latitude":"51.634929","street":{"id":985491,"name":"On or near Clovelly Gardens"},"longitude":"-0.075440"},"context":"","outcome_status":null,"persistent_id":"","id":74284632,"location_subtype":"","month":"2019-05"},{"category":"anti-social-behaviour","location_type":"Force","location":{"latitude":"51.628672","street":{"id":985477,"name":"On or near Petrol Station"},"longitude":"-0.074997"},"context":"","outcome_status":null,"persistent_id":"","id":74284633,"location_subtype":"","month":"2019-05"},{"category":"anti-social-behaviour","location_type":"Force","location":{"latitude":"51.650276","street":{"id":987279,"name":"On or near Beresford Gardens"},"longitude":"-0.075817"},"context":"","outcome_status":null,"persistent_id":"","id":74284640,"location_subtype":"","month":"2019-05"},{"category":"anti-social-behaviour","location_type":"Force","location":{"latitude":"51.639170","street":{"id":986076,"name":"On or near Constance Road"},"longitude":"-0.075795"},"context":"","outcome_status":null,"persistent_id":"","id":74284641,"location_subtype":"","month":"2019-05"},{"category":"anti-social-behaviour","location_type":"Force","location":{"latitude":"51.637060","street":{"id":986152,"name":"On or near The Brackens"},"longitude":"-0.078168"},"context":"","outcome_status":null,"persistent_id":"","id":74284651,"location_subtype":"","month":"2019-05"},{"category":"anti-social-behaviour","location_type":"Force","location":{"latitude":"51.634101","street":{"id":985463,"name":"On or near Ramscroft Close"},"longitude":"-0.078192"},"context":"","outcome_status":null,"persistent_id":"","id":74284652,"location_subtype":"","month":"2019-05"},{"category":"anti-social-behaviour","location_type":"Force","location":{"latitude":"51.654359","street":{"id":987253,"name":"On or near Orchard Way"},"longitude":"-0.076945"},"context":"","outcome_status":null,"persistent_id":"","id":74284653,"location_subtype":"","month":"2019-05"},{"category":"anti-social-behaviour","location_type":"Force","location":{"latitude":"51.654359","street":{"id":987253,"name":"On or near Orchard Way"},"longitude":"-0.076945"},"context":"","outcome_status":null,"persistent_id":"","id":74284654,"location_subtype":"","month":"2019-05"},{"category":"anti-social-behaviour","location_type":"Force","location":{"latitude":"51.642701","street":{"id":986196,"name":"On or near Mortimer Drive"},"longitude":"-0.078898"},"context":"","outcome_status":null,"persistent_id":"","id":74284661,"location_subtype":"","month":"2019-05"},{"category":"anti-social-behaviour","location_type":"Force","location":{"latitude":"51.645792","street":{"id":986214,"name":"On or near Petrol Station"},"longitude":"-0.081528"},"context":"","outcome_status":null,"persistent_id":"","id":74284667,"location_subtype":"","month":"2019-05"},{"category":"anti-social-behaviour","location_type":"Force","location":{"latitude":"51.645792","street":{"id":986214,"name":"On or near Petrol Station"},"longitude":"-0.081528"},"context":"","outcome_status":null,"persistent_id":"","id":74284668,"location_subtype":"","month":"2019-05"},{"category":"anti-social-behaviour","location_type":"Force","location":{"latitude":"51.652608","street":{"id":987137,"name":"On or near Nightclub"},"longitude":"-0.080965"},"context":"","outcome_status":null,"persistent_id":"","id":74284669,"location_subtype":"","month":"2019-05"},{"category":"anti-social-behaviour","location_type":"Force","location":{"latitude":"51.652608","street":{"id":987137,"name":"On or near Nightclub"},"longitude":"-0.080965"},"context":"","outcome_status":null,"persistent_id":"","id":74284670,"location_subtype":"","month":"2019-05"},{"category":"anti-social-behaviour","location_type":"Force","location":{"latitude":"51.651078","street":{"id":987060,"name":"On or near Shopping Area"},"longitude":"-0.081420"},"context":"","outcome_status":null,"persistent_id":"","id":74284672,"location_subtype":"","month":"2019-05"},{"category":"anti-social-behaviour","location_type":"Force","location":{"latitude":"51.651078","street":{"id":987060,"name":"On or near Shopping Area"},"longitude":"-0.081420"},"context":"","outcome_status":null,"persistent_id":"","id":74284673,"location_subtype":"","month":"2019-05"},{"category":"anti-social-behaviour","location_type":"Force","location":{"latitude":"51.634816","street":{"id":985300,"name":"On or near Aldbury Mews"},"longitude":"-0.081196"},"context":"","outcome_status":null,"persistent_id":"","id":74284675,"location_subtype":"","month":"2019-05"},{"category":"anti-social-behaviour","location_type":"Force","location":{"latitude":"51.651095","street":{"id":987059,"name":"On or near Shopping Area"},"longitude":"-0.082446"},"context":"","outcome_status":null,"persistent_id":"","id":74284679,"location_subtype":"","month":"2019-05"},{"category":"anti-social-behaviour","location_type":"Force","location":{"latitude":"51.645181","street":{"id":986224,"name":"On or near Amwell Close"},"longitude":"-0.083780"},"context":"","outcome_status":null,"persistent_id":"","id":74284682,"location_subtype":"","month":"2019-05"},{"category":"anti-social-behaviour","location_type":"Force","location":{"latitude":"51.636578","street":{"id":985301,"name":"On or near A105"},"longitude":"-0.081686"},"context":"","outcome_status":null,"persistent_id":"","id":74284680,"location_subtype":"","month":"2019-05"},{"category":"anti-social-behaviour","location_type":"Force","location":{"latitude":"51.645181","street":{"id":986224,"name":"On or near Amwell Close"},"longitude":"-0.083780"},"context":"","outcome_status":null,"persistent_id":"","id":74284681,"location_subtype":"","month":"2019-05"},{"category":"anti-social-behaviour","location_type":"Force","location":{"latitude":"51.642902","street":{"id":985957,"name":"On or near Clarence Road"},"longitude":"-0.049130"},"context":"","outcome_status":null,"persistent_id":"","id":74282471,"location_subtype":"","month":"2019-05"},{"category":"anti-social-behaviour","location_type":"Force","location":{"latitude":"51.643242","street":{"id":985938,"name":"On or near Oxford Road"},"longitude":"-0.052801"},"context":"","outcome_status":null,"persistent_id":"","id":74283592,"location_subtype":"","month":"2019-05"},{"category":"anti-social-behaviour","location_type":"Force","location":{"latitude":"51.643242","street":{"id":985938,"name":"On or near Oxford Road"},"longitude":"-0.052801"},"context":"","outcome_status":null,"persistent_id":"","id":74283593,"location_subtype":"","month":"2019-05"},{"category":"anti-social-behaviour","location_type":"Force","location":{"latitude":"51.643242","street":{"id":985938,"name":"On or near Oxford Road"},"longitude":"-0.052801"},"context":"","outcome_status":null,"persistent_id":"","id":74283594,"location_subtype":"","month":"2019-05"},{"category":"anti-social-behaviour","location_type":"Force","location":{"latitude":"51.643242","street":{"id":985938,"name":"On or near Oxford Road"},"longitude":"-0.052801"},"context":"","outcome_status":null,"persistent_id":"","id":74283595,"location_subtype":"","month":"2019-05"},{"category":"anti-social-behaviour","location_type":"Force","location":{"latitude":"51.643242","street":{"id":985938,"name":"On or near Oxford Road"},"longitude":"-0.052801"},"context":"","outcome_status":null,"persistent_id":"","id":74283596,"location_subtype":"","month":"2019-05"},{"category":"anti-social-behaviour","location_type":"Force","location":{"latitude":"51.643242","street":{"id":985938,"name":"On or near Oxford Road"},"longitude":"-0.052801"},"context":"","outcome_status":null,"persistent_id":"","id":74283597,"location_subtype":"","month":"2019-05"},{"category":"anti-social-behaviour","location_type":"Force","location":{"latitude":"51.643242","street":{"id":985938,"name":"On or near Oxford Road"},"longitude":"-0.052801"},"context":"","outcome_status":null,"persistent_id":"","id":74283598,"location_subtype":"","month":"2019-05"},{"category":"anti-social-behaviour","location_type":"Force","location":{"latitude":"51.646324","street":{"id":985953,"name":"On or near Emilia Close"},"longitude":"-0.052640"},"context":"","outcome_status":null,"persistent_id":"","id":74283602,"location_subtype":"","month":"2019-05"},{"category":"anti-social-behaviour","location_type":"Force","location":{"latitude":"51.641916","street":{"id":985958,"name":"On or near Chester Gardens"},"longitude":"-0.053653"},"context":"","outcome_status":null,"persistent_id":"","id":74283606,"location_subtype":"","month":"2019-05"},{"category":"anti-social-behaviour","location_type":"Force","location":{"latitude":"51.634688","street":{"id":985636,"name":"On or near Ripon Road"},"longitude":"-0.054309"},"context":"","outcome_status":null,"persistent_id":"","id":74283607,"location_subtype":"","month":"2019-05"},{"category":"anti-social-behaviour","location_type":"Force","location":{"latitude":"51.632950","street":{"id":985599,"name":"On or near North Road"},"longitude":"-0.055207"},"context":"","outcome_status":null,"persistent_id":"","id":74283609,"location_subtype":"","month":"2019-05"},{"category":"anti-social-behaviour","location_type":"Force","location":{"latitude":"51.632950","street":{"id":985599,"name":"On or near North Road"},"longitude":"-0.055207"},"context":"","outcome_status":null,"persistent_id":"","id":74283619,"location_subtype":"","month":"2019-05"},{"category":"anti-social-behaviour","location_type":"Force","location":{"latitude":"51.632950","street":{"id":985599,"name":"On or near North Road"},"longitude":"-0.055207"},"context":"","outcome_status":null,"persistent_id":"","id":74283620,"location_subtype":"","month":"2019-05"},{"category":"anti-social-behaviour","location_type":"Force","location":{"latitude":"51.649975","street":{"id":987378,"name":"On or near Anglesey Road"},"longitude":"-0.051038"},"context":"","outcome_status":null,"persistent_id":"","id":74283621,"location_subtype":"","month":"2019-05"},{"category":"anti-social-behaviour","location_type":"Force","location":{"latitude":"51.632950","street":{"id":985599,"name":"On or near North Road"},"longitude":"-0.055207"},"context":"","outcome_status":null,"persistent_id":"","id":74283625,"location_subtype":"","month":"2019-05"},{"category":"anti-social-behaviour","location_type":"Force","location":{"latitude":"51.633529","street":{"id":985607,"name":"On or near Houndsfield Road"},"longitude":"-0.055442"},"context":"","outcome_status":null,"persistent_id":"","id":74283630,"location_subtype":"","month":"2019-05"},{"category":"anti-social-behaviour","location_type":"Force","location":{"latitude":"51.633529","street":{"id":985607,"name":"On or near Houndsfield Road"},"longitude":"-0.055442"},"context":"","outcome_status":null,"persistent_id":"","id":74283631,"location_subtype":"","month":"2019-05"},{"category":"anti-social-behaviour","location_type":"Force","location":{"latitude":"51.635149","street":{"id":985641,"name":"On or near Cornish Court"},"longitude":"-0.056096"},"context":"","outcome_status":null,"persistent_id":"","id":74283640,"location_subtype":"","month":"2019-05"},{"category":"anti-social-behaviour","location_type":"Force","location":{"latitude":"51.645412","street":{"id":985947,"name":"On or near Lincoln Way"},"longitude":"-0.055136"},"context":"","outcome_status":null,"persistent_id":"","id":74283648,"location_subtype":"","month":"2019-05"},{"category":"anti-social-behaviour","location_type":"Force","location":{"latitude":"51.630959","street":{"id":985577,"name":"On or near Findon Road"},"longitude":"-0.057185"},"context":"","outcome_status":null,"persistent_id":"","id":74283658,"location_subtype":"","month":"2019-05"},{"category":"anti-social-behaviour","location_type":"Force","location":{"latitude":"51.629724","street":{"id":985443,"name":"On or near Beamish Road"},"longitude":"-0.059145"},"context":"","outcome_status":null,"persistent_id":"","id":74283682,"location_subtype":"","month":"2019-05"},{"category":"anti-social-behaviour","location_type":"Force","location":{"latitude":"51.650716","street":{"id":987207,"name":"On or near Baird Road"},"longitude":"-0.056702"},"context":"","outcome_status":null,"persistent_id":"","id":74283694,"location_subtype":"","month":"2019-05"},{"category":"anti-social-behaviour","location_type":"Force","location":{"latitude":"51.650716","street":{"id":987207,"name":"On or near Baird Road"},"longitude":"-0.056702"},"context":"","outcome_status":null,"persistent_id":"","id":74283695,"location_subtype":"","month":"2019-05"},{"category":"anti-social-behaviour","location_type":"Force","location":{"latitude":"51.642370","street":{"id":986158,"name":"On or near Progress Way"},"longitude":"-0.059357"},"context":"","outcome_status":null,"persistent_id":"","id":74283701,"location_subtype":"","month":"2019-05"},{"category":"anti-social-behaviour","location_type":"Force","location":{"latitude":"51.630918","street":{"id":985439,"name":"On or near Bury Street"},"longitude":"-0.060713"},"context":"","outcome_status":null,"persistent_id":"","id":74283710,"location_subtype":"","month":"2019-05"},{"category":"anti-social-behaviour","location_type":"Force","location":{"latitude":"51.643515","street":{"id":986135,"name":"On or near Ayley Croft"},"longitude":"-0.061722"},"context":"","outcome_status":null,"persistent_id":"","id":74283719,"location_subtype":"","month":"2019-05"},{"category":"anti-social-behaviour","location_type":"Force","location":{"latitude":"51.629903","street":{"id":985429,"name":"On or near Croyland Road"},"longitude":"-0.062417"},"context":"","outcome_status":null,"persistent_id":"","id":74283726,"location_subtype":"","month":"2019-05"},{"category":"anti-social-behaviour","location_type":"Force","location":{"latitude":"51.627883","street":{"id":985402,"name":"On or near Milestone Close"},"longitude":"-0.063125"},"context":"","outcome_status":null,"persistent_id":"","id":74283733,"location_subtype":"","month":"2019-05"},{"category":"anti-social-behaviour","location_type":"Force","location":{"latitude":"51.652147","street":{"id":987224,"name":"On or near Cobham Close"},"longitude":"-0.063276"},"context":"","outcome_status":null,"persistent_id":"","id":74283734,"location_subtype":"","month":"2019-05"},{"category":"anti-social-behaviour","location_type":"Force","location":{"latitude":"51.632362","street":{"id":985422,"name":"On or near Galliard Road"},"longitude":"-0.062659"},"context":"","outcome_status":null,"persistent_id":"","id":74283735,"location_subtype":"","month":"2019-05"},{"category":"anti-social-behaviour","location_type":"Force","location":{"latitude":"51.632387","street":{"id":985279,"name":"On or near Halstead Road"},"longitude":"-0.084434"},"context":"","outcome_status":null,"persistent_id":"","id":74285548,"location_subtype":"","month":"2019-05"},{"category":"anti-social-behaviour","location_type":"Force","location":{"latitude":"51.634501","street":{"id":985310,"name":"On or near Colne Road"},"longitude":"-0.085039"},"context":"","outcome_status":null,"persistent_id":"","id":74285551,"location_subtype":"","month":"2019-05"},{"category":"anti-social-behaviour","location_type":"Force","location":{"latitude":"51.634501","street":{"id":985310,"name":"On or near Colne Road"},"longitude":"-0.085039"},"context":"","outcome_status":null,"persistent_id":"","id":74285552,"location_subtype":"","month":"2019-05"},{"category":"anti-social-behaviour","location_type":"Force","location":{"latitude":"51.638223","street":{"id":986222,"name":"On or near Clarendon Way"},"longitude":"-0.088842"},"context":"","outcome_status":null,"persistent_id":"","id":74285561,"location_subtype":"","month":"2019-05"},{"category":"bicycle-theft","location_type":"Force","location":{"latitude":"51.650716","street":{"id":987207,"name":"On or near Baird Road"},"longitude":"-0.056702"},"context":"","outcome_status":{"category":"Status update unavailable","date":"2019-09"},"persistent_id":"14074f449f40226b54e46fc42fa98e7df653de1129dd39681f4a851a83f673ad","id":74349911,"location_subtype":"","month":"2019-05"},{"category":"bicycle-theft","location_type":"Force","location":{"latitude":"51.650383","street":{"id":987277,"name":"On or near Seaford Road"},"longitude":"-0.073051"},"context":"","outcome_status":{"category":"Status update unavailable","date":"2019-09"},"persistent_id":"381fb03643cef8d1cfc326535889c14d7b71eb531442b5ad6a7c3ad979e8c79b","id":74333659,"location_subtype":"","month":"2019-05"},{"category":"bicycle-theft","location_type":"Force","location":{"latitude":"51.648987","street":{"id":986139,"name":"On or near Petrol Station"},"longitude":"-0.058713"},"context":"","outcome_status":{"category":"Status update unavailable","date":"2019-09"},"persistent_id":"11a501a29b4fb1c39fd06ffae51b64000293d177a4d45817c503c465b800ac72","id":74330712,"location_subtype":"","month":"2019-05"},{"category":"bicycle-theft","location_type":"Force","location":{"latitude":"51.641149","street":{"id":986073,"name":"On or near Dryden Road"},"longitude":"-0.071434"},"context":"","outcome_status":{"category":"Status update unavailable","date":"2019-09"},"persistent_id":"1bf5dd0e724835269b58cf9a497b77860d3091b958605f99b1d883fca8fd666e","id":74306271,"location_subtype":"","month":"2019-05"},{"category":"burglary","location_type":"Force","location":{"latitude":"51.639615","street":{"id":986164,"name":"On or near Park Drive"},"longitude":"-0.091500"},"context":"","outcome_status":{"category":"Status update unavailable","date":"2019-09"},"persistent_id":"30c4959cba2ccea9c52f3258123f9b9cb56221231adda3f27f7c19dd930b409e","id":74344296,"location_subtype":"","month":"2019-05"},{"category":"burglary","location_type":"Force","location":{"latitude":"51.650383","street":{"id":987277,"name":"On or near Seaford Road"},"longitude":"-0.073051"},"context":"","outcome_status":{"category":"Court result unavailable","date":"2020-03"},"persistent_id":"66892ff877cb79756ca50dba8cef733be8cc10972429415a0e7785c15b61070f","id":74318473,"location_subtype":"","month":"2019-05"},{"category":"burglary","location_type":"Force","location":{"latitude":"51.650716","street":{"id":987207,"name":"On or near Baird Road"},"longitude":"-0.056702"},"context":"","outcome_status":{"category":"Status update unavailable","date":"2019-09"},"persistent_id":"8f03e1143cb9cd29642043fc895b7bda38d2835353fd0a3023f1988015b310a6","id":74302120,"location_subtype":"","month":"2019-05"},{"category":"burglary","location_type":"Force","location":{"latitude":"51.641916","street":{"id":985958,"name":"On or near Chester Gardens"},"longitude":"-0.053653"},"context":"","outcome_status":{"category":"Status update unavailable","date":"2019-09"},"persistent_id":"f20f2768a8f2f980ad752b6611610034d305e0be2918f3251ffb51f175df7ff7","id":74329917,"location_subtype":"","month":"2019-05"},{"category":"burglary","location_type":"Force","location":{"latitude":"51.652174","street":{"id":987108,"name":"On or near The Town"},"longitude":"-0.081389"},"context":"","outcome_status":{"category":"Status update unavailable","date":"2019-09"},"persistent_id":"46d2f6e32891600db80daebd327f927d8cf171414cd1e8cb0dfbae16a402471f","id":74326064,"location_subtype":"","month":"2019-05"},{"category":"burglary","location_type":"Force","location":{"latitude":"51.631271","street":{"id":985408,"name":"On or near Lancing Gardens"},"longitude":"-0.066289"},"context":"","outcome_status":{"category":"Status update unavailable","date":"2019-09"},"persistent_id":"8297a831df6485c12f2e51e71bf011d72392a05f88447bfb743036438b532011","id":74313278,"location_subtype":"","month":"2019-05"},{"category":"burglary","location_type":"Force","location":{"latitude":"51.654087","street":{"id":987234,"name":"On or near Sports\/recreation Area"},"longitude":"-0.062022"},"context":"","outcome_status":{"category":"Status update unavailable","date":"2019-09"},"persistent_id":"c8486620176e1525f44ee24672dbd4d9acf3789de878df6e60b6b3d1db56b790","id":74330193,"location_subtype":"","month":"2019-05"},{"category":"burglary","location_type":"Force","location":{"latitude":"51.629903","street":{"id":985429,"name":"On or near Croyland Road"},"longitude":"-0.062417"},"context":"","outcome_status":{"category":"Investigation complete; no suspect identified","date":"2020-04"},"persistent_id":"3bb79373d7e2f1ecc84e8f566aed2587d1a2161054f34a671a8d4e73120cd257","id":74307612,"location_subtype":"","month":"2019-05"},{"category":"burglary","location_type":"Force","location":{"latitude":"51.638177","street":{"id":986064,"name":"On or near Gardenia Road"},"longitude":"-0.074450"},"context":"","outcome_status":{"category":"Status update unavailable","date":"2019-09"},"persistent_id":"044d9e556de75e255699ba8a91ff85ca8ff4b07479149628e19a3b651eb572df","id":74310311,"location_subtype":"","month":"2019-05"},{"category":"burglary","location_type":"Force","location":{"latitude":"51.639268","street":{"id":985940,"name":"On or near Oaklands Avenue"},"longitude":"-0.052841"},"context":"","outcome_status":{"category":"Status update unavailable","date":"2019-09"},"persistent_id":"813ba967a48ff34f047ecf31feaed92aae26af9f2e714d88e108a5d5d038034d","id":74323264,"location_subtype":"","month":"2019-05"},{"category":"burglary","location_type":"Force","location":{"latitude":"51.634094","street":{"id":985465,"name":"On or near Lynton Gardens"},"longitude":"-0.073366"},"context":"","outcome_status":{"category":"Status update unavailable","date":"2019-09"},"persistent_id":"e849225aa6c523aa821705428f0f76e455c2543ca9f4573051e16150a6c157c5","id":74324639,"location_subtype":"","month":"2019-05"},{"category":"burglary","location_type":"Force","location":{"latitude":"51.632950","street":{"id":985599,"name":"On or near North Road"},"longitude":"-0.055207"},"context":"","outcome_status":{"category":"Status update unavailable","date":"2019-09"},"persistent_id":"1e8fbdb0291e46d208422917a5217ea88eb282f1bedbe22876772764866fbe6d","id":74341229,"location_subtype":"","month":"2019-05"},{"category":"burglary","location_type":"Force","location":{"latitude":"51.628036","street":{"id":985469,"name":"On or near Hydefield Court"},"longitude":"-0.075703"},"context":"","outcome_status":{"category":"Status update unavailable","date":"2019-09"},"persistent_id":"21283469ea2f6c7d0b534092d474a59ab6a06efc14c222ca3a2f68000fd743eb","id":74321105,"location_subtype":"","month":"2019-05"},{"category":"burglary","location_type":"Force","location":{"latitude":"51.639891","street":{"id":985951,"name":"On or near Hill Rise"},"longitude":"-0.052468"},"context":"","outcome_status":{"category":"Court result unavailable","date":"2020-04"},"persistent_id":"be071e5f56ae678dc8f6253bf505da9602883fd1cfabaa1e441122b661d7168b","id":74333312,"location_subtype":"","month":"2019-05"},{"category":"burglary","location_type":"Force","location":{"latitude":"51.632691","street":{"id":985441,"name":"On or near Bury Street"},"longitude":"-0.065160"},"context":"","outcome_status":{"category":"Status update unavailable","date":"2019-09"},"persistent_id":"4f5881551f156206b55c9cd7bca2e963088f3829c26b36ea658befa5b48ca0a5","id":74290689,"location_subtype":"","month":"2019-05"},{"category":"burglary","location_type":"Force","location":{"latitude":"51.629254","street":{"id":985389,"name":"On or near Streamside Close"},"longitude":"-0.069395"},"context":"","outcome_status":{"category":"Status update unavailable","date":"2019-09"},"persistent_id":"bc792b34274bd0c1e8b4424ef1f9f4852ee2c27a6831d7a834a4d96f59278166","id":74344290,"location_subtype":"","month":"2019-05"},{"category":"burglary","location_type":"Force","location":{"latitude":"51.642745","street":{"id":986110,"name":"On or near Leighton Road"},"longitude":"-0.065165"},"context":"","outcome_status":{"category":"Status update unavailable","date":"2019-09"},"persistent_id":"e00af09eebf83e99e71881582232660d86e782ca0a1439539a2b180152bf8996","id":74298737,"location_subtype":"","month":"2019-05"},{"category":"burglary","location_type":"Force","location":{"latitude":"51.650559","street":{"id":987208,"name":"On or near Nightclub"},"longitude":"-0.062404"},"context":"","outcome_status":{"category":"Status update unavailable","date":"2019-09"},"persistent_id":"f4ed67a765fda6722050a0ae97e9315950685c680b040a25767e74231cf5d689","id":74348856,"location_subtype":"","month":"2019-05"},{"category":"burglary","location_type":"Force","location":{"latitude":"51.637546","street":{"id":986154,"name":"On or near Manorway"},"longitude":"-0.076009"},"context":"","outcome_status":{"category":"Status update unavailable","date":"2019-09"},"persistent_id":"5586de426448f98e1a7a62e8f6a2e75f5ab23ee41bfe0f236aa160971508af7f","id":74307357,"location_subtype":"","month":"2019-05"},{"category":"burglary","location_type":"Force","location":{"latitude":"51.648884","street":{"id":986187,"name":"On or near Roseneath Walk"},"longitude":"-0.078680"},"context":"","outcome_status":{"category":"Status update unavailable","date":"2019-09"},"persistent_id":"a23b860bf28494db927b80d85ddd31b16d0c036df1b35316122c7223e4fe436b","id":74349610,"location_subtype":"","month":"2019-05"},{"category":"burglary","location_type":"Force","location":{"latitude":"51.636714","street":{"id":985309,"name":"On or near Devonshire Gardens"},"longitude":"-0.088400"},"context":"","outcome_status":{"category":"Status update unavailable","date":"2019-09"},"persistent_id":"ddcb065c567d5fe085acd1498f228d1d3c962c681e927ea59c29e4275cf5fb60","id":74356133,"location_subtype":"","month":"2019-05"},{"category":"burglary","location_type":"Force","location":{"latitude":"51.650559","street":{"id":987208,"name":"On or near Nightclub"},"longitude":"-0.062404"},"context":"","outcome_status":{"category":"Local resolution","date":"2019-09"},"persistent_id":"2b3fdb369989b17b52d51c231c57addd1881a4ac52e48d5439d99637f2d13bab","id":74357752,"location_subtype":"","month":"2019-05"},{"category":"burglary","location_type":"Force","location":{"latitude":"51.632950","street":{"id":985599,"name":"On or near North Road"},"longitude":"-0.055207"},"context":"","outcome_status":{"category":"Status update unavailable","date":"2019-09"},"persistent_id":"4ec461df4301759cf86adaf87beb5430a2802af39d5b62bf7c06c3e6bee543b3","id":74303076,"location_subtype":"","month":"2019-05"},{"category":"burglary","location_type":"Force","location":{"latitude":"51.645561","street":{"id":986138,"name":"On or near Agricola Place"},"longitude":"-0.066896"},"context":"","outcome_status":{"category":"Status update unavailable","date":"2019-09"},"persistent_id":"c78f3369ec3adc5b3d16d4561ae3bd689e38f7f531c930e088b3db81c95cd8c7","id":74301606,"location_subtype":"","month":"2019-05"},{"category":"burglary","location_type":"Force","location":{"latitude":"51.648592","street":{"id":986043,"name":"On or near Waddington Close"},"longitude":"-0.074558"},"context":"","outcome_status":{"category":"Status update unavailable","date":"2019-09"},"persistent_id":"f54c58345c4e88d789309ead8ac5ca467431e2f883d079dd9d7758fecd1352ec","id":74300099,"location_subtype":"","month":"2019-05"},{"category":"burglary","location_type":"Force","location":{"latitude":"51.643731","street":{"id":986095,"name":"On or near Third Avenue"},"longitude":"-0.068260"},"context":"","outcome_status":{"category":"Status update unavailable","date":"2019-09"},"persistent_id":"dfa07521065557b2f97b8cdb810bd5e8e4e82ff6ebc513421844f0d1de46a5cf","id":74311537,"location_subtype":"","month":"2019-05"},{"category":"burglary","location_type":"Force","location":{"latitude":"51.649459","street":{"id":986189,"name":"On or near Raleigh Road"},"longitude":"-0.083064"},"context":"","outcome_status":{"category":"Status update unavailable","date":"2019-09"},"persistent_id":"e78e6b3367bf155309607ca8d095d0d603a38f067b8bfc6f655552f2b3fc1800","id":74335806,"location_subtype":"","month":"2019-05"},{"category":"burglary","location_type":"Force","location":{"latitude":"51.646150","street":{"id":986116,"name":"On or near James Street"},"longitude":"-0.067723"},"context":"","outcome_status":{"category":"Status update unavailable","date":"2019-09"},"persistent_id":"790894d3867cfdd6b0b218a96f2de04a03075e010f36bcd12e9faa6a1e87a88a","id":74351716,"location_subtype":"","month":"2019-05"},{"category":"burglary","location_type":"Force","location":{"latitude":"51.638769","street":{"id":986108,"name":"On or near Lynmouth Avenue"},"longitude":"-0.067791"},"context":"","outcome_status":{"category":"Status update unavailable","date":"2019-09"},"persistent_id":"d377a61b7b414711d4454022eb3f071a0b062bed682a7dceecf4936b0d29a16d","id":74314934,"location_subtype":"","month":"2019-05"},{"category":"burglary","location_type":"Force","location":{"latitude":"51.638537","street":{"id":986099,"name":"On or near Savernake Road"},"longitude":"-0.060272"},"context":"","outcome_status":{"category":"Status update unavailable","date":"2019-09"},"persistent_id":"56030f8f947ba48a877dae5572c16cc1931a962e0c4fd97ee609adc1df367eb0","id":74356872,"location_subtype":"","month":"2019-05"},{"category":"burglary","location_type":"Force","location":{"latitude":"51.629254","street":{"id":985389,"name":"On or near Streamside Close"},"longitude":"-0.069395"},"context":"","outcome_status":{"category":"Status update unavailable","date":"2019-09"},"persistent_id":"db529b3ae7d56b41aae48b6215584122e7419baff24b0783feca72404b4ee29b","id":74299857,"location_subtype":"","month":"2019-05"},{"category":"criminal-damage-arson","location_type":"Force","location":{"latitude":"51.645181","street":{"id":986224,"name":"On or near Amwell Close"},"longitude":"-0.083780"},"context":"","outcome_status":{"category":"Status update unavailable","date":"2019-09"},"persistent_id":"bb332df9d8b23e374911cccb8d3c51dd867ab55340611e50c898dfef0d263e0c","id":74301346,"location_subtype":"","month":"2019-05"},{"category":"criminal-damage-arson","location_type":"Force","location":{"latitude":"51.641704","street":{"id":986056,"name":"On or near Lingfield Close"},"longitude":"-0.075124"},"context":"","outcome_status":{"category":"Status update unavailable","date":"2019-09"},"persistent_id":"053011837bbe36fb80ac6eab34bf435cd102a2af05efea5eb7a3dce7643a9094","id":74369316,"location_subtype":"","month":"2019-05"},{"category":"criminal-damage-arson","location_type":"Force","location":{"latitude":"51.632362","street":{"id":985422,"name":"On or near Galliard Road"},"longitude":"-0.062659"},"context":"","outcome_status":{"category":"Status update unavailable","date":"2019-09"},"persistent_id":"6f7b61c8168cce2169b8feb4b271e8a0168f82e62c457fe35aea3bec2c3d75fc","id":74290103,"location_subtype":"","month":"2019-05"},{"category":"criminal-damage-arson","location_type":"Force","location":{"latitude":"51.649664","street":{"id":987280,"name":"On or near Southbury Road"},"longitude":"-0.061575"},"context":"","outcome_status":{"category":"Status update unavailable","date":"2019-09"},"persistent_id":"387ddcd70e6e6bad1c4515a786819b88fa5ef318e83543c7f60de944fdca127a","id":74313243,"location_subtype":"","month":"2019-05"},{"category":"criminal-damage-arson","location_type":"Force","location":{"latitude":"51.631732","street":{"id":985604,"name":"On or near Lowden Road"},"longitude":"-0.052832"},"context":"","outcome_status":{"category":"Status update unavailable","date":"2019-09"},"persistent_id":"267ee08963f795f2b878ee33b080282fdc12ea9b7e63734e306912ce1ab70eb5","id":74330434,"location_subtype":"","month":"2019-05"},{"category":"criminal-damage-arson","location_type":"Force","location":{"latitude":"51.652283","street":{"id":987111,"name":"On or near Southbury Road"},"longitude":"-0.079750"},"context":"","outcome_status":{"category":"Status update unavailable","date":"2019-09"},"persistent_id":"8c81dca7a3e00b56da27fdf34416226c17467597457b0766081099a16c0b9cfe","id":74368562,"location_subtype":"","month":"2019-05"},{"category":"criminal-damage-arson","location_type":"Force","location":{"latitude":"51.647087","street":{"id":986192,"name":"On or near Park Crescent"},"longitude":"-0.081502"},"context":"","outcome_status":{"category":"Status update unavailable","date":"2019-09"},"persistent_id":"43b1170815e5c1e8519829fb396eb988a754f21dd8fc704f250d5cd28398413a","id":74324566,"location_subtype":"","month":"2019-05"},{"category":"criminal-damage-arson","location_type":"Force","location":{"latitude":"51.644301","street":{"id":985946,"name":"On or near Lockhart Close"},"longitude":"-0.051570"},"context":"","outcome_status":{"category":"Status update unavailable","date":"2019-09"},"persistent_id":"a8456a5d8ebf1930845eb9a9325653c76421a650e34542b842709f8e4d9f728a","id":74323064,"location_subtype":"","month":"2019-05"},{"category":"criminal-damage-arson","location_type":"Force","location":{"latitude":"51.651078","street":{"id":987060,"name":"On or near Shopping Area"},"longitude":"-0.081420"},"context":"","outcome_status":{"category":"Status update unavailable","date":"2019-09"},"persistent_id":"82b7007517c7d8f6e15b8356710d14d14921cf5a1dd877fe6f0e56cd48f9ee60","id":74345398,"location_subtype":"","month":"2019-05"},{"category":"criminal-damage-arson","location_type":"Force","location":{"latitude":"51.645181","street":{"id":986224,"name":"On or near Amwell Close"},"longitude":"-0.083780"},"context":"","outcome_status":{"category":"Status update unavailable","date":"2019-09"},"persistent_id":"bb332df9d8b23e374911cccb8d3c51dd867ab55340611e50c898dfef0d263e0c","id":74301347,"location_subtype":"","month":"2019-05"},{"category":"criminal-damage-arson","location_type":"Force","location":{"latitude":"51.650383","street":{"id":987277,"name":"On or near Seaford Road"},"longitude":"-0.073051"},"context":"","outcome_status":{"category":"Status update unavailable","date":"2019-09"},"persistent_id":"98e01afa540d4c6cac2652fde6adf4e1b41c212da060936ef2430b48ca9eb54c","id":74350886,"location_subtype":"","month":"2019-05"},{"category":"criminal-damage-arson","location_type":"Force","location":{"latitude":"51.652147","street":{"id":987224,"name":"On or near Cobham Close"},"longitude":"-0.063276"},"context":"","outcome_status":{"category":"Status update unavailable","date":"2019-09"},"persistent_id":"6f33b4cb8ff6503df2668cab86a841a594b6542256951dd4fd3cdb8006381a23","id":74327373,"location_subtype":"","month":"2019-05"},{"category":"criminal-damage-arson","location_type":"Force","location":{"latitude":"51.631648","street":{"id":985377,"name":"On or near Ainsley Close"},"longitude":"-0.079365"},"context":"","outcome_status":{"category":"Status update unavailable","date":"2019-09"},"persistent_id":"deb7290b4655f0a0c7612c3d7f9f3e9627bc33f6def9770b050ef0e9eeebe65c","id":74356983,"location_subtype":"","month":"2019-05"},{"category":"criminal-damage-arson","location_type":"Force","location":{"latitude":"51.643515","street":{"id":986135,"name":"On or near Ayley Croft"},"longitude":"-0.061722"},"context":"","outcome_status":{"category":"Status update unavailable","date":"2019-09"},"persistent_id":"e85fc2c9afd0c0b68858ad632e9900b052be4f834abf9bebf9398c4ee990c3ce","id":74297566,"location_subtype":"","month":"2019-05"},{"category":"criminal-damage-arson","location_type":"Force","location":{"latitude":"51.653087","street":{"id":987255,"name":"On or near Ladysmith Road"},"longitude":"-0.072315"},"context":"","outcome_status":{"category":"Status update unavailable","date":"2019-09"},"persistent_id":"02ad44ab6a9e522eee57b41d91d8ec822d6f1cd22b4ba43a7488ee05019eae38","id":74298747,"location_subtype":"","month":"2019-05"},{"category":"criminal-damage-arson","location_type":"Force","location":{"latitude":"51.629558","street":{"id":985401,"name":"On or near Millbrook Road"},"longitude":"-0.057866"},"context":"","outcome_status":{"category":"Status update unavailable","date":"2019-09"},"persistent_id":"96859701981379b6c27902b26e910bc6d05b518f62ed4a50a2c9c6e7d1ff16c0","id":74364761,"location_subtype":"","month":"2019-05"},{"category":"criminal-damage-arson","location_type":"Force","location":{"latitude":"51.636526","street":{"id":985458,"name":"On or near Delhi Road"},"longitude":"-0.069245"},"context":"","outcome_status":{"category":"Status update unavailable","date":"2019-09"},"persistent_id":"e48c50ae4df290c52949e34ac6104d4fcc649f6f9f5938c68762d92e4b978c41","id":74313035,"location_subtype":"","month":"2019-05"},{"category":"criminal-damage-arson","location_type":"Force","location":{"latitude":"51.641916","street":{"id":985958,"name":"On or near Chester Gardens"},"longitude":"-0.053653"},"context":"","outcome_status":{"category":"Offender given a caution","date":"2019-05"},"persistent_id":"e51a7a614b72087e2924fb123dae7a77f99ebb9c890036a6b3a04f928979280b","id":74361635,"location_subtype":"","month":"2019-05"},{"category":"criminal-damage-arson","location_type":"Force","location":{"latitude":"51.639199","street":{"id":986018,"name":"On or near Boundary Road"},"longitude":"-0.046500"},"context":"","outcome_status":{"category":"Status update unavailable","date":"2019-09"},"persistent_id":"dc3d2be775005c2b0f65979d01dfd1cc83e52abc2c6302a7c5ea423baed8854f","id":74333557,"location_subtype":"","month":"2019-05"},{"category":"criminal-damage-arson","location_type":"Force","location":{"latitude":"51.636526","street":{"id":985458,"name":"On or near Delhi Road"},"longitude":"-0.069245"},"context":"","outcome_status":{"category":"Status update unavailable","date":"2019-09"},"persistent_id":"c054f3318eb0f3fc2ed8c387d0836f80d9e58a9a2b40ac610b9119b198ea9773","id":74311501,"location_subtype":"","month":"2019-05"},{"category":"criminal-damage-arson","location_type":"Force","location":{"latitude":"51.642715","street":{"id":986136,"name":"On or near Ayley Croft"},"longitude":"-0.062782"},"context":"","outcome_status":{"category":"Status update unavailable","date":"2019-09"},"persistent_id":"e75af51a29ed303f9f604db8a5fe100b48089f077859ae1b286b852df54a27a3","id":74344250,"location_subtype":"","month":"2019-05"},{"category":"drugs","location_type":"Force","location":{"latitude":"51.632374","street":{"id":985614,"name":"On or near Forest Road"},"longitude":"-0.052515"},"context":"","outcome_status":{"category":"Status update unavailable","date":"2019-09"},"persistent_id":"938781a15684fba88b456879d1c463cbdd97b3e28cc0daac7d7ee8ca4722dea8","id":74331500,"location_subtype":"","month":"2019-05"},{"category":"drugs","location_type":"Force","location":{"latitude":"51.648096","street":{"id":986040,"name":"On or near Woodfield Close"},"longitude":"-0.075620"},"context":"","outcome_status":{"category":"Offender given community sentence","date":"2019-05"},"persistent_id":"c6179a726a75e69d7e26faa9788f5dd5db74e2bc4fad43489a1896f602d3754c","id":74351346,"location_subtype":"","month":"2019-05"},{"category":"drugs","location_type":"Force","location":{"latitude":"51.646756","street":{"id":985936,"name":"On or near Queensway"},"longitude":"-0.049413"},"context":"","outcome_status":{"category":"Local resolution","date":"2019-05"},"persistent_id":"91b6cf5057ea774af501cceba244b84bcd06793b72ec205e6d482f06ca382b62","id":74312158,"location_subtype":"","month":"2019-05"},{"category":"drugs","location_type":"Force","location":{"latitude":"51.642105","street":{"id":985941,"name":"On or near Northfield Road"},"longitude":"-0.050927"},"context":"","outcome_status":{"category":"Court result unavailable","date":"2020-02"},"persistent_id":"f1c83f2854a06aca5105db51d73eb5cff0dca51109897421c3efab3f37c9ac8a","id":74342947,"location_subtype":"","month":"2019-05"},{"category":"drugs","location_type":"Force","location":{"latitude":"51.640984","street":{"id":986091,"name":"On or near Wendy Close"},"longitude":"-0.068001"},"context":"","outcome_status":{"category":"Court result unavailable","date":"2020-07"},"persistent_id":"6e50a7a4cede47337c541f12c756e39d4b9e7d7c7fe53bffbee63b376da9ca6a","id":74330372,"location_subtype":"","month":"2019-05"},{"category":"drugs","location_type":"Force","location":{"latitude":"51.653087","street":{"id":987255,"name":"On or near Ladysmith Road"},"longitude":"-0.072315"},"context":"","outcome_status":{"category":"Investigation complete; no suspect identified","date":"2020-04"},"persistent_id":"93dc46873bc32de588f73e97be5a923ac77b24633173a9e166586018274ece6d","id":74301745,"location_subtype":"","month":"2019-05"},{"category":"drugs","location_type":"Force","location":{"latitude":"51.635144","street":{"id":985646,"name":"On or near Petrol Station"},"longitude":"-0.053032"},"context":"","outcome_status":{"category":"Status update unavailable","date":"2019-09"},"persistent_id":"50408ecca93922f5e8269faa111e774249f60db189db43dc0ea192c19c45976f","id":74302572,"location_subtype":"","month":"2019-05"},{"category":"drugs","location_type":"Force","location":{"latitude":"51.650716","street":{"id":987207,"name":"On or near Baird Road"},"longitude":"-0.056702"},"context":"","outcome_status":{"category":"Local resolution","date":"2019-05"},"persistent_id":"a23345f889f391fafa426dc7e1f783faf27918cb64a223f431e7eda87050dc95","id":74292374,"location_subtype":"","month":"2019-05"},{"category":"drugs","location_type":"Force","location":{"latitude":"51.636474","street":{"id":985366,"name":"On or near Green Dragon Lane"},"longitude":"-0.090780"},"context":"","outcome_status":{"category":"Offender given a caution","date":"2019-12"},"persistent_id":"8418c1d13b10d341439c5ed9955f20b157b286e9eced6d51ee093663866e9e46","id":74323020,"location_subtype":"","month":"2019-05"},{"category":"drugs","location_type":"Force","location":{"latitude":"51.650611","street":{"id":987205,"name":"On or near Southbury Road"},"longitude":"-0.065597"},"context":"","outcome_status":{"category":"Court result unavailable","date":"2019-11"},"persistent_id":"81cdc991cf95d4c9b9bd9b28e3127da816af8acbac9855fb2f44f2816d36013d","id":74322155,"location_subtype":"","month":"2019-05"},{"category":"drugs","location_type":"Force","location":{"latitude":"51.653655","street":{"id":987128,"name":"On or near Church Lane"},"longitude":"-0.081196"},"context":"","outcome_status":{"category":"Offender given penalty notice","date":"2019-05"},"persistent_id":"cac74b268048bdab7da3578a3d91bdf87de57695c7084106beebcc51b9c8238a","id":74299144,"location_subtype":"","month":"2019-05"},{"category":"drugs","location_type":"Force","location":{"latitude":"51.636769","street":{"id":985306,"name":"On or near Oxford Gardens"},"longitude":"-0.086822"},"context":"","outcome_status":{"category":"Offender given a caution","date":"2019-05"},"persistent_id":"169f64eb3c26d27a921239190fe73066c2a188f76845331b85c12c301ba0f2f4","id":74360766,"location_subtype":"","month":"2019-05"},{"category":"drugs","location_type":"Force","location":{"latitude":"51.648644","street":{"id":985934,"name":"On or near Southbury Road"},"longitude":"-0.049404"},"context":"","outcome_status":{"category":"Local resolution","date":"2019-05"},"persistent_id":"7e02002cd02a8a7a7c3fbb7c6d70c3cc3ef5819a7c4bdc87e019042f2941e053","id":74359127,"location_subtype":"","month":"2019-05"},{"category":"drugs","location_type":"Force","location":{"latitude":"51.646756","street":{"id":985936,"name":"On or near Queensway"},"longitude":"-0.049413"},"context":"","outcome_status":{"category":"Local resolution","date":"2019-05"},"persistent_id":"1979641cd86598647d4a195a91107d3a3d68bdb4546cbc009f697e9af8c02005","id":74315874,"location_subtype":"","month":"2019-05"},{"category":"drugs","location_type":"Force","location":{"latitude":"51.639830","street":{"id":986001,"name":"On or near Hertford Road"},"longitude":"-0.047672"},"context":"","outcome_status":{"category":"Status update unavailable","date":"2019-09"},"persistent_id":"508593226b62c2d8e76a93fff749b42ce85c20de9a6dc8b15eec34913e8e6361","id":74319311,"location_subtype":"","month":"2019-05"},{"category":"drugs","location_type":"Force","location":{"latitude":"51.644899","street":{"id":985969,"name":"On or near Parking Area"},"longitude":"-0.046963"},"context":"","outcome_status":{"category":"Local resolution","date":"2019-05"},"persistent_id":"32cf5ba2d6ddb505ec98ab0abb7fb5d34c594c10310a0ceefaa0dda40842def3","id":74318785,"location_subtype":"","month":"2019-05"},{"category":"other-theft","location_type":"Force","location":{"latitude":"51.628672","street":{"id":985477,"name":"On or near Petrol Station"},"longitude":"-0.074997"},"context":"","outcome_status":{"category":"Status update unavailable","date":"2019-09"},"persistent_id":"980b5ab5cc72fc00e670cf101d094410991783c6e1de9aacf4398fe3391bdd9d","id":74353990,"location_subtype":"","month":"2019-05"},{"category":"other-theft","location_type":"BTP","location":{"latitude":"51.652100","street":{"id":1486570,"name":"Enfield Town (station)"},"longitude":"-0.079424"},"context":"","outcome_status":{"category":"Status update unavailable","date":"2019-09"},"persistent_id":"","id":88717360,"location_subtype":"STATION","month":"2019-05"},{"category":"other-theft","location_type":"Force","location":{"latitude":"51.650559","street":{"id":987208,"name":"On or near Nightclub"},"longitude":"-0.062404"},"context":"","outcome_status":{"category":"Status update unavailable","date":"2019-09"},"persistent_id":"4deaa7127a67704ef138ad19a608843adf1530920cccd9a12a05307527229b25","id":74313317,"location_subtype":"","month":"2019-05"},{"category":"other-theft","location_type":"Force","location":{"latitude":"51.653123","street":{"id":987104,"name":"On or near Parking Area"},"longitude":"-0.080033"},"context":"","outcome_status":{"category":"Status update unavailable","date":"2019-09"},"persistent_id":"9068649ffe6e29a05f55493999ad9fb39b838a8b86df29dea7687f73bcad3be6","id":74355695,"location_subtype":"","month":"2019-05"},{"category":"other-theft","location_type":"Force","location":{"latitude":"51.650716","street":{"id":987207,"name":"On or near Baird Road"},"longitude":"-0.056702"},"context":"","outcome_status":{"category":"Investigation complete; no suspect identified","date":"2020-03"},"persistent_id":"d4c829798b0b61740476bfa287da92126e584cbe98f5f582c734070b97d4cbfa","id":74292504,"location_subtype":"","month":"2019-05"},{"category":"other-theft","location_type":"Force","location":{"latitude":"51.651514","street":{"id":987120,"name":"On or near Genotin Road"},"longitude":"-0.079494"},"context":"","outcome_status":{"category":"Status update unavailable","date":"2019-09"},"persistent_id":"f483f48eec8b9b64f8cc49d608363e616c712cf61b99471a56d512d90d744228","id":74329948,"location_subtype":"","month":"2019-05"},{"category":"other-theft","location_type":"Force","location":{"latitude":"51.650716","street":{"id":987207,"name":"On or near Baird Road"},"longitude":"-0.056702"},"context":"","outcome_status":{"category":"Status update unavailable","date":"2019-09"},"persistent_id":"81a7ba11559be36cc29497668d62e23f7cebb58f77d10c09fe12c9a05f8250a6","id":74331317,"location_subtype":"","month":"2019-05"},{"category":"other-theft","location_type":"Force","location":{"latitude":"51.651748","street":{"id":987239,"name":"On or near Parking Area"},"longitude":"-0.076231"},"context":"","outcome_status":{"category":"Status update unavailable","date":"2019-09"},"persistent_id":"f58cec5903151ee34d516ec3e6d114451c65c78609b1244d86ff3a395bdf66ee","id":74332592,"location_subtype":"","month":"2019-05"},{"category":"other-theft","location_type":"Force","location":{"latitude":"51.635144","street":{"id":985646,"name":"On or near Petrol Station"},"longitude":"-0.053032"},"context":"","outcome_status":{"category":"Status update unavailable","date":"2019-09"},"persistent_id":"403e93ae16e7aa2193ee7679570ba10c7b8af26eca57fca6adcfb2f008b25c00","id":74337171,"location_subtype":"","month":"2019-05"},{"category":"other-theft","location_type":"Force","location":{"latitude":"51.628672","street":{"id":985477,"name":"On or near Petrol Station"},"longitude":"-0.074997"},"context":"","outcome_status":{"category":"Status update unavailable","date":"2019-09"},"persistent_id":"5a6ff3781b7923a2cdc2524799dfe8dee1645b2312c3c372de8dde2c4e7a19df","id":74299772,"location_subtype":"","month":"2019-05"},{"category":"other-theft","location_type":"Force","location":{"latitude":"51.651478","street":{"id":987116,"name":"On or near London Road"},"longitude":"-0.080565"},"context":"","outcome_status":{"category":"Status update unavailable","date":"2019-09"},"persistent_id":"2287dfc17dd568fa3c7881915e88b81b21b2726353bdf70d7f9d08ca13c8dd35","id":74298018,"location_subtype":"","month":"2019-05"},{"category":"other-theft","location_type":"Force","location":{"latitude":"51.650716","street":{"id":987207,"name":"On or near Baird Road"},"longitude":"-0.056702"},"context":"","outcome_status":{"category":"Status update unavailable","date":"2019-09"},"persistent_id":"02dc5f39ae1eef0e3c0a4c773238315473a16e5d8996c4d25aa93b41a8a4b0db","id":74312220,"location_subtype":"","month":"2019-05"},{"category":"other-theft","location_type":"Force","location":{"latitude":"51.645792","street":{"id":986214,"name":"On or near Petrol Station"},"longitude":"-0.081528"},"context":"","outcome_status":{"category":"Status update unavailable","date":"2019-09"},"persistent_id":"c391fba4169885155e7b17f1284273488a857a3f2787f2b398ae53c19f729aca","id":74336553,"location_subtype":"","month":"2019-05"},{"category":"other-theft","location_type":"Force","location":{"latitude":"51.650559","street":{"id":987208,"name":"On or near Nightclub"},"longitude":"-0.062404"},"context":"","outcome_status":{"category":"Status update unavailable","date":"2019-09"},"persistent_id":"cae7bf983b7504837a39f85923de9297966559af7856ef851ccfb85e9a30bf7a","id":74336389,"location_subtype":"","month":"2019-05"},{"category":"other-theft","location_type":"Force","location":{"latitude":"51.636578","street":{"id":985301,"name":"On or near A105"},"longitude":"-0.081686"},"context":"","outcome_status":{"category":"Investigation complete; no suspect identified","date":"2020-03"},"persistent_id":"4d2bc6e37dd8c53187921e327bcdfbaca3bc3e2c591da496bc315658d5aa1e76","id":74311794,"location_subtype":"","month":"2019-05"},{"category":"other-theft","location_type":"Force","location":{"latitude":"51.648096","street":{"id":986040,"name":"On or near Woodfield Close"},"longitude":"-0.075620"},"context":"","outcome_status":{"category":"Status update unavailable","date":"2019-09"},"persistent_id":"085a2fca184bd0b1ea4c3a03e11786e7bfe45d4fb0c73d65db967bb753bca58a","id":74315452,"location_subtype":"","month":"2019-05"},{"category":"other-theft","location_type":"Force","location":{"latitude":"51.635144","street":{"id":985646,"name":"On or near Petrol Station"},"longitude":"-0.053032"},"context":"","outcome_status":{"category":"Status update unavailable","date":"2019-09"},"persistent_id":"46224c207703f6b6129643287fed4d0cee6e6daf68d0f4b1f97bd1dfae2edf87","id":74292493,"location_subtype":"","month":"2019-05"},{"category":"other-theft","location_type":"Force","location":{"latitude":"51.651748","street":{"id":987239,"name":"On or near Parking Area"},"longitude":"-0.076231"},"context":"","outcome_status":{"category":"Status update unavailable","date":"2019-09"},"persistent_id":"c5d40c8d9a3e516c0e83b4c10d7116111522ae1ffb72355f8df4c56bd1318d6a","id":74298017,"location_subtype":"","month":"2019-05"},{"category":"other-theft","location_type":"Force","location":{"latitude":"51.652345","street":{"id":987256,"name":"On or near Kimberley Gardens"},"longitude":"-0.070958"},"context":"","outcome_status":{"category":"Status update unavailable","date":"2019-09"},"persistent_id":"358156df04136f1aa940e41a7fcfc83ce3d4f277337791dc5260bbd03cfb7835","id":74297578,"location_subtype":"","month":"2019-05"},{"category":"other-theft","location_type":"Force","location":{"latitude":"51.646042","street":{"id":986121,"name":"On or near Hadrian's Ride"},"longitude":"-0.066066"},"context":"","outcome_status":{"category":"Status update unavailable","date":"2019-09"},"persistent_id":"62c613afa1f9ffa12bbaee0fb28fde4f0c41d85741ffc969a5926f3ebb5ee0cb","id":74344885,"location_subtype":"","month":"2019-05"},{"category":"other-theft","location_type":"Force","location":{"latitude":"51.637060","street":{"id":986152,"name":"On or near The Brackens"},"longitude":"-0.078168"},"context":"","outcome_status":{"category":"Status update unavailable","date":"2019-09"},"persistent_id":"9b3ad7d346a72ef7d76a04fd5132dc8660d6f83daf0e86488c1f9b6a45f92d35","id":74349678,"location_subtype":"","month":"2019-05"},{"category":"other-theft","location_type":"Force","location":{"latitude":"51.651186","street":{"id":987061,"name":"On or near Shopping Area"},"longitude":"-0.084177"},"context":"","outcome_status":{"category":"Status update unavailable","date":"2019-09"},"persistent_id":"89299786b261071b44599265c88654c418b71c80854038cfc62d8d74e236a668","id":74328711,"location_subtype":"","month":"2019-05"},{"category":"other-theft","location_type":"Force","location":{"latitude":"51.650716","street":{"id":987207,"name":"On or near Baird Road"},"longitude":"-0.056702"},"context":"","outcome_status":{"category":"Status update unavailable","date":"2019-09"},"persistent_id":"7dfdaa4f2ebcc5d44e48f0169c27df04f30b3ee93b2eaae681ce257a10bc2aff","id":74355103,"location_subtype":"","month":"2019-05"},{"category":"other-theft","location_type":"Force","location":{"latitude":"51.652174","street":{"id":987108,"name":"On or near The Town"},"longitude":"-0.081389"},"context":"","outcome_status":{"category":"Status update unavailable","date":"2019-09"},"persistent_id":"f27a21ac0779bce03f2621fe077e66651c66abb8f14a92f56acb3d35d5430f0d","id":74317082,"location_subtype":"","month":"2019-05"},{"category":"other-theft","location_type":"Force","location":{"latitude":"51.642001","street":{"id":986049,"name":"On or near Queen Anne's Place"},"longitude":"-0.071311"},"context":"","outcome_status":{"category":"Status update unavailable","date":"2019-09"},"persistent_id":"d9497d3fc707acebd4f12ac04270f87083864760dd2004ee55faec063758716f","id":74293570,"location_subtype":"","month":"2019-05"},{"category":"other-theft","location_type":"Force","location":{"latitude":"51.652174","street":{"id":987108,"name":"On or near The Town"},"longitude":"-0.081389"},"context":"","outcome_status":{"category":"Status update unavailable","date":"2019-09"},"persistent_id":"80fb270e10b85dee19d549ccd0c8d885ede098d3517fccaada439dd4be53f48e","id":74328452,"location_subtype":"","month":"2019-05"},{"category":"other-theft","location_type":"Force","location":{"latitude":"51.633654","street":{"id":985589,"name":"On or near St Joseph's Road"},"longitude":"-0.052142"},"context":"","outcome_status":{"category":"Status update unavailable","date":"2019-09"},"persistent_id":"a4e513b8a1697223a64ca41b1e7d89cabb8bb31e21f9ae192dae888b27550749","id":74310223,"location_subtype":"","month":"2019-05"},{"category":"other-theft","location_type":"Force","location":{"latitude":"51.642001","street":{"id":986049,"name":"On or near Queen Anne's Place"},"longitude":"-0.071311"},"context":"","outcome_status":{"category":"Investigation complete; no suspect identified","date":"2020-03"},"persistent_id":"d9497d3fc707acebd4f12ac04270f87083864760dd2004ee55faec063758716f","id":74293571,"location_subtype":"","month":"2019-05"},{"category":"other-theft","location_type":"Force","location":{"latitude":"51.651186","street":{"id":987061,"name":"On or near Shopping Area"},"longitude":"-0.084177"},"context":"","outcome_status":{"category":"Status update unavailable","date":"2019-09"},"persistent_id":"f019101bbf99f0fd269905dbd3c26a956d9db62ec71deafe07738ce3178eb29e","id":74293619,"location_subtype":"","month":"2019-05"},{"category":"other-theft","location_type":"Force","location":{"latitude":"51.652147","street":{"id":987224,"name":"On or near Cobham Close"},"longitude":"-0.063276"},"context":"","outcome_status":{"category":"Status update unavailable","date":"2019-09"},"persistent_id":"e9741534969e50bcf02920688cc4044a5b53745e4201fe7ffda43359023859cb","id":74298494,"location_subtype":"","month":"2019-05"},{"category":"other-theft","location_type":"Force","location":{"latitude":"51.650559","street":{"id":987208,"name":"On or near Nightclub"},"longitude":"-0.062404"},"context":"","outcome_status":{"category":"Status update unavailable","date":"2019-09"},"persistent_id":"07ec8224454d829e2f3cc6930ac2fdc7e9f32045db55be469dbf52182e0c4280","id":74294164,"location_subtype":"","month":"2019-05"},{"category":"other-theft","location_type":"Force","location":{"latitude":"51.651478","street":{"id":987116,"name":"On or near London Road"},"longitude":"-0.080565"},"context":"","outcome_status":{"category":"Status update unavailable","date":"2019-09"},"persistent_id":"ee090ab55b4a247c0a10edc501e32a5c16aefe43c1cf5d5b937a7b06e06cfbe1","id":74318966,"location_subtype":"","month":"2019-05"},{"category":"other-theft","location_type":"Force","location":{"latitude":"51.642387","street":{"id":986140,"name":"On or near Petrol Station"},"longitude":"-0.061481"},"context":"","outcome_status":{"category":"Status update unavailable","date":"2019-09"},"persistent_id":"3a887e8140a46c03ec04333a097165fd46e8bcb294aa940a32aebbe9125ccc59","id":74360645,"location_subtype":"","month":"2019-05"},{"category":"other-theft","location_type":"Force","location":{"latitude":"51.628672","street":{"id":985477,"name":"On or near Petrol Station"},"longitude":"-0.074997"},"context":"","outcome_status":{"category":"Status update unavailable","date":"2019-09"},"persistent_id":"c540c138a10ee2dc535ad3c9cd4267ef4dfa3e4c09d80a2e3c11d15e0e7e2a4a","id":74356796,"location_subtype":"","month":"2019-05"},{"category":"other-theft","location_type":"Force","location":{"latitude":"51.636714","street":{"id":985309,"name":"On or near Devonshire Gardens"},"longitude":"-0.088400"},"context":"","outcome_status":{"category":"Status update unavailable","date":"2019-09"},"persistent_id":"b39bc7881819f8b697739014bb7bd3c413005d8d2cae67a777fc39083c82a466","id":74299545,"location_subtype":"","month":"2019-05"},{"category":"other-theft","location_type":"Force","location":{"latitude":"51.648987","street":{"id":986139,"name":"On or near Petrol Station"},"longitude":"-0.058713"},"context":"","outcome_status":{"category":"Investigation complete; no suspect identified","date":"2020-03"},"persistent_id":"879a7a34b9871433798897da215b48b65193e0a719815697d1e97c9b5cb7a6df","id":74356828,"location_subtype":"","month":"2019-05"},{"category":"other-theft","location_type":"Force","location":{"latitude":"51.652620","street":{"id":987112,"name":"On or near River Front"},"longitude":"-0.078392"},"context":"","outcome_status":{"category":"Status update unavailable","date":"2019-09"},"persistent_id":"ea110ada0af094d346cf91aaaa55f5fa7f5f2e797ad8e0e28bfc719686e2b92e","id":74307728,"location_subtype":"","month":"2019-05"},{"category":"other-theft","location_type":"Force","location":{"latitude":"51.650559","street":{"id":987208,"name":"On or near Nightclub"},"longitude":"-0.062404"},"context":"","outcome_status":{"category":"Status update unavailable","date":"2019-09"},"persistent_id":"4724b02c059d7b5f205b4f7d1728dcf513cbebbce459f8bfc6d8f3ce740bc04c","id":74308112,"location_subtype":"","month":"2019-05"},{"category":"other-theft","location_type":"Force","location":{"latitude":"51.651095","street":{"id":987059,"name":"On or near Shopping Area"},"longitude":"-0.082446"},"context":"","outcome_status":{"category":"Status update unavailable","date":"2019-09"},"persistent_id":"5af4fd95761292c0f8739b0beef30f7167615398e9a214a640c0273c85cf3907","id":74308344,"location_subtype":"","month":"2019-05"},{"category":"other-theft","location_type":"Force","location":{"latitude":"51.652102","street":{"id":987263,"name":"On or near Craddock Road"},"longitude":"-0.069841"},"context":"","outcome_status":{"category":"Status update unavailable","date":"2019-09"},"persistent_id":"d122609a7028f428e96949de946eb85bf19cca2f2a3bab1c2ecbd7f8890160ca","id":74298827,"location_subtype":"","month":"2019-05"},{"category":"other-theft","location_type":"Force","location":{"latitude":"51.652283","street":{"id":987111,"name":"On or near Southbury Road"},"longitude":"-0.079750"},"context":"","outcome_status":{"category":"Status update unavailable","date":"2019-09"},"persistent_id":"72444dfb1f8857947e92ca1b23aacd55fe5632b59c5176fedbd12bc231d90265","id":74353805,"location_subtype":"","month":"2019-05"},{"category":"other-theft","location_type":"Force","location":{"latitude":"51.651186","street":{"id":987061,"name":"On or near Shopping Area"},"longitude":"-0.084177"},"context":"","outcome_status":{"category":"Status update unavailable","date":"2019-09"},"persistent_id":"d7607b1d6c75a99885c1c08ddba02d909f1e11928b05f18f223bb4c46b68e376","id":74324145,"location_subtype":"","month":"2019-05"},{"category":"other-theft","location_type":"Force","location":{"latitude":"51.642387","street":{"id":986140,"name":"On or near Petrol Station"},"longitude":"-0.061481"},"context":"","outcome_status":{"category":"Status update unavailable","date":"2019-09"},"persistent_id":"0f7717d922bffae716504dfe10d1c771f8a702d209c14cc4f04e1f9de56feeca","id":74297229,"location_subtype":"","month":"2019-05"},{"category":"other-theft","location_type":"Force","location":{"latitude":"51.652147","street":{"id":987224,"name":"On or near Cobham Close"},"longitude":"-0.063276"},"context":"","outcome_status":{"category":"Status update unavailable","date":"2019-09"},"persistent_id":"e576e58001f45a3d993f58e89694872752f874525a16eeec0677661e037019ab","id":74309147,"location_subtype":"","month":"2019-05"},{"category":"other-theft","location_type":"Force","location":{"latitude":"51.649546","street":{"id":986185,"name":"On or near Sydney Road"},"longitude":"-0.081774"},"context":"","outcome_status":{"category":"Status update unavailable","date":"2019-09"},"persistent_id":"36547143ffe3f8fc56a57b369f502de52c87d93838113b0e104bb87a2bb20dd8","id":74341591,"location_subtype":"","month":"2019-05"},{"category":"other-theft","location_type":"Force","location":{"latitude":"51.628680","street":{"id":985461,"name":"On or near Tillotson Road"},"longitude":"-0.071673"},"context":"","outcome_status":{"category":"Status update unavailable","date":"2019-09"},"persistent_id":"c58f661e36a51bd57ad31d88036a70ebf422d1311153d556e92a4f16e4e26942","id":74371650,"location_subtype":"","month":"2019-05"},{"category":"other-theft","location_type":"Force","location":{"latitude":"51.650716","street":{"id":987207,"name":"On or near Baird Road"},"longitude":"-0.056702"},"context":"","outcome_status":{"category":"Status update unavailable","date":"2019-09"},"persistent_id":"7129ae38481a9d84fc5097298e95b83eed39e68e2af284c1a128051d4b8536d8","id":74318409,"location_subtype":"","month":"2019-05"},{"category":"other-theft","location_type":"Force","location":{"latitude":"51.651078","street":{"id":987060,"name":"On or near Shopping Area"},"longitude":"-0.081420"},"context":"","outcome_status":{"category":"Status update unavailable","date":"2019-09"},"persistent_id":"93f6208e03af19c4748c1335fbd45d9effe95d45b6bf2abc5218e38d81c154bb","id":74322586,"location_subtype":"","month":"2019-05"},{"category":"other-theft","location_type":"Force","location":{"latitude":"51.651078","street":{"id":987060,"name":"On or near Shopping Area"},"longitude":"-0.081420"},"context":"","outcome_status":{"category":"Status update unavailable","date":"2019-09"},"persistent_id":"1096002c98b94c614ffbd912e6d23a1f4762c5c8c517e5b8bbf94ba5508900c4","id":74367365,"location_subtype":"","month":"2019-05"},{"category":"possession-of-weapons","location_type":"Force","location":{"latitude":"51.638537","street":{"id":986099,"name":"On or near Savernake Road"},"longitude":"-0.060272"},"context":"","outcome_status":{"category":"Investigation complete; no suspect identified","date":"2020-07"},"persistent_id":"1762a678fd1077f2ab296e7d492bc1aab4c8b0a03b686f4665633a1b88c252db","id":74369281,"location_subtype":"","month":"2019-05"},{"category":"possession-of-weapons","location_type":"Force","location":{"latitude":"51.652283","street":{"id":987111,"name":"On or near Southbury Road"},"longitude":"-0.079750"},"context":"","outcome_status":{"category":"Investigation complete; no suspect identified","date":"2020-03"},"persistent_id":"7c6bbcca42bffd04b2137b1f43ed59bbf87db3ff2b16868bd19fb38230b085ba","id":74308727,"location_subtype":"","month":"2019-05"},{"category":"possession-of-weapons","location_type":"Force","location":{"latitude":"51.646756","street":{"id":985936,"name":"On or near Queensway"},"longitude":"-0.049413"},"context":"","outcome_status":{"category":"Status update unavailable","date":"2019-09"},"persistent_id":"9dd8df34ce548c1330bcf8e8a36d673a505949afb8aace231e31118df690cace","id":74357789,"location_subtype":"","month":"2019-05"},{"category":"public-order","location_type":"Force","location":{"latitude":"51.631275","street":{"id":985585,"name":"On or near Sutherland Road"},"longitude":"-0.055626"},"context":"","outcome_status":{"category":"Status update unavailable","date":"2019-09"},"persistent_id":"fda789a43c924d7d34075ac5e2adc4e5dc70e130b7af604ef145544e46eb3b3a","id":74356038,"location_subtype":"","month":"2019-05"},{"category":"public-order","location_type":"Force","location":{"latitude":"51.649664","street":{"id":987280,"name":"On or near Southbury Road"},"longitude":"-0.061575"},"context":"","outcome_status":{"category":"Status update unavailable","date":"2019-09"},"persistent_id":"e6c6471bfe9f17a1c016cd2ac316a0dcc2140facca62a47aa4629b6965d709d1","id":74354992,"location_subtype":"","month":"2019-05"},{"category":"public-order","location_type":"Force","location":{"latitude":"51.652283","street":{"id":987111,"name":"On or near Southbury Road"},"longitude":"-0.079750"},"context":"","outcome_status":{"category":"Investigation complete; no suspect identified","date":"2020-03"},"persistent_id":"109bb9fea7373697afab6b8e7f4b19b1fecdeb5bc78a26083a042ee79ef9609a","id":74322997,"location_subtype":"","month":"2019-05"},{"category":"public-order","location_type":"Force","location":{"latitude":"51.638897","street":{"id":986127,"name":"On or near Dimsdale Drive"},"longitude":"-0.064101"},"context":"","outcome_status":{"category":"Court result unavailable","date":"2019-12"},"persistent_id":"ef31fe51a92140fb6ad6c836daee2ef38c25b20193996f8e4a4bbe185e88ff3d","id":74302882,"location_subtype":"","month":"2019-05"},{"category":"public-order","location_type":"Force","location":{"latitude":"51.654087","street":{"id":987234,"name":"On or near Sports\/recreation Area"},"longitude":"-0.062022"},"context":"","outcome_status":{"category":"Status update unavailable","date":"2019-09"},"persistent_id":"f4b432f0aa69ee5b6aca6b7270e23cdaad3200059911623b68cab9bb39211980","id":74294880,"location_subtype":"","month":"2019-05"},{"category":"public-order","location_type":"Force","location":{"latitude":"51.651287","street":{"id":987225,"name":"On or near Clydach Road"},"longitude":"-0.066753"},"context":"","outcome_status":{"category":"Offender given community sentence","date":"2019-05"},"persistent_id":"9e67a3aca66a2b32398d69892fdadca86e53e2d647f3f1aac9faa05a5fa88cfb","id":74356283,"location_subtype":"","month":"2019-05"},{"category":"public-order","location_type":"Force","location":{"latitude":"51.635428","street":{"id":985455,"name":"On or near Great Cambridge Road"},"longitude":"-0.068613"},"context":"","outcome_status":{"category":"Status update unavailable","date":"2019-09"},"persistent_id":"e34d0e7a52c0919538669f65930fc1eeb690da0dec375ecd13a74e01b9bd29d4","id":74356868,"location_subtype":"","month":"2019-05"},{"category":"public-order","location_type":"Force","location":{"latitude":"51.653222","street":{"id":987130,"name":"On or near Calder Close"},"longitude":"-0.077802"},"context":"","outcome_status":{"category":"Status update unavailable","date":"2019-09"},"persistent_id":"cd2a7d6a847b2c945b6efacf81483a16c85be9726fedaa5d3a91630093f5ee9d","id":74332701,"location_subtype":"","month":"2019-05"},{"category":"public-order","location_type":"Force","location":{"latitude":"51.647966","street":{"id":986098,"name":"On or near Southbury Avenue"},"longitude":"-0.061676"},"context":"","outcome_status":{"category":"Court result unavailable","date":"2019-11"},"persistent_id":"723f5e7737e7e532815d356aaa0c957834d2f4e825d2e4c1cedb31590c5bdf54","id":74312053,"location_subtype":"","month":"2019-05"},{"category":"public-order","location_type":"Force","location":{"latitude":"51.629254","street":{"id":985389,"name":"On or near Streamside Close"},"longitude":"-0.069395"},"context":"","outcome_status":{"category":"Status update unavailable","date":"2019-09"},"persistent_id":"cf34049b874d626c1de7d43a7c3a6872c3644c2e0524adfba7322988aac676f9","id":74293039,"location_subtype":"","month":"2019-05"},{"category":"public-order","location_type":"Force","location":{"latitude":"51.634446","street":{"id":985457,"name":"On or near Edward Close"},"longitude":"-0.067975"},"context":"","outcome_status":{"category":"Status update unavailable","date":"2019-09"},"persistent_id":"408d2307a00f903cbed9e1f0a60f0d21e372eef8b7ae68b8306220437dae8ee8","id":74309747,"location_subtype":"","month":"2019-05"},{"category":"public-order","location_type":"Force","location":{"latitude":"51.635814","street":{"id":985639,"name":"On or near Hertford Road"},"longitude":"-0.051732"},"context":"","outcome_status":{"category":"Status update unavailable","date":"2019-09"},"persistent_id":"710f9cd0cc78e71b5330a8270b560317481134a5bc1fa8d13fe599e63632f567","id":74323874,"location_subtype":"","month":"2019-05"},{"category":"public-order","location_type":"Force","location":{"latitude":"51.637646","street":{"id":986019,"name":"On or near Beatrice Road"},"longitude":"-0.047780"},"context":"","outcome_status":{"category":"Investigation complete; no suspect identified","date":"2020-03"},"persistent_id":"a3b2946f15025e4ec31dc1f07572520c9a28b1edd7370bcd2a2ef7b52426e2db","id":74302361,"location_subtype":"","month":"2019-05"},{"category":"public-order","location_type":"Force","location":{"latitude":"51.638897","street":{"id":986127,"name":"On or near Dimsdale Drive"},"longitude":"-0.064101"},"context":"","outcome_status":{"category":"Status update unavailable","date":"2019-09"},"persistent_id":"ef31fe51a92140fb6ad6c836daee2ef38c25b20193996f8e4a4bbe185e88ff3d","id":74302881,"location_subtype":"","month":"2019-05"},{"category":"public-order","location_type":"BTP","location":{"latitude":"51.652100","street":{"id":1486570,"name":"Enfield Town (station)"},"longitude":"-0.079424"},"context":"","outcome_status":{"category":"Status update unavailable","date":"2019-09"},"persistent_id":"","id":88717361,"location_subtype":"STATION","month":"2019-05"},{"category":"robbery","location_type":"Force","location":{"latitude":"51.649975","street":{"id":987378,"name":"On or near Anglesey Road"},"longitude":"-0.051038"},"context":"","outcome_status":{"category":"Status update unavailable","date":"2019-09"},"persistent_id":"48b7497935eae83670912d4f0a2adc275280237435c02b3899c49a618865a47a","id":74353138,"location_subtype":"","month":"2019-05"},{"category":"robbery","location_type":"Force","location":{"latitude":"51.648987","street":{"id":986139,"name":"On or near Petrol Station"},"longitude":"-0.058713"},"context":"","outcome_status":{"category":"Status update unavailable","date":"2019-09"},"persistent_id":"2c2e573b14f6e7d7d1b98fe818256cf729eeaa6c7ce833dd049a27c8acb75802","id":74350178,"location_subtype":"","month":"2019-05"},{"category":"robbery","location_type":"Force","location":{"latitude":"51.632086","street":{"id":985618,"name":"On or near Denny Road"},"longitude":"-0.056256"},"context":"","outcome_status":{"category":"Status update unavailable","date":"2019-09"},"persistent_id":"678acc00db3263b697840110cb6d968cb38ca1c5b12294671436725348c587a5","id":74311533,"location_subtype":"","month":"2019-05"},{"category":"robbery","location_type":"Force","location":{"latitude":"51.651078","street":{"id":987060,"name":"On or near Shopping Area"},"longitude":"-0.081420"},"context":"","outcome_status":{"category":"Status update unavailable","date":"2019-09"},"persistent_id":"294b5cbbe9509b367661a5b4e3baedc1bbbb8a8f1d3333ced1d4ccfdc0a86388","id":74310504,"location_subtype":"","month":"2019-05"},{"category":"robbery","location_type":"Force","location":{"latitude":"51.652350","street":{"id":987131,"name":"On or near Burleigh Way"},"longitude":"-0.083347"},"context":"","outcome_status":{"category":"Status update unavailable","date":"2019-09"},"persistent_id":"ef25f5a2ec3465432cf8f80a8083683f576ea937bc9697fb50432154a9d9a763","id":74316048,"location_subtype":"","month":"2019-05"},{"category":"robbery","location_type":"Force","location":{"latitude":"51.650857","street":{"id":987206,"name":"On or near Bryn-y-mawr Road"},"longitude":"-0.064661"},"context":"","outcome_status":{"category":"Investigation complete; no suspect identified","date":"2020-03"},"persistent_id":"eb309460c7494728f3f0d9afbcc487932a76631336802d1e89321d83b8175e96","id":74356084,"location_subtype":"","month":"2019-05"},{"category":"robbery","location_type":"Force","location":{"latitude":"51.650716","street":{"id":987207,"name":"On or near Baird Road"},"longitude":"-0.056702"},"context":"","outcome_status":{"category":"Status update unavailable","date":"2019-09"},"persistent_id":"15dee0715b04e64185d5afce29865c45ee213d7863164658914c1a7c9e6d9874","id":74326478,"location_subtype":"","month":"2019-05"},{"category":"robbery","location_type":"Force","location":{"latitude":"51.648987","street":{"id":986139,"name":"On or near Petrol Station"},"longitude":"-0.058713"},"context":"","outcome_status":{"category":"Investigation complete; no suspect identified","date":"2020-04"},"persistent_id":"988e453216d99e0795351093215d67f0fd043b712a6236fea1bfa1ff4155f701","id":74365635,"location_subtype":"","month":"2019-05"},{"category":"robbery","location_type":"Force","location":{"latitude":"51.631648","street":{"id":985377,"name":"On or near Ainsley Close"},"longitude":"-0.079365"},"context":"","outcome_status":{"category":"Status update unavailable","date":"2019-09"},"persistent_id":"5369078dcbc7c5fc42d0a0cc394ba3f7d9fc64377f5d6826dd13aecd3d6a7d98","id":74290867,"location_subtype":"","month":"2019-05"},{"category":"robbery","location_type":"Force","location":{"latitude":"51.641336","street":{"id":986217,"name":"On or near The Orchard"},"longitude":"-0.084000"},"context":"","outcome_status":{"category":"Court result unavailable","date":"2020-01"},"persistent_id":"a47b45ee549ca8d206e58cb12aa68cecadfcb0048e223c7cb99926ec24e07679","id":74359554,"location_subtype":"","month":"2019-05"},{"category":"robbery","location_type":"Force","location":{"latitude":"51.646485","street":{"id":985950,"name":"On or near Kingsway"},"longitude":"-0.052084"},"context":"","outcome_status":{"category":"Status update unavailable","date":"2019-09"},"persistent_id":"595fca1973ec7ae77526ad9f3967ece616a4dcd27fa8a5b71eae4644c97e1f61","id":74322556,"location_subtype":"","month":"2019-05"},{"category":"robbery","location_type":"Force","location":{"latitude":"51.641336","street":{"id":986217,"name":"On or near The Orchard"},"longitude":"-0.084000"},"context":"","outcome_status":{"category":"Status update unavailable","date":"2019-09"},"persistent_id":"a47b45ee549ca8d206e58cb12aa68cecadfcb0048e223c7cb99926ec24e07679","id":74359552,"location_subtype":"","month":"2019-05"},{"category":"robbery","location_type":"Force","location":{"latitude":"51.643515","street":{"id":986135,"name":"On or near Ayley Croft"},"longitude":"-0.061722"},"context":"","outcome_status":{"category":"Status update unavailable","date":"2019-09"},"persistent_id":"8070f03497c746f1a024811c9698372c0beffc837e01cfd2d5911a4fa516f34d","id":74296960,"location_subtype":"","month":"2019-05"},{"category":"robbery","location_type":"Force","location":{"latitude":"51.642613","street":{"id":986041,"name":"On or near Winchester Close"},"longitude":"-0.075722"},"context":"","outcome_status":{"category":"Investigation complete; no suspect identified","date":"2020-03"},"persistent_id":"31f17eaf20e98a00297c6cf7b023cb2b5b42830268ff7025ca5ee21acba0c071","id":74305992,"location_subtype":"","month":"2019-05"},{"category":"robbery","location_type":"Force","location":{"latitude":"51.652283","street":{"id":987111,"name":"On or near Southbury Road"},"longitude":"-0.079750"},"context":"","outcome_status":{"category":"Investigation complete; no suspect identified","date":"2020-03"},"persistent_id":"eb8161cacb175dd753541b4a3b8e9f55fcfd5d87ab265728061dd7d46f9e90ba","id":74311910,"location_subtype":"","month":"2019-05"},{"category":"robbery","location_type":"Force","location":{"latitude":"51.649664","street":{"id":987280,"name":"On or near Southbury Road"},"longitude":"-0.061575"},"context":"","outcome_status":{"category":"Status update unavailable","date":"2019-09"},"persistent_id":"b0334bacabd2e77341b2ce71fd3c95397dba8d369573be6076186aaecf516d07","id":74349490,"location_subtype":"","month":"2019-05"},{"category":"robbery","location_type":"Force","location":{"latitude":"51.629903","street":{"id":985429,"name":"On or near Croyland Road"},"longitude":"-0.062417"},"context":"","outcome_status":{"category":"Status update unavailable","date":"2019-09"},"persistent_id":"3bb79373d7e2f1ecc84e8f566aed2587d1a2161054f34a671a8d4e73120cd257","id":74307444,"location_subtype":"","month":"2019-05"},{"category":"robbery","location_type":"Force","location":{"latitude":"51.648061","street":{"id":985960,"name":"On or near Bus\/coach Station"},"longitude":"-0.050571"},"context":"","outcome_status":{"category":"Status update unavailable","date":"2019-09"},"persistent_id":"0f93f8e9c6d2a10da353094ffca438c54bb372d2fb9ffb17ae335b8f3deab5bc","id":74348960,"location_subtype":"","month":"2019-05"},{"category":"robbery","location_type":"Force","location":{"latitude":"51.648061","street":{"id":985960,"name":"On or near Bus\/coach Station"},"longitude":"-0.050571"},"context":"","outcome_status":{"category":"Investigation complete; no suspect identified","date":"2020-09"},"persistent_id":"0f93f8e9c6d2a10da353094ffca438c54bb372d2fb9ffb17ae335b8f3deab5bc","id":74348961,"location_subtype":"","month":"2019-05"},{"category":"robbery","location_type":"Force","location":{"latitude":"51.650716","street":{"id":987207,"name":"On or near Baird Road"},"longitude":"-0.056702"},"context":"","outcome_status":{"category":"Status update unavailable","date":"2019-09"},"persistent_id":"223c800c2d63f63b3e31fbdb86f8952e4f8b808ddb2a1790769f2a15fe30961d","id":74319361,"location_subtype":"","month":"2019-05"},{"category":"robbery","location_type":"Force","location":{"latitude":"51.631275","street":{"id":985585,"name":"On or near Sutherland Road"},"longitude":"-0.055626"},"context":"","outcome_status":{"category":"Status update unavailable","date":"2019-09"},"persistent_id":"bce6fdcdc671e4a5381a746a6f08b15937d06c9e4546f395797ef6d1ec96b62f","id":74319355,"location_subtype":"","month":"2019-05"},{"category":"robbery","location_type":"Force","location":{"latitude":"51.632208","street":{"id":985413,"name":"On or near Jubilee Crescent"},"longitude":"-0.062030"},"context":"","outcome_status":{"category":"Status update unavailable","date":"2019-09"},"persistent_id":"bfb907321b4fb51d3b623a119e8f235f49a987b22eaff935ca6b8d942bfcd1ca","id":74320914,"location_subtype":"","month":"2019-05"},{"category":"robbery","location_type":"Force","location":{"latitude":"51.629741","street":{"id":985474,"name":"On or near Church Street"},"longitude":"-0.077668"},"context":"","outcome_status":{"category":"Status update unavailable","date":"2019-09"},"persistent_id":"402082e6c407a356556897ae3f9f72967a9141efd3df79e4daeb2bfd731453bb","id":74349626,"location_subtype":"","month":"2019-05"},{"category":"robbery","location_type":"Force","location":{"latitude":"51.630959","street":{"id":985577,"name":"On or near Findon Road"},"longitude":"-0.057185"},"context":"","outcome_status":{"category":"Status update unavailable","date":"2019-09"},"persistent_id":"7f30fb441cba1aadd0190e3224245e5c8097ddd19ae301dc0edd0247bffdcd5e","id":74301712,"location_subtype":"","month":"2019-05"},{"category":"shoplifting","location_type":"Force","location":{"latitude":"51.648987","street":{"id":986139,"name":"On or near Petrol Station"},"longitude":"-0.058713"},"context":"","outcome_status":{"category":"Offender given conditional discharge","date":"2019-05"},"persistent_id":"51e0b0736164da70dd4c952349ea55a30f875f374c19329a6800d18911528ec9","id":74322633,"location_subtype":"","month":"2019-05"},{"category":"shoplifting","location_type":"Force","location":{"latitude":"51.648987","street":{"id":986139,"name":"On or near Petrol Station"},"longitude":"-0.058713"},"context":"","outcome_status":{"category":"Status update unavailable","date":"2019-09"},"persistent_id":"864a5a1d6ae82c503a613c05d82e395240b7aa5d0ac88a651c8a7e378ed55a04","id":74327541,"location_subtype":"","month":"2019-05"},{"category":"shoplifting","location_type":"Force","location":{"latitude":"51.651186","street":{"id":987061,"name":"On or near Shopping Area"},"longitude":"-0.084177"},"context":"","outcome_status":{"category":"Status update unavailable","date":"2019-09"},"persistent_id":"0dcdeed8103a231d0db18266b89e4988ec2563cd0ea7b05656d029870e437b1e","id":74355699,"location_subtype":"","month":"2019-05"},{"category":"shoplifting","location_type":"Force","location":{"latitude":"51.650716","street":{"id":987207,"name":"On or near Baird Road"},"longitude":"-0.056702"},"context":"","outcome_status":{"category":"Status update unavailable","date":"2019-09"},"persistent_id":"cb60471e4f325a25a6886775b733c4bac26266b438cb95602e8fe61358a15b8b","id":74293234,"location_subtype":"","month":"2019-05"},{"category":"shoplifting","location_type":"Force","location":{"latitude":"51.651078","street":{"id":987060,"name":"On or near Shopping Area"},"longitude":"-0.081420"},"context":"","outcome_status":{"category":"Status update unavailable","date":"2019-09"},"persistent_id":"c1dfe3a6de93c33de3d45a9df2e1e6e541d3327d6971b450b1f8792b59d16c5f","id":74367280,"location_subtype":"","month":"2019-05"},{"category":"shoplifting","location_type":"Force","location":{"latitude":"51.648987","street":{"id":986139,"name":"On or near Petrol Station"},"longitude":"-0.058713"},"context":"","outcome_status":{"category":"Local resolution","date":"2019-06"},"persistent_id":"b9c38a1ab8b1d75104e93a5684c477cef12d1a66efc4e25806923153fc83a5f9","id":74348521,"location_subtype":"","month":"2019-05"},{"category":"shoplifting","location_type":"Force","location":{"latitude":"51.651078","street":{"id":987060,"name":"On or near Shopping Area"},"longitude":"-0.081420"},"context":"","outcome_status":{"category":"Status update unavailable","date":"2019-09"},"persistent_id":"cc0e325ed36b3ffda5aae35a6a45a0367b6a8f8a423f1a75a8231408443dc2bc","id":74309145,"location_subtype":"","month":"2019-05"},{"category":"shoplifting","location_type":"Force","location":{"latitude":"51.652350","street":{"id":987131,"name":"On or near Burleigh Way"},"longitude":"-0.083347"},"context":"","outcome_status":{"category":"Investigation complete; no suspect identified","date":"2020-03"},"persistent_id":"eae65ebc4ab9354e4bbc67489ba49256b4440b23727d5c58203ced30fb2eca7b","id":74320094,"location_subtype":"","month":"2019-05"},