[{"category":"anti-social-behaviour","location_type":"Force","location":{"latitude":"51.669229","street":{"id":1201897,"name":"On or near Chilcote Lane"},"longitude":"-0.576600"},"context":"","outcome_status":null,"persistent_id":"","id":74161311,"location_subtype":"","month":"2019-05"},{"category":"anti-social-behaviour","location_type":"Force","location":{"latitude":"51.673591","street":{"id":1201963,"name":"On or near Chandos Close"},"longitude":"-0.566354"},"context":"","outcome_status":null,"persistent_id":"","id":74163106,"location_subtype":"","month":"2019-05"},{"category":"anti-social-behaviour","location_type":"Force","location":{"latitude":"51.668628","street":{"id":1201890,"name":"On or near Beel Close"},"longitude":"-0.568593"},"context":"","outcome_status":null,"persistent_id":"","id":74162638,"location_subtype":"","month":"2019-05"},{"category":"anti-social-behaviour","location_type":"Force","location":{"latitude":"51.672049","street":{"id":1201944,"name":"On or near Boughton Way"},"longitude":"-0.564480"},"context":"","outcome_status":null,"persistent_id":"","id":74160329,"location_subtype":"","month":"2019-05"},{"category":"burglary","location_type":"Force","location":{"latitude":"51.659682","street":{"id":1201932,"name":"On or near New Road"},"longitude":"-0.548128"},"context":"","outcome_status":{"category":"Investigation complete; no suspect identified","date":"2019-05"},"persistent_id":"6e704a2ad3b03110fdba9430d07f77f4b6e97f1e97b0f045d24289498527bf54","id":74168068,"location_subtype":"","month":"2019-05"},{"category":"burglary","location_type":"Force","location":{"latitude":"51.666922","street":{"id":1201877,"name":"On or near Parking Area"},"longitude":"-0.566623"},"context":"","outcome_status":{"category":"Investigation complete; no suspect identified","date":"2019-05"},"persistent_id":"cd924a1580211bf70961531e57fdc5b0596426bc0dfe714c144a1aca03723fb9","id":74165933,"location_subtype":"","month":"2019-05"},{"category":"burglary","location_type":"Force","location":{"latitude":"51.670244","street":{"id":1201972,"name":"On or near Arbour View"},"longitude":"-0.575802"},"context":"","outcome_status":{"category":"Investigation complete; no suspect identified","date":"2019-07"},"persistent_id":"dd4d911965ea18e116a94c5b7a874319280b9d352eacc14631d12f84b8392b54","id":74181419,"location_subtype":"","month":"2019-05"},{"category":"burglary","location_type":"Force","location":{"latitude":"51.657070","street":{"id":1201902,"name":"On or near Coke's Lane"},"longitude":"-0.575680"},"context":"","outcome_status":{"category":"Investigation complete; no suspect identified","date":"2019-05"},"persistent_id":"4f3ff0cb478bebe4d725a892422e3e1c64b45420dfa5faf32700df58c7b70cf4","id":74165564,"location_subtype":"","month":"2019-05"},{"category":"criminal-damage-arson","location_type":"Force","location":{"latitude":"51.670281","street":{"id":1201965,"name":"On or near Marygold Walk"},"longitude":"-0.569250"},"context":"","outcome_status":{"category":"Investigation complete; no suspect identified","date":"2019-05"},"persistent_id":"7e72e58a58a2697a4b808bb84a9e50f6e626aea2c94d4a93569460abb222cdc6","id":74166574,"location_subtype":"","month":"2019-05"},{"category":"criminal-damage-arson","location_type":"Force","location":{"latitude":"51.672372","street":{"id":1201958,"name":"On or near Beech Park"},"longitude":"-0.571107"},"context":"","outcome_status":{"category":"Unable to prosecute suspect","date":"2019-05"},"persistent_id":"8b9c90f1683ff6cdfe69d766519b9eb2d9febdabc3cc0de27d5de473fc606428","id":74171161,"location_subtype":"","month":"2019-05"},{"category":"criminal-damage-arson","location_type":"Force","location":{"latitude":"51.671182","street":{"id":1201943,"name":"On or near Chenies Avenue"},"longitude":"-0.561976"},"context":"","outcome_status":{"category":"Investigation complete; no suspect identified","date":"2019-05"},"persistent_id":"42b8703e80234879fd83fb6592339b55fb84d65b520fb51a231eb87636c57972","id":74171162,"location_subtype":"","month":"2019-05"},{"category":"criminal-damage-arson","location_type":"Force","location":{"latitude":"51.672502","street":{"id":1201961,"name":"On or near Sandycroft Road"},"longitude":"-0.567777"},"context":"","outcome_status":{"category":"Investigation complete; no suspect identified","date":"2019-05"},"persistent_id":"ac56c136c116ad7ea68434a9ba43db7fcff52fb8873fe8adbfc7db6fde6eb871","id":74171926,"location_subtype":"","month":"2019-05"},{"category":"criminal-damage-arson","location_type":"Force","location":{"latitude":"51.666889","street":{"id":1201919,"name":"On or near Chalfont Station Road"},"longitude":"-0.565380"},"context":"","outcome_status":{"category":"Investigation complete; no suspect identified","date":"2019-05"},"persistent_id":"df009b7e44dc1181bf78634a43a8dca0c4a7123a202085269f7006e87346a9d7","id":74163182,"location_subtype":"","month":"2019-05"},{"category":"other-theft","location_type":"Force","location":{"latitude":"51.671413","street":{"id":1201957,"name":"On or near Petrol Station"},"longitude":"-0.583213"},"context":"","outcome_status":{"category":"Investigation complete; no suspect identified","date":"2019-07"},"persistent_id":"48d6202e2dbb279c3abe9def93c10dc846e673de4219f5ea79cb2ebf20d8f2ba","id":74168537,"location_subtype":"","month":"2019-05"},{"category":"other-theft","location_type":"Force","location":{"latitude":"51.667432","street":{"id":1201918,"name":"On or near Chalfont Station Road"},"longitude":"-0.562702"},"context":"","outcome_status":{"category":"Investigation complete; no suspect identified","date":"2019-05"},"persistent_id":"c21877bcaae6a06e233dc3c1f122ea13a4913cf00856c4dc1c4dd772258c58fc","id":74170879,"location_subtype":"","month":"2019-05"},{"category":"other-theft","location_type":"Force","location":{"latitude":"51.666889","street":{"id":1201919,"name":"On or near Chalfont Station Road"},"longitude":"-0.565380"},"context":"","outcome_status":{"category":"Investigation complete; no suspect identified","date":"2019-06"},"persistent_id":"2a7b5463b9ae0636bbbd7b36d280d910b75a3ef8a118cd4cb25fa52946554a11","id":74173879,"location_subtype":"","month":"2019-05"},{"category":"other-theft","location_type":"Force","location":{"latitude":"51.658855","street":{"id":1201900,"name":"On or near Doggetts Wood Lane"},"longitude":"-0.572371"},"context":"","outcome_status":{"category":"Investigation complete; no suspect identified","date":"2019-05"},"persistent_id":"df36340a1a6d202dd7423db45411e06431a7caf6b0269611d41eed188e43b949","id":74174766,"location_subtype":"","month":"2019-05"},{"category":"public-order","location_type":"Force","location":{"latitude":"51.670719","street":{"id":1201971,"name":"On or near Chiltern Heights"},"longitude":"-0.578665"},"context":"","outcome_status":{"category":"Unable to prosecute suspect","date":"2019-06"},"persistent_id":"e53d4b7d52f701b7d8b0d07728889d5541cb1ec8285d9bf4e2da4a9cca1aeed5","id":74173971,"location_subtype":"","month":"2019-05"},{"category":"public-order","location_type":"Force","location":{"latitude":"51.670719","street":{"id":1201971,"name":"On or near Chiltern Heights"},"longitude":"-0.578665"},"context":"","outcome_status":{"category":"Unable to prosecute suspect","date":"2019-06"},"persistent_id":"5be97e8803aa9404f4682c5d5cd61a9c31f058815580caf8ceefdac506a09729","id":74173969,"location_subtype":"","month":"2019-05"},{"category":"public-order","location_type":"BTP","location":{"latitude":"51.668000","street":{"id":1488618,"name":"Chalfont & Latimer (lu Station)"},"longitude":"-0.560904"},"context":"","outcome_status":{"category":"Status update unavailable","date":"2019-09"},"persistent_id":"","id":88722025,"location_subtype":"LU STATION","month":"2019-05"},{"category":"vehicle-crime","location_type":"Force","location":{"latitude":"51.670198","street":{"id":1201952,"name":"On or near Beechwood Close"},"longitude":"-0.564625"},"context":"","outcome_status":{"category":"Unable to prosecute suspect","date":"2020-02"},"persistent_id":"190aa2ac613c05f615f5fe8b0fe1527ae84838074bb4999e0651dc3def1641ad","id":74179049,"location_subtype":"","month":"2019-05"},{"category":"vehicle-crime","location_type":"Force","location":{"latitude":"51.670243","street":{"id":1201892,"name":"On or near White Lion Road"},"longitude":"-0.578709"},"context":"","outcome_status":{"category":"Investigation complete; no suspect identified","date":"2019-05"},"persistent_id":"9553a96b3be987edbd5dcb88b180d003d60546a0609f86ee9f5ae44ae8e99a3a","id":74170876,"location_subtype":"","month":"2019-05"},{"category":"vehicle-crime","location_type":"Force","location":{"latitude":"51.670039","street":{"id":1201895,"name":"On or near Derwent Close"},"longitude":"-0.574449"},"context":"","outcome_status":{"category":"Investigation complete; no suspect identified","date":"2019-06"},"persistent_id":"5cf892ed24b85af948c7e4547f1ee6c0e73f756ba58945ca3a9e0d0eccdb5ad6","id":74179044,"location_subtype":"","month":"2019-05"},{"category":"violent-crime","location_type":"Force","location":{"latitude":"51.670719","street":{"id":1201971,"name":"On or near Chiltern Heights"},"longitude":"-0.578665"},"context":"","outcome_status":{"category":"Unable to prosecute suspect","date":"2019-06"},"persistent_id":"586e69cbe7f662ae8397d6bf10036bb156aa817768f7d7f263bb55edb23fe9ec","id":74174238,"location_subtype":"","month":"2019-05"},{"category":"violent-crime","location_type":"Force","location":{"latitude":"51.669746","street":{"id":1201927,"name":"On or near Amersham Road"},"longitude":"-0.553432"},"context":"","outcome_status":{"category":"Unable to prosecute suspect","date":"2019-06"},"persistent_id":"36706b4684f2db1d67ee1e94737eeb352381775a22a304c9762a8996016e586e","id":74171100,"location_subtype":"","month":"2019-05"},{"category":"violent-crime","location_type":"Force","location":{"latitude":"51.670281","street":{"id":1201965,"name":"On or near Marygold Walk"},"longitude":"-0.569250"},"context":"","outcome_status":{"category":"Unable to prosecute suspect","date":"2019-06"},"persistent_id":"8e443f519b6b1fc8927a98c5708043d8c23550ab461881fba21c7d51a94ed646","id":74167388,"location_subtype":"","month":"2019-05"},{"category":"violent-crime","location_type":"Force","location":{"latitude":"51.670244","street":{"id":1201972,"name":"On or near Arbour View"},"longitude":"-0.575802"},"context":"","outcome_status":{"category":"Further investigation is not in the public interest","date":"2020-01"},"persistent_id":"f3cdf5972581a6ac9c7cd4093bc0a1c1ad1837671d31bfcb05d531a0be15c133","id":74165734,"location_subtype":"","month":"2019-05"},{"category":"violent-crime","location_type":"Force","location":{"latitude":"51.670281","street":{"id":1201965,"name":"On or near Marygold Walk"},"longitude":"-0.569250"},"context":"","outcome_status":{"category":"Unable to prosecute suspect","date":"2019-12"},"persistent_id":"e6e546810d62eaac1db208e553336dc4755313846f35d4a4753da638075eb403","id":74168273,"location_subtype":"","month":"2019-05"},{"category":"violent-crime","location_type":"Force","location":{"latitude":"51.656390","street":{"id":1200928,"name":"On or near Burtons Lane"},"longitude":"-0.554652"},"context":"","outcome_status":{"category":"Unable to prosecute suspect","date":"2020-01"},"persistent_id":"b0f7e3826f15fe0b1d74c5d2b1bae4f02fd75ccb6f1de64e1f70ce0e004cb330","id":74166960,"location_subtype":"","month":"2019-05"},{"category":"other-crime","location_type":"Force","location":{"latitude":"51.670243","street":{"id":1201892,"name":"On or near White Lion Road"},"longitude":"-0.578709"},"context":"","outcome_status":{"category":"Unable to prosecute suspect","date":"2019-06"},"persistent_id":"00425c5df1938a7fb5acc506fa49c82631af10ffa50e9ec6ef68750db785e40d","id":74176149,"location_subtype":"","month":"2019-05"}]