[{"category":"anti-social-behaviour","location_type":"Force","location":{"latitude":"51.413173","street":{"id":936033,"name":"On or near Wood Lodge Gardens"},"longitude":"0.041438"},"context":"","outcome_status":null,"persistent_id":"","id":74273396,"location_subtype":"","month":"2019-05"},{"category":"anti-social-behaviour","location_type":"Force","location":{"latitude":"51.400136","street":{"id":932013,"name":"On or near Ellen Close"},"longitude":"0.037119"},"context":"","outcome_status":null,"persistent_id":"","id":74273412,"location_subtype":"","month":"2019-05"},{"category":"anti-social-behaviour","location_type":"Force","location":{"latitude":"51.403656","street":{"id":931946,"name":"On or near Widmore Lodge Road"},"longitude":"0.035881"},"context":"","outcome_status":null,"persistent_id":"","id":74273418,"location_subtype":"","month":"2019-05"},{"category":"anti-social-behaviour","location_type":"Force","location":{"latitude":"51.406243","street":{"id":931813,"name":"On or near Berryfield Close"},"longitude":"0.042768"},"context":"","outcome_status":null,"persistent_id":"","id":74273393,"location_subtype":"","month":"2019-05"},{"category":"anti-social-behaviour","location_type":"Force","location":{"latitude":"51.395822","street":{"id":931278,"name":"On or near Southwood Close"},"longitude":"0.053962"},"context":"","outcome_status":null,"persistent_id":"","id":74273362,"location_subtype":"","month":"2019-05"},{"category":"anti-social-behaviour","location_type":"Force","location":{"latitude":"51.419619","street":{"id":936102,"name":"On or near Sports\/recreation Area"},"longitude":"0.063098"},"context":"","outcome_status":null,"persistent_id":"","id":74273349,"location_subtype":"","month":"2019-05"},{"category":"anti-social-behaviour","location_type":"Force","location":{"latitude":"51.411745","street":{"id":936114,"name":"On or near Royal Parade"},"longitude":"0.075600"},"context":"","outcome_status":null,"persistent_id":"","id":74272901,"location_subtype":"","month":"2019-05"},{"category":"anti-social-behaviour","location_type":"Force","location":{"latitude":"51.405786","street":{"id":931829,"name":"On or near Vale Road"},"longitude":"0.054998"},"context":"","outcome_status":null,"persistent_id":"","id":74273361,"location_subtype":"","month":"2019-05"},{"category":"anti-social-behaviour","location_type":"Force","location":{"latitude":"51.415520","street":{"id":936017,"name":"On or near Beechcroft"},"longitude":"0.058887"},"context":"","outcome_status":null,"persistent_id":"","id":74273357,"location_subtype":"","month":"2019-05"},{"category":"anti-social-behaviour","location_type":"Force","location":{"latitude":"51.402708","street":{"id":931856,"name":"On or near Coates Hill Road"},"longitude":"0.058742"},"context":"","outcome_status":null,"persistent_id":"","id":74273353,"location_subtype":"","month":"2019-05"},{"category":"anti-social-behaviour","location_type":"Force","location":{"latitude":"51.399180","street":{"id":931799,"name":"On or near Daly Drive"},"longitude":"0.060956"},"context":"","outcome_status":null,"persistent_id":"","id":74273352,"location_subtype":"","month":"2019-05"},{"category":"anti-social-behaviour","location_type":"Force","location":{"latitude":"51.399180","street":{"id":931799,"name":"On or near Daly Drive"},"longitude":"0.060956"},"context":"","outcome_status":null,"persistent_id":"","id":74273351,"location_subtype":"","month":"2019-05"},{"category":"anti-social-behaviour","location_type":"Force","location":{"latitude":"51.399180","street":{"id":931799,"name":"On or near Daly Drive"},"longitude":"0.060956"},"context":"","outcome_status":null,"persistent_id":"","id":74273350,"location_subtype":"","month":"2019-05"},{"category":"bicycle-theft","location_type":"Force","location":{"latitude":"51.406131","street":{"id":931825,"name":"On or near Woodclyffe Drive"},"longitude":"0.058422"},"context":"","outcome_status":{"category":"Status update unavailable","date":"2019-09"},"persistent_id":"933dc002befb3982951b7b5e653fa3fe0c81048f29e9a11252bd5a24b0aa2414","id":74328480,"location_subtype":"","month":"2019-05"},{"category":"bicycle-theft","location_type":"BTP","location":{"latitude":"51.417100","street":{"id":1487955,"name":"Elmstead Woods (station)"},"longitude":"0.044174"},"context":"","outcome_status":{"category":"Status update unavailable","date":"2019-09"},"persistent_id":"","id":88717589,"location_subtype":"STATION","month":"2019-05"},{"category":"bicycle-theft","location_type":"BTP","location":{"latitude":"51.417100","street":{"id":1487955,"name":"Elmstead Woods (station)"},"longitude":"0.044174"},"context":"","outcome_status":{"category":"Status update unavailable","date":"2019-09"},"persistent_id":"","id":88717590,"location_subtype":"STATION","month":"2019-05"},{"category":"bicycle-theft","location_type":"BTP","location":{"latitude":"51.400100","street":{"id":1487918,"name":"Bickley (station)"},"longitude":"0.044278"},"context":"","outcome_status":{"category":"Status update unavailable","date":"2019-09"},"persistent_id":"","id":88717976,"location_subtype":"STATION","month":"2019-05"},{"category":"burglary","location_type":"Force","location":{"latitude":"51.406794","street":{"id":931788,"name":"On or near Cookham Dene Close"},"longitude":"0.079962"},"context":"","outcome_status":{"category":"Status update unavailable","date":"2019-09"},"persistent_id":"4cb3e653f7cfc811edaa3d040f9a6a8da18bf4c1d92b06ec23daa39ab973e5b9","id":74323650,"location_subtype":"","month":"2019-05"},{"category":"burglary","location_type":"Force","location":{"latitude":"51.404607","street":{"id":931827,"name":"On or near Wells Road"},"longitude":"0.051466"},"context":"","outcome_status":{"category":"Status update unavailable","date":"2019-09"},"persistent_id":"0fa7d48fc3dcf074fa58272aae2979605af003509cb2ffa4a5b4e539eea778bf","id":74321166,"location_subtype":"","month":"2019-05"},{"category":"burglary","location_type":"Force","location":{"latitude":"51.417020","street":{"id":936058,"name":"On or near Camden Grove"},"longitude":"0.067655"},"context":"","outcome_status":{"category":"Status update unavailable","date":"2019-09"},"persistent_id":"dd4788b8003b4d90668ec3c7243be55da571c04f7eecef3f91bb7aa6798bee48","id":74359875,"location_subtype":"","month":"2019-05"},{"category":"burglary","location_type":"Force","location":{"latitude":"51.405968","street":{"id":931955,"name":"On or near Shawfield Park"},"longitude":"0.036329"},"context":"","outcome_status":{"category":"Status update unavailable","date":"2019-09"},"persistent_id":"014a1387858a9310ac203840920f367f5cb7847536c3e866fe8aa4e45ae4a1f4","id":74360417,"location_subtype":"","month":"2019-05"},{"category":"burglary","location_type":"Force","location":{"latitude":"51.404584","street":{"id":931778,"name":"On or near Walsingham Park"},"longitude":"0.077303"},"context":"","outcome_status":{"category":"Status update unavailable","date":"2019-09"},"persistent_id":"5a2301cc96d3c6f2bda0370d92a0c46dc014038ef5df033541324ec305187a76","id":74313277,"location_subtype":"","month":"2019-05"},{"category":"burglary","location_type":"Force","location":{"latitude":"51.408333","street":{"id":931814,"name":"On or near Simone Close"},"longitude":"0.039957"},"context":"","outcome_status":{"category":"Status update unavailable","date":"2019-09"},"persistent_id":"3d33127d65cb98aa43cb09dbdb6758920ed9c6c621933090430ffa3814f9740a","id":74325086,"location_subtype":"","month":"2019-05"},{"category":"burglary","location_type":"Force","location":{"latitude":"51.409905","street":{"id":936036,"name":"On or near Raggleswood"},"longitude":"0.060115"},"context":"","outcome_status":{"category":"Status update unavailable","date":"2019-09"},"persistent_id":"541351f3bc35edebdc722cbc5b558811a779ec6d99d1da6ebbaacd5982c40947","id":74325914,"location_subtype":"","month":"2019-05"},{"category":"burglary","location_type":"Force","location":{"latitude":"51.408333","street":{"id":931814,"name":"On or near Simone Close"},"longitude":"0.039957"},"context":"","outcome_status":{"category":"Status update unavailable","date":"2019-09"},"persistent_id":"77787526226b57caf732082caf21e66381bbb3b2935d3d4ff0bd09d8976a96e2","id":74334107,"location_subtype":"","month":"2019-05"},{"category":"burglary","location_type":"Force","location":{"latitude":"51.419154","street":{"id":936049,"name":"On or near Grove Vale"},"longitude":"0.057295"},"context":"","outcome_status":{"category":"Status update unavailable","date":"2019-09"},"persistent_id":"e456be0b8175779b0eff6099c57748b26087d436a7fbdfacb5b850020f253029","id":74337055,"location_subtype":"","month":"2019-05"},{"category":"burglary","location_type":"Force","location":{"latitude":"51.398682","street":{"id":931907,"name":"On or near Clarence Road"},"longitude":"0.040562"},"context":"","outcome_status":{"category":"Status update unavailable","date":"2019-09"},"persistent_id":"5ff861b47ad89b8ff3ac942202690523b22983e8ed570d45b23fc79c1f3a72c1","id":74370905,"location_subtype":"","month":"2019-05"},{"category":"criminal-damage-arson","location_type":"Force","location":{"latitude":"51.403656","street":{"id":931946,"name":"On or near Widmore Lodge Road"},"longitude":"0.035881"},"context":"","outcome_status":{"category":"Status update unavailable","date":"2019-09"},"persistent_id":"31639568288361204c692768e8090b058b6547cc6e7a7b376fda3ff3611d55ea","id":74304658,"location_subtype":"","month":"2019-05"},{"category":"criminal-damage-arson","location_type":"Force","location":{"latitude":"51.405731","street":{"id":931853,"name":"On or near Denbridge Road"},"longitude":"0.053501"},"context":"","outcome_status":{"category":"Status update unavailable","date":"2019-09"},"persistent_id":"e8a99845bcb81efe97505ab7144561195f67be41b1bc2e300948daba346a557e","id":74351390,"location_subtype":"","month":"2019-05"},{"category":"criminal-damage-arson","location_type":"Force","location":{"latitude":"51.395822","street":{"id":931278,"name":"On or near Southwood Close"},"longitude":"0.053962"},"context":"","outcome_status":{"category":"Status update unavailable","date":"2019-09"},"persistent_id":"2a25fb62df0ebaba58b4f34dbd9da8fc5e8c54dfefa70ab6d5044b0a4aefcfce","id":74351396,"location_subtype":"","month":"2019-05"},{"category":"drugs","location_type":"Force","location":{"latitude":"51.409927","street":{"id":936104,"name":"On or near Walnut Tree Close"},"longitude":"0.076179"},"context":"","outcome_status":{"category":"Local resolution","date":"2019-05"},"persistent_id":"bcae0dadc7ee9ad4c9f829caf90a7519c116ad49736e851665f98bd232a4e2ea","id":74313335,"location_subtype":"","month":"2019-05"},{"category":"drugs","location_type":"Force","location":{"latitude":"51.397827","street":{"id":931870,"name":"On or near Thornet Wood Road"},"longitude":"0.058595"},"context":"","outcome_status":{"category":"Local resolution","date":"2019-05"},"persistent_id":"82a27d6cd5997b35e9b23c32206ec57e42d28dc3fc33458bfa6ee8f848f21b78","id":74346241,"location_subtype":"","month":"2019-05"},{"category":"drugs","location_type":"Force","location":{"latitude":"51.414930","street":{"id":936025,"name":"On or near Elmstead Lane"},"longitude":"0.045874"},"context":"","outcome_status":{"category":"Status update unavailable","date":"2019-09"},"persistent_id":"9f121cd5e5a965f59bed6da0b63a3ad65845da1d3016f959c5f2f101eb3bde51","id":74302004,"location_subtype":"","month":"2019-05"},{"category":"drugs","location_type":"Force","location":{"latitude":"51.400557","street":{"id":931892,"name":"On or near Stratford House Avenue"},"longitude":"0.044470"},"context":"","outcome_status":{"category":"Offender given a caution","date":"2019-05"},"persistent_id":"53fd42c1db77595defa1dc56a1d97b2dd2a1462323cc0d66af3b71cab79b9137","id":74347297,"location_subtype":"","month":"2019-05"},{"category":"drugs","location_type":"Force","location":{"latitude":"51.397827","street":{"id":931870,"name":"On or near Thornet Wood Road"},"longitude":"0.058595"},"context":"","outcome_status":{"category":"Local resolution","date":"2019-05"},"persistent_id":"0682ad104ae77e94d168425914bc29e41249c07f27e45eff29bdd62c07ddf3ba","id":74349187,"location_subtype":"","month":"2019-05"},{"category":"drugs","location_type":"Force","location":{"latitude":"51.397827","street":{"id":931870,"name":"On or near Thornet Wood Road"},"longitude":"0.058595"},"context":"","outcome_status":{"category":"Local resolution","date":"2019-05"},"persistent_id":"9560f5739b25e5eeae9c1cdc1db2f28b184e64967112232e4dcfada9ec46361b","id":74346732,"location_subtype":"","month":"2019-05"},{"category":"drugs","location_type":"Force","location":{"latitude":"51.397991","street":{"id":931906,"name":"On or near Lindsey Close"},"longitude":"0.040503"},"context":"","outcome_status":{"category":"Court result unavailable","date":"2019-12"},"persistent_id":"d18f6f406a3aca7298d2aa8231945ecf355ee27678fc722f5a45122c32fddd11","id":74308370,"location_subtype":"","month":"2019-05"},{"category":"drugs","location_type":"Force","location":{"latitude":"51.397827","street":{"id":931870,"name":"On or near Thornet Wood Road"},"longitude":"0.058595"},"context":"","outcome_status":{"category":"Local resolution","date":"2019-05"},"persistent_id":"755e0343d126f415a312c512513097f9eabbb24e43f835639954c6c16cbed2d5","id":74346497,"location_subtype":"","month":"2019-05"},{"category":"other-theft","location_type":"Force","location":{"latitude":"51.417850","street":{"id":936004,"name":"On or near Melbury Close"},"longitude":"0.048089"},"context":"","outcome_status":{"category":"Status update unavailable","date":"2019-09"},"persistent_id":"4ab5da5ea04f29ca2183533e6e6cbdd3adb9b1e49015c82133dd7b216b2d25ac","id":74353844,"location_subtype":"","month":"2019-05"},{"category":"other-theft","location_type":"Force","location":{"latitude":"51.418751","street":{"id":936103,"name":"On or near Supermarket"},"longitude":"0.066439"},"context":"","outcome_status":{"category":"Status update unavailable","date":"2019-09"},"persistent_id":"658ec73520ef9664c2d787721a2052ad91056cd678f9a56044087f3e5f5f1908","id":74353843,"location_subtype":"","month":"2019-05"},{"category":"other-theft","location_type":"Force","location":{"latitude":"51.418164","street":{"id":936057,"name":"On or near Chislehurst High Street"},"longitude":"0.067592"},"context":"","outcome_status":{"category":"Status update unavailable","date":"2019-09"},"persistent_id":"5a1ee232d4da92c12d9c40f75f09735b1cfd275d0cc84bc9dcc615c511ae2a7b","id":74305189,"location_subtype":"","month":"2019-05"},{"category":"other-theft","location_type":"Force","location":{"latitude":"51.404079","street":{"id":931821,"name":"On or near Alpine Copse"},"longitude":"0.055411"},"context":"","outcome_status":{"category":"Status update unavailable","date":"2019-09"},"persistent_id":"93eb46f5abae6ff3e8e41913b693d726eba5f3e036a7104234dd24d94ee48445","id":74360271,"location_subtype":"","month":"2019-05"},{"category":"other-theft","location_type":"Force","location":{"latitude":"51.411745","street":{"id":936114,"name":"On or near Royal Parade"},"longitude":"0.075600"},"context":"","outcome_status":{"category":"Status update unavailable","date":"2019-09"},"persistent_id":"b61cb81715f14572a66e538c627b60a534de4b9d766f68840f0302fc491bae21","id":74329218,"location_subtype":"","month":"2019-05"},{"category":"other-theft","location_type":"Force","location":{"latitude":"51.407416","street":{"id":931834,"name":"On or near Station Approach"},"longitude":"0.055388"},"context":"","outcome_status":{"category":"Status update unavailable","date":"2019-09"},"persistent_id":"abab14fc61ed37c74b7d9f98f5beabad1ecc9bc34b6660acee9854a094ed672a","id":74329528,"location_subtype":"","month":"2019-05"},{"category":"other-theft","location_type":"Force","location":{"latitude":"51.417020","street":{"id":936058,"name":"On or near Camden Grove"},"longitude":"0.067655"},"context":"","outcome_status":{"category":"Status update unavailable","date":"2019-09"},"persistent_id":"5cc3f8f20456a0316b28d0fd7e22a50259051123aa1c9b93329b39df90f87a10","id":74331941,"location_subtype":"","month":"2019-05"},{"category":"other-theft","location_type":"Force","location":{"latitude":"51.411745","street":{"id":936114,"name":"On or near Royal Parade"},"longitude":"0.075600"},"context":"","outcome_status":{"category":"Status update unavailable","date":"2019-09"},"persistent_id":"bd09d051fee1922bcf797151246ea66217c59e1d4fc9f8c8e42e54729df0cb1e","id":74340958,"location_subtype":"","month":"2019-05"},{"category":"other-theft","location_type":"Force","location":{"latitude":"51.417484","street":{"id":936062,"name":"On or near Motorway Service Area"},"longitude":"0.067863"},"context":"","outcome_status":{"category":"Status update unavailable","date":"2019-09"},"persistent_id":"20ed1c8868c8ca6364cdeb25cfdb83d767d0de559c95ceffaeecc1f9c2ce6978","id":74302529,"location_subtype":"","month":"2019-05"},{"category":"public-order","location_type":"Force","location":{"latitude":"51.405968","street":{"id":931955,"name":"On or near Shawfield Park"},"longitude":"0.036329"},"context":"","outcome_status":{"category":"Status update unavailable","date":"2019-09"},"persistent_id":"e559d63bf4b36ff1bcb18e79a6055204dff59d09499f3e811a9427c2bea38dd1","id":74359084,"location_subtype":"","month":"2019-05"},{"category":"public-order","location_type":"Force","location":{"latitude":"51.409475","street":{"id":931809,"name":"On or near Logs Hill Close"},"longitude":"0.045112"},"context":"","outcome_status":{"category":"Status update unavailable","date":"2019-09"},"persistent_id":"05e451bf3752c31739178c0d704e597876621f51800e19e96e301a909d17d275","id":74299473,"location_subtype":"","month":"2019-05"},{"category":"robbery","location_type":"Force","location":{"latitude":"51.398682","street":{"id":931907,"name":"On or near Clarence Road"},"longitude":"0.040562"},"context":"","outcome_status":{"category":"Status update unavailable","date":"2019-09"},"persistent_id":"d1d5e79dad18cc3007dfe136b99457522b928677a2a473b3f44b350ce5713c62","id":74372415,"location_subtype":"","month":"2019-05"},{"category":"shoplifting","location_type":"Force","location":{"latitude":"51.411745","street":{"id":936114,"name":"On or near Royal Parade"},"longitude":"0.075600"},"context":"","outcome_status":{"category":"Status update unavailable","date":"2019-09"},"persistent_id":"0d9e7a546ea7aa015ec3952458b16f971150d35270ba19aef7426b3dafdd7a31","id":74346797,"location_subtype":"","month":"2019-05"},{"category":"shoplifting","location_type":"Force","location":{"latitude":"51.418337","street":{"id":936016,"name":"On or near Clifford Avenue"},"longitude":"0.050556"},"context":"","outcome_status":{"category":"Status update unavailable","date":"2019-09"},"persistent_id":"05da80c01cf898ebda431934750585509ff0fb90558c28161aa262ebd2de6daa","id":74328876,"location_subtype":"","month":"2019-05"},{"category":"shoplifting","location_type":"Force","location":{"latitude":"51.418751","street":{"id":936103,"name":"On or near Supermarket"},"longitude":"0.066439"},"context":"","outcome_status":{"category":"Court result unavailable","date":"2019-11"},"persistent_id":"58f208fc63110dbd4e4c257f7f198b8c37cbc62072a9a9e03dddf8992097193a","id":74339923,"location_subtype":"","month":"2019-05"},{"category":"shoplifting","location_type":"Force","location":{"latitude":"51.418751","street":{"id":936103,"name":"On or near Supermarket"},"longitude":"0.066439"},"context":"","outcome_status":{"category":"Status update unavailable","date":"2019-09"},"persistent_id":"1eb20ddbfc9375099da78fdd9ef87fa2a8f5a6c949f0f797f48c81bbc480ab10","id":74352074,"location_subtype":"","month":"2019-05"},{"category":"shoplifting","location_type":"Force","location":{"latitude":"51.418751","street":{"id":936103,"name":"On or near Supermarket"},"longitude":"0.066439"},"context":"","outcome_status":{"category":"Local resolution","date":"2019-05"},"persistent_id":"06a8f6b2561a410779de8dcea894c28e6be3be9eff1cee929de2d87f4894643d","id":74338855,"location_subtype":"","month":"2019-05"},{"category":"theft-from-the-person","location_type":"Force","location":{"latitude":"51.416531","street":{"id":936054,"name":"On or near Kingsley Mews"},"longitude":"0.068381"},"context":"","outcome_status":{"category":"Status update unavailable","date":"2019-09"},"persistent_id":"2a29cd7baab70207f69955835d976845f00b5b12460f04326be1a0d3b36b070b","id":74323268,"location_subtype":"","month":"2019-05"},{"category":"vehicle-crime","location_type":"Force","location":{"latitude":"51.408879","street":{"id":931777,"name":"On or near Sports\/recreation Area"},"longitude":"0.065792"},"context":"","outcome_status":{"category":"Investigation complete; no suspect identified","date":"2019-12"},"persistent_id":"498930828cbe387378e932761711c7c5f02b5e569952d5d2d16c74b895088816","id":74324467,"location_subtype":"","month":"2019-05"},{"category":"vehicle-crime","location_type":"Force","location":{"latitude":"51.392131","street":{"id":931263,"name":"On or near Homemead Road"},"longitude":"0.052676"},"context":"","outcome_status":{"category":"Status update unavailable","date":"2019-09"},"persistent_id":"4713c2d8ef1846d3731c287fc106e368d7b2b3a751f741090e0c2921f06a81e7","id":74295899,"location_subtype":"","month":"2019-05"},{"category":"vehicle-crime","location_type":"Force","location":{"latitude":"51.415444","street":{"id":936080,"name":"On or near Courtlands"},"longitude":"0.069353"},"context":"","outcome_status":{"category":"Status update unavailable","date":"2019-09"},"persistent_id":"4f0d432e0e07b7edd11dfbbe689401f9e89879b493d9bbe78dd488feb315d171","id":74298892,"location_subtype":"","month":"2019-05"},{"category":"vehicle-crime","location_type":"Force","location":{"latitude":"51.413215","street":{"id":936034,"name":"On or near Holmbury Park"},"longitude":"0.043654"},"context":"","outcome_status":{"category":"Status update unavailable","date":"2019-09"},"persistent_id":"e221f08fdfae9fdbde64c3101301e67481671d507e1f18f6098ecf22d7218efb","id":74299340,"location_subtype":"","month":"2019-05"},{"category":"vehicle-crime","location_type":"Force","location":{"latitude":"51.404278","street":{"id":931852,"name":"On or near Eastmead Close"},"longitude":"0.046117"},"context":"","outcome_status":{"category":"Status update unavailable","date":"2019-09"},"persistent_id":"8dd7b134dda1f7890efbe41d52b91ebef1b65bd7399db6d407d8c081393f3ff9","id":74299833,"location_subtype":"","month":"2019-05"},{"category":"vehicle-crime","location_type":"Force","location":{"latitude":"51.416305","street":{"id":924019,"name":"On or near Sylvester Avenue"},"longitude":"0.049502"},"context":"","outcome_status":{"category":"Status update unavailable","date":"2019-09"},"persistent_id":"bb9e7b6f0ad80b0f56dba668ea484bbef0b8a5bc6f13fd840ffa80bf50ba978a","id":74304627,"location_subtype":"","month":"2019-05"},{"category":"vehicle-crime","location_type":"Force","location":{"latitude":"51.408274","street":{"id":931855,"name":"On or near Coniscliffe Close"},"longitude":"0.056706"},"context":"","outcome_status":{"category":"Status update unavailable","date":"2019-09"},"persistent_id":"c45eb8e8a4abce91ffb73febcaab0dacc991321e63ad46e409b83a9bf086b5c2","id":74324466,"location_subtype":"","month":"2019-05"},{"category":"vehicle-crime","location_type":"Force","location":{"latitude":"51.410070","street":{"id":936108,"name":"On or near Church Lane"},"longitude":"0.075739"},"context":"","outcome_status":{"category":"Status update unavailable","date":"2019-09"},"persistent_id":"78a69a64d0cf8e648b9222b2b001ac90ab3284e45e3d4622a50e52cd7fbe626d","id":74314546,"location_subtype":"","month":"2019-05"},{"category":"vehicle-crime","location_type":"Force","location":{"latitude":"51.418527","street":{"id":936097,"name":"On or near Empress Drive"},"longitude":"0.064343"},"context":"","outcome_status":{"category":"Status update unavailable","date":"2019-09"},"persistent_id":"d13bd31e9d266b917fbd55b5e0aa749c3bedee7d790b06dfbc44b865872945ff","id":74316215,"location_subtype":"","month":"2019-05"},{"category":"vehicle-crime","location_type":"Force","location":{"latitude":"51.402708","street":{"id":931856,"name":"On or near Coates Hill Road"},"longitude":"0.058742"},"context":"","outcome_status":{"category":"Status update unavailable","date":"2019-09"},"persistent_id":"c63a7fb948b21c23d59b1862f323c17fefffc09d2d310dc16357a24699b619bb","id":74317605,"location_subtype":"","month":"2019-05"},{"category":"vehicle-crime","location_type":"Force","location":{"latitude":"51.415444","street":{"id":936080,"name":"On or near Courtlands"},"longitude":"0.069353"},"context":"","outcome_status":{"category":"Status update unavailable","date":"2019-09"},"persistent_id":"c8dfa1cd0019aafb9f8205b7c33880f85954f4fe1da5701e16152e5181bc5b7a","id":74314244,"location_subtype":"","month":"2019-05"},{"category":"vehicle-crime","location_type":"Force","location":{"latitude":"51.407746","street":{"id":931786,"name":"On or near Hawkwood Lane"},"longitude":"0.072902"},"context":"","outcome_status":{"category":"Status update unavailable","date":"2019-09"},"persistent_id":"5829709d7f6d30482257be7cd872de74a363f135cd0d8a3d3c1edfd56671219a","id":74319645,"location_subtype":"","month":"2019-05"},{"category":"vehicle-crime","location_type":"Force","location":{"latitude":"51.415444","street":{"id":936080,"name":"On or near Courtlands"},"longitude":"0.069353"},"context":"","outcome_status":{"category":"Status update unavailable","date":"2019-09"},"persistent_id":"fb4b1456f4bb332c90d1b8935ef109edd70d60524b956a9d81250daba92cd201","id":74319646,"location_subtype":"","month":"2019-05"},{"category":"vehicle-crime","location_type":"Force","location":{"latitude":"51.408801","street":{"id":931768,"name":"On or near Old Hill"},"longitude":"0.060497"},"context":"","outcome_status":{"category":"Status update unavailable","date":"2019-09"},"persistent_id":"c622f74a60b0e791ba7d8fee4f326ccaf065d257ad7e1b0e26c1e9a702d3bfa3","id":74329244,"location_subtype":"","month":"2019-05"},{"category":"vehicle-crime","location_type":"Force","location":{"latitude":"51.402708","street":{"id":931856,"name":"On or near Coates Hill Road"},"longitude":"0.058742"},"context":"","outcome_status":{"category":"Status update unavailable","date":"2019-09"},"persistent_id":"983052b818c7516dd5a5c30b7ed3e0a0658d51c9f2d452afc6c744641464af61","id":74333052,"location_subtype":"","month":"2019-05"},{"category":"vehicle-crime","location_type":"Force","location":{"latitude":"51.402708","street":{"id":931856,"name":"On or near Coates Hill Road"},"longitude":"0.058742"},"context":"","outcome_status":{"category":"Status update unavailable","date":"2019-09"},"persistent_id":"bdb6b98628b13cd7dc8fe523029352d55b6edd420a685d99f32b5a5a5fade8ae","id":74330317,"location_subtype":"","month":"2019-05"},{"category":"vehicle-crime","location_type":"Force","location":{"latitude":"51.407746","street":{"id":931786,"name":"On or near Hawkwood Lane"},"longitude":"0.072902"},"context":"","outcome_status":{"category":"Status update unavailable","date":"2019-09"},"persistent_id":"99c04121e6b282b140467831da8a98b9b556107936e400e591419131cdcbde3c","id":74354526,"location_subtype":"","month":"2019-05"},{"category":"vehicle-crime","location_type":"Force","location":{"latitude":"51.409810","street":{"id":936039,"name":"On or near Lower Camden"},"longitude":"0.053223"},"context":"","outcome_status":{"category":"Status update unavailable","date":"2019-09"},"persistent_id":"560b742de96d91d97d89f2c44e18a11f079187b7ee7987e97ace7f00edf2b386","id":74369325,"location_subtype":"","month":"2019-05"},{"category":"vehicle-crime","location_type":"BTP","location":{"latitude":"51.400100","street":{"id":1487918,"name":"Bickley (station)"},"longitude":"0.044278"},"context":"","outcome_status":{"category":"Status update unavailable","date":"2019-09"},"persistent_id":"","id":88717975,"location_subtype":"STATION","month":"2019-05"},{"category":"vehicle-crime","location_type":"Force","location":{"latitude":"51.406131","street":{"id":931825,"name":"On or near Woodclyffe Drive"},"longitude":"0.058422"},"context":"","outcome_status":{"category":"Status update unavailable","date":"2019-09"},"persistent_id":"59d4fb94d06c145c6977d8c619b5dfb6ab1d3e74799777e4ee9057abf3131db9","id":74312938,"location_subtype":"","month":"2019-05"},{"category":"violent-crime","location_type":"Force","location":{"latitude":"51.417538","street":{"id":936001,"name":"On or near Sandy Ridge"},"longitude":"0.056647"},"context":"","outcome_status":{"category":"Status update unavailable","date":"2019-09"},"persistent_id":"d21bd60d48318babdfc058c565029372b5d63c52458e5b3edaeeb241dcc570ca","id":74340141,"location_subtype":"","month":"2019-05"},{"category":"violent-crime","location_type":"Force","location":{"latitude":"51.407396","street":{"id":931816,"name":"On or near Park Farm Road"},"longitude":"0.039009"},"context":"","outcome_status":{"category":"Status update unavailable","date":"2019-09"},"persistent_id":"dec457322ffc31eded6aad6ddf0dc7dce072837121403bc98b1a853eab319dde","id":74316491,"location_subtype":"","month":"2019-05"},{"category":"violent-crime","location_type":"Force","location":{"latitude":"51.398682","street":{"id":931907,"name":"On or near Clarence Road"},"longitude":"0.040562"},"context":"","outcome_status":{"category":"Action to be taken by another organisation","date":"2019-05"},"persistent_id":"2e70249163c22672c00bffb07cbf8d45f058a64ae4b5cffdd045d4667c3b6685","id":74906435,"location_subtype":"","month":"2019-05"},{"category":"violent-crime","location_type":"Force","location":{"latitude":"51.398682","street":{"id":931907,"name":"On or near Clarence Road"},"longitude":"0.040562"},"context":"","outcome_status":{"category":"Investigation complete; no suspect identified","date":"2020-03"},"persistent_id":"ef0a24eaf3ef1ea5e35975a20c81895d99917457f2f215245879c8394a6de09f","id":74312381,"location_subtype":"","month":"2019-05"},{"category":"violent-crime","location_type":"Force","location":{"latitude":"51.397827","street":{"id":931870,"name":"On or near Thornet Wood Road"},"longitude":"0.058595"},"context":"","outcome_status":{"category":"Status update unavailable","date":"2019-09"},"persistent_id":"99fafd51607367f23b60cb8c0ffa5f9d48a3f6be0d443f0da6bd9f52abbc0556","id":74307415,"location_subtype":"","month":"2019-05"},{"category":"violent-crime","location_type":"Force","location":{"latitude":"51.417538","street":{"id":936001,"name":"On or near Sandy Ridge"},"longitude":"0.056647"},"context":"","outcome_status":{"category":"Investigation complete; no suspect identified","date":"2020-09"},"persistent_id":"64dd3f3b2afbf92c328983164ee359e525c79df71a6d0ce31250d625c0242ac5","id":74351828,"location_subtype":"","month":"2019-05"},{"category":"violent-crime","location_type":"Force","location":{"latitude":"51.404373","street":{"id":931820,"name":"On or near Sports\/recreation Area"},"longitude":"0.039622"},"context":"","outcome_status":{"category":"Status update unavailable","date":"2019-09"},"persistent_id":"89a8d06d5927b3c8007660ed817972c034b81a5ef1cad553703ca47f65520d29","id":74370158,"location_subtype":"","month":"2019-05"},{"category":"other-crime","location_type":"Force","location":{"latitude":"51.416531","street":{"id":936054,"name":"On or near Kingsley Mews"},"longitude":"0.068381"},"context":"","outcome_status":{"category":"Status update unavailable","date":"2019-09"},"persistent_id":"46b7b5d9f9aeae589df0c305bc458e67f68d6659b686f19f0783f1b206cec3d5","id":74335894,"location_subtype":"","month":"2019-05"}]