[{"category":"anti-social-behaviour","location_type":"Force","location":{"latitude":"51.627049","street":{"id":985719,"name":"On or near Mayfield Road"},"longitude":"0.000528"},"context":"","outcome_status":null,"persistent_id":"","id":74283208,"location_subtype":"","month":"2019-05"},{"category":"anti-social-behaviour","location_type":"Force","location":{"latitude":"51.632194","street":{"id":985703,"name":"On or near Station Road"},"longitude":"0.006231"},"context":"","outcome_status":null,"persistent_id":"","id":74282148,"location_subtype":"","month":"2019-05"},{"category":"anti-social-behaviour","location_type":"Force","location":{"latitude":"51.623041","street":{"id":985782,"name":"On or near Hale Close"},"longitude":"-0.005442"},"context":"","outcome_status":null,"persistent_id":"","id":74283296,"location_subtype":"","month":"2019-05"},{"category":"anti-social-behaviour","location_type":"Force","location":{"latitude":"51.630742","street":{"id":985712,"name":"On or near Queen's Grove Road"},"longitude":"0.005430"},"context":"","outcome_status":null,"persistent_id":"","id":74283185,"location_subtype":"","month":"2019-05"},{"category":"anti-social-behaviour","location_type":"Force","location":{"latitude":"51.621339","street":{"id":983410,"name":"On or near Connington Crescent"},"longitude":"0.003715"},"context":"","outcome_status":null,"persistent_id":"","id":74283189,"location_subtype":"","month":"2019-05"},{"category":"anti-social-behaviour","location_type":"Force","location":{"latitude":"51.621339","street":{"id":983410,"name":"On or near Connington Crescent"},"longitude":"0.003715"},"context":"","outcome_status":null,"persistent_id":"","id":74283190,"location_subtype":"","month":"2019-05"},{"category":"anti-social-behaviour","location_type":"Force","location":{"latitude":"51.623352","street":{"id":985734,"name":"On or near Boteley Close"},"longitude":"0.004800"},"context":"","outcome_status":null,"persistent_id":"","id":74283193,"location_subtype":"","month":"2019-05"},{"category":"anti-social-behaviour","location_type":"Force","location":{"latitude":"51.632235","street":{"id":985697,"name":"On or near Willow Street"},"longitude":"0.003863"},"context":"","outcome_status":null,"persistent_id":"","id":74283196,"location_subtype":"","month":"2019-05"},{"category":"anti-social-behaviour","location_type":"Force","location":{"latitude":"51.632235","street":{"id":985697,"name":"On or near Willow Street"},"longitude":"0.003863"},"context":"","outcome_status":null,"persistent_id":"","id":74283197,"location_subtype":"","month":"2019-05"},{"category":"anti-social-behaviour","location_type":"Force","location":{"latitude":"51.621384","street":{"id":983395,"name":"On or near Withy Mead"},"longitude":"0.002099"},"context":"","outcome_status":null,"persistent_id":"","id":74283207,"location_subtype":"","month":"2019-05"},{"category":"anti-social-behaviour","location_type":"Force","location":{"latitude":"51.643313","street":{"id":688027,"name":"On or near Woodman Lane"},"longitude":"0.009150"},"context":"","outcome_status":null,"persistent_id":"","id":74249677,"location_subtype":"","month":"2019-05"},{"category":"anti-social-behaviour","location_type":"Force","location":{"latitude":"51.631141","street":{"id":985698,"name":"On or near The Ridgeway"},"longitude":"-0.002630"},"context":"","outcome_status":null,"persistent_id":"","id":74283258,"location_subtype":"","month":"2019-05"},{"category":"anti-social-behaviour","location_type":"Force","location":{"latitude":"51.621617","street":{"id":983392,"name":"On or near Daphne Gardens"},"longitude":"-0.003684"},"context":"","outcome_status":null,"persistent_id":"","id":74283268,"location_subtype":"","month":"2019-05"},{"category":"anti-social-behaviour","location_type":"Force","location":{"latitude":"51.639097","street":{"id":985906,"name":"On or near Epping Glade"},"longitude":"-0.005185"},"context":"","outcome_status":null,"persistent_id":"","id":74283275,"location_subtype":"","month":"2019-05"},{"category":"anti-social-behaviour","location_type":"Force","location":{"latitude":"51.627514","street":{"id":985682,"name":"On or near Warren Road"},"longitude":"-0.004075"},"context":"","outcome_status":null,"persistent_id":"","id":74283280,"location_subtype":"","month":"2019-05"},{"category":"anti-social-behaviour","location_type":"Force","location":{"latitude":"51.626809","street":{"id":985692,"name":"On or near Conference Close"},"longitude":"-0.006519"},"context":"","outcome_status":null,"persistent_id":"","id":74283299,"location_subtype":"","month":"2019-05"},{"category":"anti-social-behaviour","location_type":"Force","location":{"latitude":"51.626809","street":{"id":985692,"name":"On or near Conference Close"},"longitude":"-0.006519"},"context":"","outcome_status":null,"persistent_id":"","id":74283300,"location_subtype":"","month":"2019-05"},{"category":"anti-social-behaviour","location_type":"Force","location":{"latitude":"51.630830","street":{"id":985687,"name":"On or near Hungerdown"},"longitude":"-0.004985"},"context":"","outcome_status":null,"persistent_id":"","id":74283301,"location_subtype":"","month":"2019-05"},{"category":"anti-social-behaviour","location_type":"Force","location":{"latitude":"51.628809","street":{"id":985759,"name":"On or near Nevin Drive"},"longitude":"-0.007775"},"context":"","outcome_status":null,"persistent_id":"","id":74283323,"location_subtype":"","month":"2019-05"},{"category":"anti-social-behaviour","location_type":"Force","location":{"latitude":"51.628809","street":{"id":985759,"name":"On or near Nevin Drive"},"longitude":"-0.007775"},"context":"","outcome_status":null,"persistent_id":"","id":74283324,"location_subtype":"","month":"2019-05"},{"category":"anti-social-behaviour","location_type":"Force","location":{"latitude":"51.640826","street":{"id":985893,"name":"On or near Hawkwood Crescent"},"longitude":"-0.007971"},"context":"","outcome_status":null,"persistent_id":"","id":74284364,"location_subtype":"","month":"2019-05"},{"category":"anti-social-behaviour","location_type":"Force","location":{"latitude":"51.630344","street":{"id":985760,"name":"On or near Mount Echo Drive"},"longitude":"-0.010237"},"context":"","outcome_status":null,"persistent_id":"","id":74284380,"location_subtype":"","month":"2019-05"},{"category":"anti-social-behaviour","location_type":"Force","location":{"latitude":"51.630275","street":{"id":686453,"name":"On or near Fernside"},"longitude":"0.030016"},"context":"","outcome_status":null,"persistent_id":"","id":74249739,"location_subtype":"","month":"2019-05"},{"category":"anti-social-behaviour","location_type":"Force","location":{"latitude":"51.633491","street":{"id":985770,"name":"On or near Mansfield Hill"},"longitude":"-0.013422"},"context":"","outcome_status":null,"persistent_id":"","id":74284430,"location_subtype":"","month":"2019-05"},{"category":"anti-social-behaviour","location_type":"Force","location":{"latitude":"51.637281","street":{"id":687987,"name":"On or near Ranger's Road"},"longitude":"0.029433"},"context":"","outcome_status":null,"persistent_id":"","id":74249708,"location_subtype":"","month":"2019-05"},{"category":"anti-social-behaviour","location_type":"Force","location":{"latitude":"51.626063","street":{"id":985791,"name":"On or near Rosslyn Avenue"},"longitude":"0.015091"},"context":"","outcome_status":null,"persistent_id":"","id":74282082,"location_subtype":"","month":"2019-05"},{"category":"anti-social-behaviour","location_type":"Force","location":{"latitude":"51.622811","street":{"id":985856,"name":"On or near Hornbeam Grove"},"longitude":"0.013820"},"context":"","outcome_status":null,"persistent_id":"","id":74282100,"location_subtype":"","month":"2019-05"},{"category":"anti-social-behaviour","location_type":"Force","location":{"latitude":"51.632372","street":{"id":985830,"name":"On or near Gordon Road"},"longitude":"0.012698"},"context":"","outcome_status":null,"persistent_id":"","id":74282106,"location_subtype":"","month":"2019-05"},{"category":"anti-social-behaviour","location_type":"Force","location":{"latitude":"51.628212","street":{"id":985819,"name":"On or near Westminster Gardens"},"longitude":"0.012976"},"context":"","outcome_status":null,"persistent_id":"","id":74282108,"location_subtype":"","month":"2019-05"},{"category":"anti-social-behaviour","location_type":"Force","location":{"latitude":"51.632372","street":{"id":985830,"name":"On or near Gordon Road"},"longitude":"0.012698"},"context":"","outcome_status":null,"persistent_id":"","id":74282109,"location_subtype":"","month":"2019-05"},{"category":"anti-social-behaviour","location_type":"Force","location":{"latitude":"51.632372","street":{"id":985830,"name":"On or near Gordon Road"},"longitude":"0.012698"},"context":"","outcome_status":null,"persistent_id":"","id":74282110,"location_subtype":"","month":"2019-05"},{"category":"anti-social-behaviour","location_type":"Force","location":{"latitude":"51.633216","street":{"id":985843,"name":"On or near Parking Area"},"longitude":"0.009599"},"context":"","outcome_status":null,"persistent_id":"","id":74282139,"location_subtype":"","month":"2019-05"},{"category":"anti-social-behaviour","location_type":"Force","location":{"latitude":"51.626462","street":{"id":985821,"name":"On or near The Croft"},"longitude":"0.008029"},"context":"","outcome_status":null,"persistent_id":"","id":74282144,"location_subtype":"","month":"2019-05"},{"category":"anti-social-behaviour","location_type":"Force","location":{"latitude":"51.632194","street":{"id":985703,"name":"On or near Station Road"},"longitude":"0.006231"},"context":"","outcome_status":null,"persistent_id":"","id":74282146,"location_subtype":"","month":"2019-05"},{"category":"anti-social-behaviour","location_type":"Force","location":{"latitude":"51.632194","street":{"id":985703,"name":"On or near Station Road"},"longitude":"0.006231"},"context":"","outcome_status":null,"persistent_id":"","id":74282147,"location_subtype":"","month":"2019-05"},{"category":"anti-social-behaviour","location_type":"Force","location":{"latitude":"51.622197","street":{"id":985783,"name":"On or near Wittenham Way"},"longitude":"0.005067"},"context":"","outcome_status":null,"persistent_id":"","id":74282155,"location_subtype":"","month":"2019-05"},{"category":"anti-social-behaviour","location_type":"Force","location":{"latitude":"51.619140","street":{"id":983418,"name":"On or near Supermarket"},"longitude":"0.005525"},"context":"","outcome_status":null,"persistent_id":"","id":74282164,"location_subtype":"","month":"2019-05"},{"category":"anti-social-behaviour","location_type":"Force","location":{"latitude":"51.619140","street":{"id":983418,"name":"On or near Supermarket"},"longitude":"0.005525"},"context":"","outcome_status":null,"persistent_id":"","id":74282165,"location_subtype":"","month":"2019-05"},{"category":"anti-social-behaviour","location_type":"Force","location":{"latitude":"51.635230","street":{"id":985774,"name":"On or near Laurel Gardens"},"longitude":"-0.012581"},"context":"","outcome_status":null,"persistent_id":"","id":74284433,"location_subtype":"","month":"2019-05"},{"category":"anti-social-behaviour","location_type":"Force","location":{"latitude":"51.635230","street":{"id":985774,"name":"On or near Laurel Gardens"},"longitude":"-0.012581"},"context":"","outcome_status":null,"persistent_id":"","id":74284435,"location_subtype":"","month":"2019-05"},{"category":"anti-social-behaviour","location_type":"Force","location":{"latitude":"51.635230","street":{"id":985774,"name":"On or near Laurel Gardens"},"longitude":"-0.012581"},"context":"","outcome_status":null,"persistent_id":"","id":74284434,"location_subtype":"","month":"2019-05"},{"category":"bicycle-theft","location_type":"Force","location":{"latitude":"51.628791","street":{"id":923633,"name":"On or near The Ridgeway"},"longitude":"-0.005638"},"context":"","outcome_status":{"category":"Status update unavailable","date":"2019-09"},"persistent_id":"8afc398d18dcf0535b2df2e018f63e5365da9e1ab653350c223810de399c8429","id":74317910,"location_subtype":"","month":"2019-05"},{"category":"burglary","location_type":"Force","location":{"latitude":"51.629176","street":{"id":985790,"name":"On or near The Copse"},"longitude":"0.017628"},"context":"","outcome_status":{"category":"Status update unavailable","date":"2019-09"},"persistent_id":"53ee68f4f483d5c6942f4049bc1f1582a4f90f91199d3a6a3bea95dc0f5b9320","id":74345133,"location_subtype":"","month":"2019-05"},{"category":"burglary","location_type":"Force","location":{"latitude":"51.620122","street":{"id":983403,"name":"On or near Lukin Crescent"},"longitude":"0.000714"},"context":"","outcome_status":{"category":"Status update unavailable","date":"2019-09"},"persistent_id":"50475aad425e1ac69832bc4461834fa815295127bf228585d1327c3360dcfc00","id":74345153,"location_subtype":"","month":"2019-05"},{"category":"burglary","location_type":"Force","location":{"latitude":"51.623669","street":{"id":985804,"name":"On or near Brancepeth Gardens"},"longitude":"0.024087"},"context":"","outcome_status":{"category":"Status update unavailable","date":"2019-09"},"persistent_id":"b43309b6d8192ba22c08190bef4fe65150eef57b7514a529c98281db934ccf37","id":74357610,"location_subtype":"","month":"2019-05"},{"category":"burglary","location_type":"Force","location":{"latitude":"51.619140","street":{"id":983418,"name":"On or near Supermarket"},"longitude":"0.005525"},"context":"","outcome_status":{"category":"Status update unavailable","date":"2019-09"},"persistent_id":"056687cdb0afd21792a98d232f89b2f03916a186e2e4f83850859103d2c759db","id":74332619,"location_subtype":"","month":"2019-05"},{"category":"burglary","location_type":"Force","location":{"latitude":"51.630799","street":{"id":985695,"name":"On or near Parking Area"},"longitude":"0.003149"},"context":"","outcome_status":{"category":"Status update unavailable","date":"2019-09"},"persistent_id":"f01343643abfd68f40e14b0a4d296b3dd985aa7c846ede3550e9518710602b58","id":74350866,"location_subtype":"","month":"2019-05"},{"category":"burglary","location_type":"Force","location":{"latitude":"51.621735","street":{"id":983305,"name":"On or near Hawthorns"},"longitude":"0.022556"},"context":"","outcome_status":{"category":"Status update unavailable","date":"2019-09"},"persistent_id":"ada0f3548aa09f76a0d17b9d39dc55d043b27668e52b981a2f07e1eaa81e015c","id":74353671,"location_subtype":"","month":"2019-05"},{"category":"burglary","location_type":"Force","location":{"latitude":"51.636064","street":{"id":985884,"name":"On or near Sports\/recreation Area"},"longitude":"0.015506"},"context":"","outcome_status":{"category":"Status update unavailable","date":"2019-09"},"persistent_id":"e5a5ee6142740e3fe5c0f5b401c4cc80b633d6c5c3b1775b99bab4df5676643e","id":74358800,"location_subtype":"","month":"2019-05"},{"category":"burglary","location_type":"Force","location":{"latitude":"51.621301","street":{"id":983411,"name":"On or near Colvin Gardens"},"longitude":"-0.001488"},"context":"","outcome_status":{"category":"Status update unavailable","date":"2019-09"},"persistent_id":"5440ffcad376f151ef622daed2b84ae567fc29cf8ce0b2ff48d14848b70e3954","id":74331855,"location_subtype":"","month":"2019-05"},{"category":"burglary","location_type":"Force","location":{"latitude":"51.628914","street":{"id":985723,"name":"On or near King's Road"},"longitude":"0.002459"},"context":"","outcome_status":{"category":"Status update unavailable","date":"2019-09"},"persistent_id":"117adbc00763ee91c2f61814ac8f1302058a4cf48f5a334ce01845c96025decc","id":74315559,"location_subtype":"","month":"2019-05"},{"category":"burglary","location_type":"Force","location":{"latitude":"51.622811","street":{"id":985856,"name":"On or near Hornbeam Grove"},"longitude":"0.013820"},"context":"","outcome_status":{"category":"Status update unavailable","date":"2019-09"},"persistent_id":"9b3611a1a4b6c5cf6a1c8be13cd4c4a6f73b758e44bdb235850589cbe07db130","id":74357540,"location_subtype":"","month":"2019-05"},{"category":"burglary","location_type":"Force","location":{"latitude":"51.622811","street":{"id":985856,"name":"On or near Hornbeam Grove"},"longitude":"0.013820"},"context":"","outcome_status":{"category":"Status update unavailable","date":"2019-09"},"persistent_id":"0554433cbf65490d620512ae6feba3d22e1c295079bd76900d45b7b11d349d3b","id":74326662,"location_subtype":"","month":"2019-05"},{"category":"burglary","location_type":"Force","location":{"latitude":"51.628791","street":{"id":923633,"name":"On or near The Ridgeway"},"longitude":"-0.005638"},"context":"","outcome_status":{"category":"Status update unavailable","date":"2019-09"},"persistent_id":"016a2d9b1a8397d2a3a1b891108eb0645d9163118e3a9856dd4ce2b6ebef41a3","id":74346661,"location_subtype":"","month":"2019-05"},{"category":"burglary","location_type":"Force","location":{"latitude":"51.624525","street":{"id":985815,"name":"On or near Winslow Grove"},"longitude":"0.009837"},"context":"","outcome_status":{"category":"Status update unavailable","date":"2019-09"},"persistent_id":"29fbdda6b15225b35f00eaf7f36f35b08a7e9258c1169f3d4e7b0648512d2624","id":74322035,"location_subtype":"","month":"2019-05"},{"category":"burglary","location_type":"Force","location":{"latitude":"51.632194","street":{"id":985703,"name":"On or near Station Road"},"longitude":"0.006231"},"context":"","outcome_status":{"category":"Status update unavailable","date":"2019-09"},"persistent_id":"8920ea9777f276b31af4d34437cad490d6c8bec91ae9a26b97fb79c1a9c112f3","id":74358736,"location_subtype":"","month":"2019-05"},{"category":"burglary","location_type":"Force","location":{"latitude":"51.630769","street":{"id":985820,"name":"On or near Victoria Road"},"longitude":"0.012815"},"context":"","outcome_status":{"category":"Status update unavailable","date":"2019-09"},"persistent_id":"cc820d7a89fc36ee3fd8955f98be9eefdb39b929434523d4276add18d065ed4c","id":74350383,"location_subtype":"","month":"2019-05"},{"category":"criminal-damage-arson","location_type":"Force","location":{"latitude":"51.633928","street":{"id":985771,"name":"On or near Maida Way"},"longitude":"-0.011106"},"context":"","outcome_status":{"category":"Status update unavailable","date":"2019-09"},"persistent_id":"014f8e7d91232da8c356aa352a40ccfe311037a7190d60cd26e04fea6b83cbb0","id":74292118,"location_subtype":"","month":"2019-05"},{"category":"criminal-damage-arson","location_type":"Force","location":{"latitude":"51.633863","street":{"id":686471,"name":"On or near Petrol Station"},"longitude":"0.031578"},"context":"","outcome_status":{"category":"Local resolution","date":"2019-05"},"persistent_id":"c20474270dbb30de7561aaa9c5991928b74d6e8cf6b6817c6f30154220e142bf","id":74234509,"location_subtype":"","month":"2019-05"},{"category":"criminal-damage-arson","location_type":"Force","location":{"latitude":"51.631984","street":{"id":985737,"name":"On or near Police Station"},"longitude":"-0.001451"},"context":"","outcome_status":{"category":"Court result unavailable","date":"2019-11"},"persistent_id":"da64e8de8b9268459a42cb6329becf84092dad7c432ff14d247e8c8b98ce3fa6","id":74297347,"location_subtype":"","month":"2019-05"},{"category":"criminal-damage-arson","location_type":"Force","location":{"latitude":"51.626944","street":{"id":985836,"name":"On or near Coney Burrows"},"longitude":"0.009337"},"context":"","outcome_status":{"category":"Investigation complete; no suspect identified","date":"2020-03"},"persistent_id":"cdfb6338b71bc11513f41bdedde0260e84d48f546ecea758e23b5c36ee028bc8","id":74330861,"location_subtype":"","month":"2019-05"},{"category":"criminal-damage-arson","location_type":"Force","location":{"latitude":"51.633501","street":{"id":985772,"name":"On or near Maida Avenue"},"longitude":"-0.010835"},"context":"","outcome_status":{"category":"Status update unavailable","date":"2019-09"},"persistent_id":"ed0f1dc3c4ddaeeb961650a0da10550a6d6a00d76e283ace62ae626218a2a722","id":74333789,"location_subtype":"","month":"2019-05"},{"category":"drugs","location_type":"Force","location":{"latitude":"51.636064","street":{"id":985884,"name":"On or near Sports\/recreation Area"},"longitude":"0.015506"},"context":"","outcome_status":{"category":"Local resolution","date":"2019-05"},"persistent_id":"68b8f734ba85681b1ee68291d4a0fc2463e724ae8d3e0f35e5447d2291f9891f","id":74318790,"location_subtype":"","month":"2019-05"},{"category":"drugs","location_type":"Force","location":{"latitude":"51.632902","street":{"id":985764,"name":"On or near Kings Head Hill"},"longitude":"-0.007870"},"context":"","outcome_status":{"category":"Offender given a drugs possession warning","date":"2019-05"},"persistent_id":"1c2e192c05b483733e0f79e6b28481d5dcb97295e10d41bb2af1c0b83a2877db","id":74318771,"location_subtype":"","month":"2019-05"},{"category":"drugs","location_type":"Force","location":{"latitude":"51.631984","street":{"id":985737,"name":"On or near Police Station"},"longitude":"-0.001451"},"context":"","outcome_status":{"category":"Local resolution","date":"2019-05"},"persistent_id":"4cbf5ff76d6d4cadcfbd4e96cb5d32f8799624fabe8db15a040b11bc695cb4d5","id":74328151,"location_subtype":"","month":"2019-05"},{"category":"drugs","location_type":"Force","location":{"latitude":"51.630037","street":{"id":985696,"name":"On or near Woodland Road"},"longitude":"-0.001176"},"context":"","outcome_status":{"category":"Local resolution","date":"2019-05"},"persistent_id":"aad4b6526e82c11126162c9916dabef85c69cb765c5c177ff2a2fc1d322adb39","id":74353911,"location_subtype":"","month":"2019-05"},{"category":"drugs","location_type":"Force","location":{"latitude":"51.631136","street":{"id":985704,"name":"On or near Stanley Road"},"longitude":"0.006083"},"context":"","outcome_status":{"category":"Court result unavailable","date":"2019-11"},"persistent_id":"9d4cc69c436d294600a872c7d88bcb0d57dab6f0bc8749366d37d89443d38c3d","id":74345301,"location_subtype":"","month":"2019-05"},{"category":"drugs","location_type":"Force","location":{"latitude":"51.643313","street":{"id":688027,"name":"On or near Woodman Lane"},"longitude":"0.009150"},"context":"","outcome_status":{"category":"Local resolution","date":"2019-05"},"persistent_id":"4ad6b9e7eb380c9db730d16bf33ab6c12a1a4d8e3668d357a92ca4c90e53a45d","id":74345273,"location_subtype":"","month":"2019-05"},{"category":"drugs","location_type":"Force","location":{"latitude":"51.630165","street":{"id":985681,"name":"On or near Parking Area"},"longitude":"-0.004999"},"context":"","outcome_status":{"category":"Local resolution","date":"2019-05"},"persistent_id":"cda1f38f9ebc732f25a319058cd9cafa894588062486645c6a9b7eaa82006a66","id":74322039,"location_subtype":"","month":"2019-05"},{"category":"drugs","location_type":"Force","location":{"latitude":"51.632329","street":{"id":985800,"name":"On or near Crescent Road"},"longitude":"0.014141"},"context":"","outcome_status":{"category":"Court result unavailable","date":"2020-09"},"persistent_id":"2b5abbb0ea49eb3465f88a89a36e6f3c723805e3ad8ae81c3e00699775a57d73","id":74318083,"location_subtype":"","month":"2019-05"},{"category":"drugs","location_type":"Force","location":{"latitude":"51.628212","street":{"id":985819,"name":"On or near Westminster Gardens"},"longitude":"0.012976"},"context":"","outcome_status":{"category":"Local resolution","date":"2019-05"},"persistent_id":"856fa0e2426708a724010aeada91324f2008272f8c09da67b424113f545d64b4","id":74355842,"location_subtype":"","month":"2019-05"},{"category":"drugs","location_type":"Force","location":{"latitude":"51.634538","street":{"id":985847,"name":"On or near Farnley Road"},"longitude":"0.009065"},"context":"","outcome_status":{"category":"Offender fined","date":"2019-05"},"persistent_id":"35d7b6703e7d7d1346c43330a1c9946b0ca44721d5b97c25bbabf37d7ff45d98","id":74324523,"location_subtype":"","month":"2019-05"},{"category":"drugs","location_type":"Force","location":{"latitude":"51.628422","street":{"id":985722,"name":"On or near King's Road"},"longitude":"0.003362"},"context":"","outcome_status":{"category":"Local resolution","date":"2019-06"},"persistent_id":"57ce5fa8ed302984beeef3b763bafe557ed8b37790b0ad971eb9733246ef9942","id":74332888,"location_subtype":"","month":"2019-05"},{"category":"drugs","location_type":"Force","location":{"latitude":"51.630305","street":{"id":985806,"name":"On or near Beech Tree Glade"},"longitude":"0.016797"},"context":"","outcome_status":{"category":"Local resolution","date":"2019-05"},"persistent_id":"996b621e4d5263ae3a9f85fb77fbbb842ce5bd6136306be1d0a25cc3e50dfc12","id":74330381,"location_subtype":"","month":"2019-05"},{"category":"other-theft","location_type":"Force","location":{"latitude":"51.619140","street":{"id":983418,"name":"On or near Supermarket"},"longitude":"0.005525"},"context":"","outcome_status":{"category":"Investigation complete; no suspect identified","date":"2020-03"},"persistent_id":"c36a88b61a4f760c0f721e4d8d51efa43df561c72c367436273ea6478ce5dff3","id":74326977,"location_subtype":"","month":"2019-05"},{"category":"other-theft","location_type":"Force","location":{"latitude":"51.633863","street":{"id":686471,"name":"On or near Petrol Station"},"longitude":"0.031578"},"context":"","outcome_status":{"category":"Status update unavailable","date":"2019-09"},"persistent_id":"5244758198cf85591617a9f2e138d47c18506c06bf440495ecb59c1195fbaefa","id":74336785,"location_subtype":"","month":"2019-05"},{"category":"other-theft","location_type":"Force","location":{"latitude":"51.632221","street":{"id":686456,"name":"On or near Epping New Road"},"longitude":"0.031361"},"context":"","outcome_status":{"category":"Status update unavailable","date":"2019-09"},"persistent_id":"1150e5596e914c5902eff2239f779ae2b5d0f40b832f05e6e921dff801a78b61","id":74354135,"location_subtype":"","month":"2019-05"},{"category":"other-theft","location_type":"Force","location":{"latitude":"51.627705","street":{"id":985702,"name":"On or near The Bracken"},"longitude":"-0.002593"},"context":"","outcome_status":{"category":"Local resolution","date":"2019-05"},"persistent_id":"47f7101f950e82966de18a1198402318e5448813130d31b9058c3da7dd582172","id":74362159,"location_subtype":"","month":"2019-05"},{"category":"other-theft","location_type":"Force","location":{"latitude":"51.625418","street":{"id":985728,"name":"On or near Fairlight Avenue"},"longitude":"0.000759"},"context":"","outcome_status":{"category":"Investigation complete; no suspect identified","date":"2020-03"},"persistent_id":"f447915e9b35d66be3b5ce02de2e70e206bc64ee809d89b5586db25c185a2c9c","id":74291788,"location_subtype":"","month":"2019-05"},{"category":"other-theft","location_type":"Force","location":{"latitude":"51.633216","street":{"id":985843,"name":"On or near Parking Area"},"longitude":"0.009599"},"context":"","outcome_status":{"category":"Investigation complete; no suspect identified","date":"2020-03"},"persistent_id":"1d09a327dfef838dfd1c306b53986415e3e68a1d66661fea5ad53bae5389ad3d","id":74292178,"location_subtype":"","month":"2019-05"},{"category":"other-theft","location_type":"Force","location":{"latitude":"51.636064","street":{"id":985884,"name":"On or near Sports\/recreation Area"},"longitude":"0.015506"},"context":"","outcome_status":{"category":"Status update unavailable","date":"2019-09"},"persistent_id":"2a0a58c2ae58e2afc6d73eb25c580928eecafad09f440ff448a9951725014599","id":74290909,"location_subtype":"","month":"2019-05"},{"category":"other-theft","location_type":"Force","location":{"latitude":"51.620183","street":{"id":983266,"name":"On or near Friday Hill"},"longitude":"0.008706"},"context":"","outcome_status":{"category":"Status update unavailable","date":"2019-09"},"persistent_id":"0cea7eb180a41518694e61afb0530f779e6f4a92e7e0d37dd79ee31d238aceab","id":74308265,"location_subtype":"","month":"2019-05"},{"category":"other-theft","location_type":"Force","location":{"latitude":"51.631488","street":{"id":985838,"name":"On or near Beresford Road"},"longitude":"0.009653"},"context":"","outcome_status":{"category":"Status update unavailable","date":"2019-09"},"persistent_id":"35ee614529a14307b7d9196f75f90f0acf8eb35f5de26961e8b6bbec76f125e9","id":74343660,"location_subtype":"","month":"2019-05"},{"category":"other-theft","location_type":"Force","location":{"latitude":"51.633216","street":{"id":985843,"name":"On or near Parking Area"},"longitude":"0.009599"},"context":"","outcome_status":{"category":"Investigation complete; no suspect identified","date":"2020-03"},"persistent_id":"4934bee0fa9463827e0baaba7745738ee2aaa5b14ab10ae39271b304d19ad502","id":74326810,"location_subtype":"","month":"2019-05"},{"category":"other-theft","location_type":"Force","location":{"latitude":"51.623324","street":{"id":985786,"name":"On or near Buckrell Road"},"longitude":"0.003817"},"context":"","outcome_status":{"category":"Investigation complete; no suspect identified","date":"2020-03"},"persistent_id":"1e5d07646b293884565cf724324d6b2caf06d2c64660d58c1849743cdca0e641","id":74328509,"location_subtype":"","month":"2019-05"},{"category":"public-order","location_type":"Force","location":{"latitude":"51.632075","street":{"id":985835,"name":"On or near Connaught Road"},"longitude":"0.007454"},"context":"","outcome_status":{"category":"Status update unavailable","date":"2019-09"},"persistent_id":"f7efb9faceabc2ee2d15c876cf4a5fa8e00d9dcb6773536ccb2346cf49aebee4","id":74291697,"location_subtype":"","month":"2019-05"},{"category":"public-order","location_type":"Force","location":{"latitude":"51.628212","street":{"id":985819,"name":"On or near Westminster Gardens"},"longitude":"0.012976"},"context":"","outcome_status":{"category":"Status update unavailable","date":"2019-09"},"persistent_id":"31330352a93764eecba5a407e681b2c186e3d7446e3c86cccb9e4447f5a84c2f","id":74345134,"location_subtype":"","month":"2019-05"},{"category":"public-order","location_type":"Force","location":{"latitude":"51.628212","street":{"id":985819,"name":"On or near Westminster Gardens"},"longitude":"0.012976"},"context":"","outcome_status":{"category":"Status update unavailable","date":"2019-09"},"persistent_id":"31330352a93764eecba5a407e681b2c186e3d7446e3c86cccb9e4447f5a84c2f","id":74345135,"location_subtype":"","month":"2019-05"},{"category":"public-order","location_type":"Force","location":{"latitude":"51.619747","street":{"id":983398,"name":"On or near Otterbourne Road"},"longitude":"0.003182"},"context":"","outcome_status":{"category":"Status update unavailable","date":"2019-09"},"persistent_id":"b2595c15255f3cb722deb27ecc9ac075d036a26199a43183b35c9a624bd72b5d","id":74334095,"location_subtype":"","month":"2019-05"},{"category":"public-order","location_type":"Force","location":{"latitude":"51.631565","street":{"id":985736,"name":"On or near Supermarket"},"longitude":"0.003616"},"context":"","outcome_status":{"category":"Status update unavailable","date":"2019-09"},"persistent_id":"5ec176fba6f251190ca2431f6584ae3c72bc64794ae0fa0f377adf18ef2f4efa","id":74295306,"location_subtype":"","month":"2019-05"},{"category":"robbery","location_type":"Force","location":{"latitude":"51.632372","street":{"id":985830,"name":"On or near Gordon Road"},"longitude":"0.012698"},"context":"","outcome_status":{"category":"Status update unavailable","date":"2019-09"},"persistent_id":"87101e49c28c120f985027e165e2903d17c0706bc6f9028c28d125e350dcbe2f","id":74331135,"location_subtype":"","month":"2019-05"},{"category":"robbery","location_type":"Force","location":{"latitude":"51.633520","street":{"id":985848,"name":"On or near Bus\/coach Station"},"longitude":"0.010220"},"context":"","outcome_status":{"category":"Investigation complete; no suspect identified","date":"2020-03"},"persistent_id":"07bfb8dc022dc8174cd8336d6a26d3703caca3a8ad0b6d9849fd9e5de6277395","id":74316059,"location_subtype":"","month":"2019-05"},{"category":"robbery","location_type":"Force","location":{"latitude":"51.630799","street":{"id":985695,"name":"On or near Parking Area"},"longitude":"0.003149"},"context":"","outcome_status":{"category":"Status update unavailable","date":"2019-09"},"persistent_id":"eb408cb5b67cab755ef3728b152c86cde704d4047b53b2608c2df131a8247e8e","id":74344316,"location_subtype":"","month":"2019-05"},{"category":"shoplifting","location_type":"Force","location":{"latitude":"51.630799","street":{"id":985695,"name":"On or near Parking Area"},"longitude":"0.003149"},"context":"","outcome_status":{"category":"Status update unavailable","date":"2019-09"},"persistent_id":"1d802b12b48b66ea4849456e057fba981f7d4a8d7e46d912c36197adc57fe412","id":74293143,"location_subtype":"","month":"2019-05"},{"category":"shoplifting","location_type":"Force","location":{"latitude":"51.630799","street":{"id":985695,"name":"On or near Parking Area"},"longitude":"0.003149"},"context":"","outcome_status":{"category":"Status update unavailable","date":"2019-09"},"persistent_id":"558018026b1cb2d733129babc681414461b49d5f777e38da15cb1d136a6610ad","id":74365443,"location_subtype":"","month":"2019-05"},{"category":"shoplifting","location_type":"Force","location":{"latitude":"51.630799","street":{"id":985695,"name":"On or near Parking Area"},"longitude":"0.003149"},"context":"","outcome_status":{"category":"Investigation complete; no suspect identified","date":"2020-03"},"persistent_id":"4736ebc8e26ea5a0b2c3976d5cfd0cfd82325c4a80b24adc94775b3292f75e26","id":74303894,"location_subtype":"","month":"2019-05"},{"category":"shoplifting","location_type":"Force","location":{"latitude":"51.630799","street":{"id":985695,"name":"On or near Parking Area"},"longitude":"0.003149"},"context":"","outcome_status":{"category":"Court result unavailable","date":"2019-12"},"persistent_id":"558018026b1cb2d733129babc681414461b49d5f777e38da15cb1d136a6610ad","id":74365447,"location_subtype":"","month":"2019-05"},{"category":"shoplifting","location_type":"Force","location":{"latitude":"51.630799","street":{"id":985695,"name":"On or near Parking Area"},"longitude":"0.003149"},"context":"","outcome_status":{"category":"Status update unavailable","date":"2019-09"},"persistent_id":"558018026b1cb2d733129babc681414461b49d5f777e38da15cb1d136a6610ad","id":74365445,"location_subtype":"","month":"2019-05"},{"category":"shoplifting","location_type":"Force","location":{"latitude":"51.630799","street":{"id":985695,"name":"On or near Parking Area"},"longitude":"0.003149"},"context":"","outcome_status":{"category":"Status update unavailable","date":"2019-09"},"persistent_id":"558018026b1cb2d733129babc681414461b49d5f777e38da15cb1d136a6610ad","id":74365442,"location_subtype":"","month":"2019-05"},{"category":"theft-from-the-person","location_type":"Force","location":{"latitude":"51.632235","street":{"id":985697,"name":"On or near Willow Street"},"longitude":"0.003863"},"context":"","outcome_status":{"category":"Status update unavailable","date":"2019-09"},"persistent_id":"7af6d0ba17f4ee75d32accd23fe377d88c605ec834052f7536489f94b2f6c2c2","id":74334879,"location_subtype":"","month":"2019-05"},{"category":"theft-from-the-person","location_type":"Force","location":{"latitude":"51.631565","street":{"id":985736,"name":"On or near Supermarket"},"longitude":"0.003616"},"context":"","outcome_status":{"category":"Status update unavailable","date":"2019-09"},"persistent_id":"eef7a8067bc492e3e279bae5d20fb560729bb4dc4efd5356e2cb8d79f1d83cd1","id":74309851,"location_subtype":"","month":"2019-05"},{"category":"theft-from-the-person","location_type":"Force","location":{"latitude":"51.619803","street":{"id":983261,"name":"On or near Saxlingham Road"},"longitude":"0.006204"},"context":"","outcome_status":{"category":"Status update unavailable","date":"2019-09"},"persistent_id":"80d5c401f6a81c2be7a0c30389450b22bc2385b3c80be138a47871ab3abdb03a","id":74309249,"location_subtype":"","month":"2019-05"},{"category":"vehicle-crime","location_type":"Force","location":{"latitude":"51.643313","street":{"id":688027,"name":"On or near Woodman Lane"},"longitude":"0.009150"},"context":"","outcome_status":{"category":"Investigation complete; no suspect identified","date":"2019-05"},"persistent_id":"58613242592e696b26ef15b7ed1597a931d10aa4f836a3609c06a0db2f81aad9","id":74243450,"location_subtype":"","month":"2019-05"},{"category":"vehicle-crime","location_type":"Force","location":{"latitude":"51.631460","street":{"id":985754,"name":"On or near Sunset Avenue"},"longitude":"-0.010303"},"context":"","outcome_status":{"category":"Status update unavailable","date":"2019-09"},"persistent_id":"74cb3f1e416da9fb7e69fec316b536c51a1da497faad42243dab2077c605a474","id":74306293,"location_subtype":"","month":"2019-05"},{"category":"vehicle-crime","location_type":"Force","location":{"latitude":"51.627137","street":{"id":985792,"name":"On or near Rookwood Gardens"},"longitude":"0.016916"},"context":"","outcome_status":{"category":"Status update unavailable","date":"2019-09"},"persistent_id":"25eb824a7cc8d28fe5ff1f96c53a37614fb430d3f7bffdcc55db61fbf3c9d8c0","id":74354595,"location_subtype":"","month":"2019-05"},{"category":"vehicle-crime","location_type":"Force","location":{"latitude":"51.633501","street":{"id":985772,"name":"On or near Maida Avenue"},"longitude":"-0.010835"},"context":"","outcome_status":{"category":"Status update unavailable","date":"2019-09"},"persistent_id":"a77d9e501883107fdf312912a4034da1180fda37d8b99fa44bc749f741215092","id":74297439,"location_subtype":"","month":"2019-05"},{"category":"vehicle-crime","location_type":"Force","location":{"latitude":"51.636064","street":{"id":985884,"name":"On or near Sports\/recreation Area"},"longitude":"0.015506"},"context":"","outcome_status":{"category":"Status update unavailable","date":"2019-09"},"persistent_id":"9fe07ffdf76951d45d495327e1c9174deed946b0e5246190cf65a793485cdd34","id":74298713,"location_subtype":"","month":"2019-05"},{"category":"vehicle-crime","location_type":"Force","location":{"latitude":"51.630242","street":{"id":985763,"name":"On or near Mansfield Hill"},"longitude":"-0.013261"},"context":"","outcome_status":{"category":"Status update unavailable","date":"2019-09"},"persistent_id":"96b53e6aa95a3c04686d2d7e53265a20ade4271a6ec2523d3bc0d1c49ddddbe8","id":74302152,"location_subtype":"","month":"2019-05"},{"category":"vehicle-crime","location_type":"Force","location":{"latitude":"51.636064","street":{"id":985884,"name":"On or near Sports\/recreation Area"},"longitude":"0.015506"},"context":"","outcome_status":{"category":"Status update unavailable","date":"2019-09"},"persistent_id":"15ce409de5a3a713767bd977ad4aacaee53501c01ae28d2b2bafab6635af1a22","id":74303178,"location_subtype":"","month":"2019-05"},{"category":"vehicle-crime","location_type":"Force","location":{"latitude":"51.636064","street":{"id":985884,"name":"On or near Sports\/recreation Area"},"longitude":"0.015506"},"context":"","outcome_status":{"category":"Status update unavailable","date":"2019-09"},"persistent_id":"05490cca0171fc58a21747108e515f85f4a383a408d2d9e0d4e610c9a355ac3d","id":74304505,"location_subtype":"","month":"2019-05"},{"category":"vehicle-crime","location_type":"Force","location":{"latitude":"51.633491","street":{"id":985770,"name":"On or near Mansfield Hill"},"longitude":"-0.013422"},"context":"","outcome_status":{"category":"Status update unavailable","date":"2019-09"},"persistent_id":"c164f469c7f4e44b56118607d10f52dc58da9be8fa0badeee931fbf2e35a6ee6","id":74320471,"location_subtype":"","month":"2019-05"},{"category":"vehicle-crime","location_type":"Force","location":{"latitude":"51.630580","street":{"id":985834,"name":"On or near Cross Road"},"longitude":"0.007055"},"context":"","outcome_status":{"category":"Status update unavailable","date":"2019-09"},"persistent_id":"23caf62543b06b260c68c831762b8a2f9be2cd8921b4e4aa23abc9efbbf5871b","id":74333144,"location_subtype":"","month":"2019-05"},{"category":"vehicle-crime","location_type":"Force","location":{"latitude":"51.626944","street":{"id":985836,"name":"On or near Coney Burrows"},"longitude":"0.009337"},"context":"","outcome_status":{"category":"Status update unavailable","date":"2019-09"},"persistent_id":"52941c528d39a16b22c3b2b73e3e8cc96e1c49729b70738f74142e98358805c3","id":74344495,"location_subtype":"","month":"2019-05"},{"category":"vehicle-crime","location_type":"Force","location":{"latitude":"51.631488","street":{"id":985838,"name":"On or near Beresford Road"},"longitude":"0.009653"},"context":"","outcome_status":{"category":"Status update unavailable","date":"2019-09"},"persistent_id":"28d8acd273252c05502972b95b53e1a55dad50277ca3406daa17cd5c0e110d4d","id":74345996,"location_subtype":"","month":"2019-05"},{"category":"vehicle-crime","location_type":"Force","location":{"latitude":"51.636064","street":{"id":985884,"name":"On or near Sports\/recreation Area"},"longitude":"0.015506"},"context":"","outcome_status":{"category":"Status update unavailable","date":"2019-09"},"persistent_id":"fabde39552d22d43b0ef466d06c2a7056b578fd09d7766c866db20e3962b3ca2","id":74321259,"location_subtype":"","month":"2019-05"},{"category":"vehicle-crime","location_type":"Force","location":{"latitude":"51.625563","street":{"id":985824,"name":"On or near Oaks Grove"},"longitude":"0.009593"},"context":"","outcome_status":{"category":"Status update unavailable","date":"2019-09"},"persistent_id":"9bce3a87614aa3972f547ea4b4e891d5cb107320c51e8eb7d9eee0b17f7d2f71","id":74347812,"location_subtype":"","month":"2019-05"},{"category":"vehicle-crime","location_type":"Force","location":{"latitude":"51.631136","street":{"id":985704,"name":"On or near Stanley Road"},"longitude":"0.006083"},"context":"","outcome_status":{"category":"Status update unavailable","date":"2019-09"},"persistent_id":"e3c400dc15ec492f8e61635fd27355a7e79ae6a74148fca9601be34f3387b607","id":74358714,"location_subtype":"","month":"2019-05"},{"category":"vehicle-crime","location_type":"Force","location":{"latitude":"51.621105","street":{"id":983402,"name":"On or near Lukin Crescent"},"longitude":"0.000512"},"context":"","outcome_status":{"category":"Status update unavailable","date":"2019-09"},"persistent_id":"c0c272d2aea8ab6e3f85bbf67257e543144db0ada85ad9e608bcc2e344d1d7e4","id":74352267,"location_subtype":"","month":"2019-05"},{"category":"vehicle-crime","location_type":"Force","location":{"latitude":"51.632970","street":{"id":985746,"name":"On or near Buxton Road"},"longitude":"0.004531"},"context":"","outcome_status":{"category":"Court result unavailable","date":"2019-11"},"persistent_id":"717bcb85c94b86765260728c1771dbfb591e92d053ce7147ff46a67b4ffbd93d","id":74308732,"location_subtype":"","month":"2019-05"},{"category":"vehicle-crime","location_type":"Force","location":{"latitude":"51.625418","street":{"id":985690,"name":"On or near Endlebury Road"},"longitude":"-0.003488"},"context":"","outcome_status":{"category":"Investigation complete; no suspect identified","date":"2020-03"},"persistent_id":"fb9da913d696d364fd1bae56cc104c4f319a2aae41256b77ed6f900e3c3bbb84","id":74330710,"location_subtype":"","month":"2019-05"},{"category":"vehicle-crime","location_type":"Force","location":{"latitude":"51.646493","street":{"id":688026,"name":"On or near Bury Road"},"longitude":"0.008813"},"context":"","outcome_status":{"category":"Investigation complete; no suspect identified","date":"2019-06"},"persistent_id":"0a4474caff354e7f5efc38ddff93f52e4144ac204fc51793f96892193f1fe091","id":74240967,"location_subtype":"","month":"2019-05"},{"category":"violent-crime","location_type":"Force","location":{"latitude":"51.622422","street":{"id":985849,"name":"On or near Manor Farm Drive"},"longitude":"0.010798"},"context":"","outcome_status":{"category":"Status update unavailable","date":"2019-09"},"persistent_id":"f13b3fe18eaee30a88e18f911cd92457ed1a96e1825afd07470259faaec8a30c","id":74354334,"location_subtype":"","month":"2019-05"},{"category":"violent-crime","location_type":"Force","location":{"latitude":"51.641722","street":{"id":985887,"name":"On or near Yardley Lane"},"longitude":"-0.008799"},"context":"","outcome_status":{"category":"Court result unavailable","date":"2019-11"},"persistent_id":"6424298054d42032be47e06eddd1adc1d63451cfabbc772ee79d16579e93c208","id":74319639,"location_subtype":"","month":"2019-05"},{"category":"violent-crime","location_type":"Force","location":{"latitude":"51.620838","street":{"id":983265,"name":"On or near Friday Hill East"},"longitude":"0.008807"},"context":"","outcome_status":{"category":"Investigation complete; no suspect identified","date":"2020-03"},"persistent_id":"1b38d0ef4fb4c9c9291c9a4eb1db7e2c526c0c896f2b33a565bb3d7e92cc4ec4","id":74339827,"location_subtype":"","month":"2019-05"},{"category":"violent-crime","location_type":"Force","location":{"latitude":"51.633951","street":{"id":985749,"name":"On or near Blandford Crescent"},"longitude":"-0.006090"},"context":"","outcome_status":{"category":"Court result unavailable","date":"2020-02"},"persistent_id":"04103e85f24d7f32a45988d89437e51f8d06be763b34bd1adec77001a36be24e","id":74333458,"location_subtype":"","month":"2019-05"},{"category":"violent-crime","location_type":"Force","location":{"latitude":"51.628914","street":{"id":985723,"name":"On or near King's Road"},"longitude":"0.002459"},"context":"","outcome_status":{"category":"Status update unavailable","date":"2019-09"},"persistent_id":"7cc6ed4b158254205ebeaf89c723745c15905b1885812190ee9cbbe132ec1690","id":74332232,"location_subtype":"","month":"2019-05"},{"category":"violent-crime","location_type":"Force","location":{"latitude":"51.622422","street":{"id":985849,"name":"On or near Manor Farm Drive"},"longitude":"0.010798"},"context":"","outcome_status":{"category":"Status update unavailable","date":"2019-09"},"persistent_id":"f13b3fe18eaee30a88e18f911cd92457ed1a96e1825afd07470259faaec8a30c","id":74360444,"location_subtype":"","month":"2019-05"},{"category":"violent-crime","location_type":"Force","location":{"latitude":"51.625659","street":{"id":985765,"name":"On or near Goldsborough Crescent"},"longitude":"-0.007624"},"context":"","outcome_status":{"category":"Investigation complete; no suspect identified","date":"2020-03"},"persistent_id":"88330044ac67ca7a4c72450927c492ce5c609534288f27759a60d5f05e905641","id":74318629,"location_subtype":"","month":"2019-05"},{"category":"violent-crime","location_type":"Force","location":{"latitude":"51.631141","street":{"id":985698,"name":"On or near The Ridgeway"},"longitude":"-0.002630"},"context":"","outcome_status":{"category":"Status update unavailable","date":"2019-09"},"persistent_id":"da9e3ddfbe87bd7777dbfb3dd9f84877c8be3c01633472d5a8f3d6e548c756bc","id":74309759,"location_subtype":"","month":"2019-05"},{"category":"violent-crime","location_type":"Force","location":{"latitude":"51.633216","street":{"id":985843,"name":"On or near Parking Area"},"longitude":"0.009599"},"context":"","outcome_status":{"category":"Status update unavailable","date":"2019-09"},"persistent_id":"f3d2f44cedbbb331fed97e4a0fbaa1b4d12a1f05e4b4d12996f11047a58721f3","id":74358197,"location_subtype":"","month":"2019-05"},{"category":"violent-crime","location_type":"Force","location":{"latitude":"51.623922","street":{"id":985706,"name":"On or near Simmons Lane"},"longitude":"0.001994"},"context":"","outcome_status":{"category":"Status update unavailable","date":"2019-09"},"persistent_id":"70f0cc5cadd467cb0192196618a7d689289757486283c879c95f42e42474b459","id":74312161,"location_subtype":"","month":"2019-05"},{"category":"violent-crime","location_type":"Force","location":{"latitude":"51.627904","street":{"id":985818,"name":"On or near Whitehall Gardens"},"longitude":"0.006807"},"context":"","outcome_status":{"category":"Investigation complete; no suspect identified","date":"2020-03"},"persistent_id":"75943b393288641418284426d2c2dee976fe25d76b1c9886afd4a7807de9efa6","id":74313107,"location_subtype":"","month":"2019-05"},{"category":"violent-crime","location_type":"Force","location":{"latitude":"51.620183","street":{"id":983266,"name":"On or near Friday Hill"},"longitude":"0.008706"},"context":"","outcome_status":{"category":"Status update unavailable","date":"2019-09"},"persistent_id":"fba7b0848e6bf46756f8c1a726fcd651352ab46871ab6ef272264eb2620256fc","id":74353445,"location_subtype":"","month":"2019-05"},{"category":"violent-crime","location_type":"Force","location":{"latitude":"51.622509","street":{"id":985850,"name":"On or near Groveside Road"},"longitude":"0.012045"},"context":"","outcome_status":{"category":"Status update unavailable","date":"2019-09"},"persistent_id":"339adc3c2deb3eb3fad6aa6ce4b8b5d7f14b626cbf18ed283380df3ce1688b31","id":74310387,"location_subtype":"","month":"2019-05"},{"category":"violent-crime","location_type":"Force","location":{"latitude":"51.627494","street":{"id":985816,"name":"On or near Whitehall Road"},"longitude":"0.012915"},"context":"","outcome_status":{"category":"Status update unavailable","date":"2019-09"},"persistent_id":"d16188ff65c644e1b51125d5e6051c6ad47b0043a15b6108bdd861952dd5cf39","id":74292669,"location_subtype":"","month":"2019-05"},{"category":"violent-crime","location_type":"Force","location":{"latitude":"51.635123","street":{"id":985777,"name":"On or near Harford Road"},"longitude":"-0.008929"},"context":"","outcome_status":{"category":"Status update unavailable","date":"2019-09"},"persistent_id":"e286d45872d9193428d917f4a50a930bb6564de976fef0420562da1cabf185f3","id":74304484,"location_subtype":"","month":"2019-05"},{"category":"violent-crime","location_type":"Force","location":{"latitude":"51.634184","street":{"id":985844,"name":"On or near The Drive"},"longitude":"0.006651"},"context":"","outcome_status":{"category":"Status update unavailable","date":"2019-09"},"persistent_id":"6293acfed338083ce1f5a02a6483015391935a5609b00151b68e7d3763eb69d8","id":74355273,"location_subtype":"","month":"2019-05"},{"category":"violent-crime","location_type":"Force","location":{"latitude":"51.633501","street":{"id":985772,"name":"On or near Maida Avenue"},"longitude":"-0.010835"},"context":"","outcome_status":{"category":"Status update unavailable","date":"2019-09"},"persistent_id":"ed0f1dc3c4ddaeeb961650a0da10550a6d6a00d76e283ace62ae626218a2a722","id":74333459,"location_subtype":"","month":"2019-05"},{"category":"violent-crime","location_type":"Force","location":{"latitude":"51.632194","street":{"id":985703,"name":"On or near Station Road"},"longitude":"0.006231"},"context":"","outcome_status":{"category":"Investigation complete; no suspect identified","date":"2020-03"},"persistent_id":"a144cf1b49e2807953bc307425235c19d7677e0a16dfbeb44241038b9b1ca794","id":74303924,"location_subtype":"","month":"2019-05"},{"category":"violent-crime","location_type":"Force","location":{"latitude":"51.631984","street":{"id":985737,"name":"On or near Police Station"},"longitude":"-0.001451"},"context":"","outcome_status":{"category":"Status update unavailable","date":"2019-09"},"persistent_id":"46d172f207f238699f77e2927c1c1ea398eb0164969f32a5fdad8916d678ffd6","id":74301697,"location_subtype":"","month":"2019-05"},{"category":"violent-crime","location_type":"Force","location":{"latitude":"51.628791","street":{"id":923633,"name":"On or near The Ridgeway"},"longitude":"-0.005638"},"context":"","outcome_status":{"category":"Investigation complete; no suspect identified","date":"2020-03"},"persistent_id":"9f46d8df2d6107935643971ecf4b1e7a29f58f0cd3063d057c550f686838d24a","id":74345368,"location_subtype":"","month":"2019-05"},{"category":"violent-crime","location_type":"Force","location":{"latitude":"51.628809","street":{"id":985759,"name":"On or near Nevin Drive"},"longitude":"-0.007775"},"context":"","outcome_status":{"category":"Investigation complete; no suspect identified","date":"2020-03"},"persistent_id":"c29951a7b7e671898c1cdb83ec9ef99db8ba975bd480fcedf1c98da65f7c4cf7","id":74349326,"location_subtype":"","month":"2019-05"},{"category":"violent-crime","location_type":"Force","location":{"latitude":"51.629748","street":{"id":985766,"name":"On or near Echo Heights"},"longitude":"-0.012213"},"context":"","outcome_status":{"category":"Investigation complete; no suspect identified","date":"2020-03"},"persistent_id":"d622f0c4240eb929ce4002447847daa1792f392e151a81fa6126d2042776ba9c","id":74354061,"location_subtype":"","month":"2019-05"},{"category":"violent-crime","location_type":"Force","location":{"latitude":"51.636869","street":{"id":985898,"name":"On or near Dells Close"},"longitude":"-0.010601"},"context":"","outcome_status":{"category":"Investigation complete; no suspect identified","date":"2020-03"},"persistent_id":"7215a9ed1a28b0697646374f807a474f90220ba31a91847a7718f2a94fe0d5f9","id":74318554,"location_subtype":"","month":"2019-05"},{"category":"violent-crime","location_type":"Force","location":{"latitude":"51.628422","street":{"id":985722,"name":"On or near King's Road"},"longitude":"0.003362"},"context":"","outcome_status":{"category":"Investigation complete; no suspect identified","date":"2020-03"},"persistent_id":"a28650410bdfd8d16f3f28ab920db0341e109c65875c886f1abd9729ea62507e","id":74318680,"location_subtype":"","month":"2019-05"},{"category":"violent-crime","location_type":"Force","location":{"latitude":"51.631984","street":{"id":985737,"name":"On or near Police Station"},"longitude":"-0.001451"},"context":"","outcome_status":{"category":"Investigation complete; no suspect identified","date":"2020-03"},"persistent_id":"0d45891e5b65a98372738c154e760e0cd2a4a8bf2d2dfcd9da18e1e18912f4c7","id":74295287,"location_subtype":"","month":"2019-05"},{"category":"violent-crime","location_type":"Force","location":{"latitude":"51.622932","street":{"id":985784,"name":"On or near Weale Road"},"longitude":"0.005201"},"context":"","outcome_status":{"category":"Investigation complete; no suspect identified","date":"2020-03"},"persistent_id":"675ea162509448ce502aa714c580d5a42877a6819b151a308bbab648eb5a26fc","id":74353202,"location_subtype":"","month":"2019-05"},{"category":"violent-crime","location_type":"Force","location":{"latitude":"51.632902","street":{"id":985764,"name":"On or near Kings Head Hill"},"longitude":"-0.007870"},"context":"","outcome_status":{"category":"Investigation complete; no suspect identified","date":"2020-03"},"persistent_id":"13c76b4f5c70127f7c275cb7cff99ae8168244d1c62ca77e2b39b0ca425fb3e8","id":74309485,"location_subtype":"","month":"2019-05"},{"category":"violent-crime","location_type":"Force","location":{"latitude":"51.630344","street":{"id":985760,"name":"On or near Mount Echo Drive"},"longitude":"-0.010237"},"context":"","outcome_status":{"category":"Investigation complete; no suspect identified","date":"2020-03"},"persistent_id":"f47abe46c99a9bb78c44c25b72d800c74eac742e86a31b6b92c9f82d141e7164","id":74301684,"location_subtype":"","month":"2019-05"},{"category":"violent-crime","location_type":"Force","location":{"latitude":"51.624525","street":{"id":985815,"name":"On or near Winslow Grove"},"longitude":"0.009837"},"context":"","outcome_status":{"category":"Status update unavailable","date":"2019-09"},"persistent_id":"76637551f7b3a7a7aab8faed638e8aaf72ae77ceea11d10c1b6dca96549450f4","id":74299790,"location_subtype":"","month":"2019-05"},{"category":"violent-crime","location_type":"Force","location":{"latitude":"51.622197","street":{"id":985783,"name":"On or near Wittenham Way"},"longitude":"0.005067"},"context":"","outcome_status":{"category":"Status update unavailable","date":"2019-09"},"persistent_id":"7b56fc5380d9962311dce5684a03864dc3d12feca605fd01313a8ef3338b0f26","id":74348046,"location_subtype":"","month":"2019-05"},{"category":"violent-crime","location_type":"Force","location":{"latitude":"51.631141","street":{"id":985698,"name":"On or near The Ridgeway"},"longitude":"-0.002630"},"context":"","outcome_status":{"category":"Investigation complete; no suspect identified","date":"2020-03"},"persistent_id":"da9e3ddfbe87bd7777dbfb3dd9f84877c8be3c01633472d5a8f3d6e548c756bc","id":74309852,"location_subtype":"","month":"2019-05"},{"category":"violent-crime","location_type":"Force","location":{"latitude":"51.628791","street":{"id":923633,"name":"On or near The Ridgeway"},"longitude":"-0.005638"},"context":"","outcome_status":{"category":"Status update unavailable","date":"2019-09"},"persistent_id":"356aff18df9135273bc9355d52fa1c1a7f4c5238a46eb36dd585ee4b0e1fa38e","id":74311969,"location_subtype":"","month":"2019-05"},{"category":"violent-crime","location_type":"Force","location":{"latitude":"51.634019","street":{"id":985742,"name":"On or near Mornington Road"},"longitude":"0.002092"},"context":"","outcome_status":{"category":"Investigation complete; no suspect identified","date":"2020-03"},"persistent_id":"870064107125983d0e330fb5b714fedb41d2dd4c2d294886d4db197c67282080","id":74339713,"location_subtype":"","month":"2019-05"},{"category":"violent-crime","location_type":"Force","location":{"latitude":"51.643313","street":{"id":688027,"name":"On or near Woodman Lane"},"longitude":"0.009150"},"context":"","outcome_status":{"category":"Unable to prosecute suspect","date":"2019-05"},"persistent_id":"552939240c40f4e09d1ddee76e050ecf3471080a0ddb6093417ed436f3550216","id":74245009,"location_subtype":"","month":"2019-05"},{"category":"violent-crime","location_type":"Force","location":{"latitude":"51.635123","street":{"id":985777,"name":"On or near Harford Road"},"longitude":"-0.008929"},"context":"","outcome_status":{"category":"Investigation complete; no suspect identified","date":"2020-03"},"persistent_id":"90e36822b30f4f9731a7675861b1c8119ce34e02252e516745628bb294170d0b","id":74298176,"location_subtype":"","month":"2019-05"},{"category":"violent-crime","location_type":"Force","location":{"latitude":"51.626809","street":{"id":985692,"name":"On or near Conference Close"},"longitude":"-0.006519"},"context":"","outcome_status":{"category":"Status update unavailable","date":"2019-09"},"persistent_id":"8ba38f83160e6300d13f49d2f316533b02fa2200fa2a95b4ec9e3b371f9dbad8","id":74347970,"location_subtype":"","month":"2019-05"},{"category":"violent-crime","location_type":"Force","location":{"latitude":"51.631984","street":{"id":985737,"name":"On or near Police Station"},"longitude":"-0.001451"},"context":"","outcome_status":{"category":"Investigation complete; no suspect identified","date":"2020-03"},"persistent_id":"d129a84cbae5d866793f4484c68c82df450fc56857dbfda66e688b5dd5e12a52","id":74350746,"location_subtype":"","month":"2019-05"},{"category":"violent-crime","location_type":"Force","location":{"latitude":"51.627508","street":{"id":985817,"name":"On or near Whitehall Road"},"longitude":"0.013667"},"context":"","outcome_status":{"category":"Status update unavailable","date":"2019-09"},"persistent_id":"a3e8615cd847eab8039495c560f4292886854f15be8b91d787131c9722847dc6","id":74350541,"location_subtype":"","month":"2019-05"},{"category":"violent-crime","location_type":"Force","location":{"latitude":"51.626809","street":{"id":985692,"name":"On or near Conference Close"},"longitude":"-0.006519"},"context":"","outcome_status":{"category":"Court result unavailable","date":"2020-02"},"persistent_id":"8ba38f83160e6300d13f49d2f316533b02fa2200fa2a95b4ec9e3b371f9dbad8","id":74347971,"location_subtype":"","month":"2019-05"},{"category":"other-crime","location_type":"Force","location":{"latitude":"51.643313","street":{"id":688027,"name":"On or near Woodman Lane"},"longitude":"0.009150"},"context":"","outcome_status":{"category":"Action to be taken by another organisation","date":"2019-05"},"persistent_id":"62126cd4ea0bb682453a708e57c4a4bb91aab7dec093dd51c98b30a35d71ee02","id":74230638,"location_subtype":"","month":"2019-05"},{"category":"other-crime","location_type":"Force","location":{"latitude":"51.636890","street":{"id":985904,"name":"On or near Petrol Station"},"longitude":"-0.012869"},"context":"","outcome_status":{"category":"Investigation complete; no suspect identified","date":"2020-03"},"persistent_id":"af22e60ba4ed850ee4c249c37c0e0fd674c8ab701d685295ca08eda998c71f15","id":74350622,"location_subtype":"","month":"2019-05"}]