[{"category":"anti-social-behaviour","location_type":"Force","location":{"latitude":"51.646888","street":{"id":986380,"name":"On or near Gerrards Close"},"longitude":"-0.131624"},"context":"","outcome_status":null,"persistent_id":"","id":74286330,"location_subtype":"","month":"2019-05"},{"category":"anti-social-behaviour","location_type":"Force","location":{"latitude":"51.646888","street":{"id":986380,"name":"On or near Gerrards Close"},"longitude":"-0.131624"},"context":"","outcome_status":null,"persistent_id":"","id":74286320,"location_subtype":"","month":"2019-05"},{"category":"anti-social-behaviour","location_type":"Force","location":{"latitude":"51.647549","street":{"id":986482,"name":"On or near Sports\/recreation Area"},"longitude":"-0.143811"},"context":"","outcome_status":null,"persistent_id":"","id":74286357,"location_subtype":"","month":"2019-05"},{"category":"anti-social-behaviour","location_type":"Force","location":{"latitude":"51.641984","street":{"id":986412,"name":"On or near Parking Area"},"longitude":"-0.162191"},"context":"","outcome_status":null,"persistent_id":"","id":74289730,"location_subtype":"","month":"2019-05"},{"category":"anti-social-behaviour","location_type":"Force","location":{"latitude":"51.641984","street":{"id":986412,"name":"On or near Parking Area"},"longitude":"-0.162191"},"context":"","outcome_status":null,"persistent_id":"","id":74289731,"location_subtype":"","month":"2019-05"},{"category":"anti-social-behaviour","location_type":"Force","location":{"latitude":"51.652331","street":{"id":986930,"name":"On or near Appletree Gardens"},"longitude":"-0.164288"},"context":"","outcome_status":null,"persistent_id":"","id":74289736,"location_subtype":"","month":"2019-05"},{"category":"anti-social-behaviour","location_type":"Force","location":{"latitude":"51.657272","street":{"id":923655,"name":"On or near Petrol Station"},"longitude":"-0.153679"},"context":"","outcome_status":null,"persistent_id":"","id":74286361,"location_subtype":"","month":"2019-05"},{"category":"anti-social-behaviour","location_type":"Force","location":{"latitude":"51.649415","street":{"id":986471,"name":"On or near East Close"},"longitude":"-0.145860"},"context":"","outcome_status":null,"persistent_id":"","id":74286360,"location_subtype":"","month":"2019-05"},{"category":"anti-social-behaviour","location_type":"Force","location":{"latitude":"51.649415","street":{"id":986471,"name":"On or near East Close"},"longitude":"-0.145860"},"context":"","outcome_status":null,"persistent_id":"","id":74286358,"location_subtype":"","month":"2019-05"},{"category":"anti-social-behaviour","location_type":"Force","location":{"latitude":"51.649415","street":{"id":986471,"name":"On or near East Close"},"longitude":"-0.145860"},"context":"","outcome_status":null,"persistent_id":"","id":74286359,"location_subtype":"","month":"2019-05"},{"category":"anti-social-behaviour","location_type":"Force","location":{"latitude":"51.639905","street":{"id":986342,"name":"On or near Trent Gardens"},"longitude":"-0.139238"},"context":"","outcome_status":null,"persistent_id":"","id":74286354,"location_subtype":"","month":"2019-05"},{"category":"anti-social-behaviour","location_type":"Force","location":{"latitude":"51.646888","street":{"id":986380,"name":"On or near Gerrards Close"},"longitude":"-0.131624"},"context":"","outcome_status":null,"persistent_id":"","id":74286331,"location_subtype":"","month":"2019-05"},{"category":"anti-social-behaviour","location_type":"Force","location":{"latitude":"51.639905","street":{"id":986342,"name":"On or near Trent Gardens"},"longitude":"-0.139238"},"context":"","outcome_status":null,"persistent_id":"","id":74286353,"location_subtype":"","month":"2019-05"},{"category":"anti-social-behaviour","location_type":"Force","location":{"latitude":"51.639905","street":{"id":986342,"name":"On or near Trent Gardens"},"longitude":"-0.139238"},"context":"","outcome_status":null,"persistent_id":"","id":74286352,"location_subtype":"","month":"2019-05"},{"category":"anti-social-behaviour","location_type":"Force","location":{"latitude":"51.644757","street":{"id":986327,"name":"On or near Priory Close"},"longitude":"-0.137334"},"context":"","outcome_status":null,"persistent_id":"","id":74286344,"location_subtype":"","month":"2019-05"},{"category":"anti-social-behaviour","location_type":"Force","location":{"latitude":"51.642926","street":{"id":986329,"name":"On or near Masefield Crescent"},"longitude":"-0.135834"},"context":"","outcome_status":null,"persistent_id":"","id":74286339,"location_subtype":"","month":"2019-05"},{"category":"anti-social-behaviour","location_type":"Force","location":{"latitude":"51.660560","street":{"id":923640,"name":"On or near Further\/higher Educational Building"},"longitude":"-0.132450"},"context":"","outcome_status":null,"persistent_id":"","id":74286337,"location_subtype":"","month":"2019-05"},{"category":"anti-social-behaviour","location_type":"Force","location":{"latitude":"51.644392","street":{"id":986326,"name":"On or near Reservoir Road"},"longitude":"-0.134155"},"context":"","outcome_status":null,"persistent_id":"","id":74286336,"location_subtype":"","month":"2019-05"},{"category":"anti-social-behaviour","location_type":"Force","location":{"latitude":"51.644392","street":{"id":986326,"name":"On or near Reservoir Road"},"longitude":"-0.134155"},"context":"","outcome_status":null,"persistent_id":"","id":74286335,"location_subtype":"","month":"2019-05"},{"category":"anti-social-behaviour","location_type":"Force","location":{"latitude":"51.644392","street":{"id":986326,"name":"On or near Reservoir Road"},"longitude":"-0.134155"},"context":"","outcome_status":null,"persistent_id":"","id":74286334,"location_subtype":"","month":"2019-05"},{"category":"anti-social-behaviour","location_type":"Force","location":{"latitude":"51.644392","street":{"id":986326,"name":"On or near Reservoir Road"},"longitude":"-0.134155"},"context":"","outcome_status":null,"persistent_id":"","id":74286333,"location_subtype":"","month":"2019-05"},{"category":"anti-social-behaviour","location_type":"Force","location":{"latitude":"51.646190","street":{"id":986590,"name":"On or near Petrol Station"},"longitude":"-0.167210"},"context":"","outcome_status":null,"persistent_id":"","id":74271728,"location_subtype":"","month":"2019-05"},{"category":"anti-social-behaviour","location_type":"Force","location":{"latitude":"51.641160","street":{"id":986442,"name":"On or near Brookside"},"longitude":"-0.160129"},"context":"","outcome_status":null,"persistent_id":"","id":74289726,"location_subtype":"","month":"2019-05"},{"category":"anti-social-behaviour","location_type":"Force","location":{"latitude":"51.646190","street":{"id":986590,"name":"On or near Petrol Station"},"longitude":"-0.167210"},"context":"","outcome_status":null,"persistent_id":"","id":74271722,"location_subtype":"","month":"2019-05"},{"category":"anti-social-behaviour","location_type":"Force","location":{"latitude":"51.646190","street":{"id":986590,"name":"On or near Petrol Station"},"longitude":"-0.167210"},"context":"","outcome_status":null,"persistent_id":"","id":74271723,"location_subtype":"","month":"2019-05"},{"category":"anti-social-behaviour","location_type":"Force","location":{"latitude":"51.646190","street":{"id":986590,"name":"On or near Petrol Station"},"longitude":"-0.167210"},"context":"","outcome_status":null,"persistent_id":"","id":74271724,"location_subtype":"","month":"2019-05"},{"category":"anti-social-behaviour","location_type":"Force","location":{"latitude":"51.646190","street":{"id":986590,"name":"On or near Petrol Station"},"longitude":"-0.167210"},"context":"","outcome_status":null,"persistent_id":"","id":74271725,"location_subtype":"","month":"2019-05"},{"category":"anti-social-behaviour","location_type":"Force","location":{"latitude":"51.646190","street":{"id":986590,"name":"On or near Petrol Station"},"longitude":"-0.167210"},"context":"","outcome_status":null,"persistent_id":"","id":74271726,"location_subtype":"","month":"2019-05"},{"category":"anti-social-behaviour","location_type":"Force","location":{"latitude":"51.646190","street":{"id":986590,"name":"On or near Petrol Station"},"longitude":"-0.167210"},"context":"","outcome_status":null,"persistent_id":"","id":74271727,"location_subtype":"","month":"2019-05"},{"category":"anti-social-behaviour","location_type":"Force","location":{"latitude":"51.646190","street":{"id":986590,"name":"On or near Petrol Station"},"longitude":"-0.167210"},"context":"","outcome_status":null,"persistent_id":"","id":74271729,"location_subtype":"","month":"2019-05"},{"category":"anti-social-behaviour","location_type":"Force","location":{"latitude":"51.646190","street":{"id":986590,"name":"On or near Petrol Station"},"longitude":"-0.167210"},"context":"","outcome_status":null,"persistent_id":"","id":74271730,"location_subtype":"","month":"2019-05"},{"category":"anti-social-behaviour","location_type":"Force","location":{"latitude":"51.646190","street":{"id":986590,"name":"On or near Petrol Station"},"longitude":"-0.167210"},"context":"","outcome_status":null,"persistent_id":"","id":74271731,"location_subtype":"","month":"2019-05"},{"category":"anti-social-behaviour","location_type":"Force","location":{"latitude":"51.646556","street":{"id":986582,"name":"On or near Brownlow Close"},"longitude":"-0.168207"},"context":"","outcome_status":null,"persistent_id":"","id":74271745,"location_subtype":"","month":"2019-05"},{"category":"anti-social-behaviour","location_type":"Force","location":{"latitude":"51.646556","street":{"id":986582,"name":"On or near Brownlow Close"},"longitude":"-0.168207"},"context":"","outcome_status":null,"persistent_id":"","id":74271746,"location_subtype":"","month":"2019-05"},{"category":"anti-social-behaviour","location_type":"Force","location":{"latitude":"51.649563","street":{"id":986591,"name":"On or near Petrol Station"},"longitude":"-0.170196"},"context":"","outcome_status":null,"persistent_id":"","id":74271757,"location_subtype":"","month":"2019-05"},{"category":"anti-social-behaviour","location_type":"Force","location":{"latitude":"51.649563","street":{"id":986591,"name":"On or near Petrol Station"},"longitude":"-0.170196"},"context":"","outcome_status":null,"persistent_id":"","id":74271758,"location_subtype":"","month":"2019-05"},{"category":"anti-social-behaviour","location_type":"Force","location":{"latitude":"51.647944","street":{"id":986580,"name":"On or near Clarence Close"},"longitude":"-0.171317"},"context":"","outcome_status":null,"persistent_id":"","id":74271763,"location_subtype":"","month":"2019-05"},{"category":"anti-social-behaviour","location_type":"Force","location":{"latitude":"51.654904","street":{"id":986935,"name":"On or near Hertford Road"},"longitude":"-0.172453"},"context":"","outcome_status":null,"persistent_id":"","id":74271772,"location_subtype":"","month":"2019-05"},{"category":"anti-social-behaviour","location_type":"Force","location":{"latitude":"51.654619","street":{"id":986985,"name":"On or near Games Road"},"longitude":"-0.153657"},"context":"","outcome_status":null,"persistent_id":"","id":74286367,"location_subtype":"","month":"2019-05"},{"category":"anti-social-behaviour","location_type":"Force","location":{"latitude":"51.657272","street":{"id":923655,"name":"On or near Petrol Station"},"longitude":"-0.153679"},"context":"","outcome_status":null,"persistent_id":"","id":74286365,"location_subtype":"","month":"2019-05"},{"category":"anti-social-behaviour","location_type":"Force","location":{"latitude":"51.654619","street":{"id":986985,"name":"On or near Games Road"},"longitude":"-0.153657"},"context":"","outcome_status":null,"persistent_id":"","id":74286366,"location_subtype":"","month":"2019-05"},{"category":"anti-social-behaviour","location_type":"Force","location":{"latitude":"51.657272","street":{"id":923655,"name":"On or near Petrol Station"},"longitude":"-0.153679"},"context":"","outcome_status":null,"persistent_id":"","id":74286364,"location_subtype":"","month":"2019-05"},{"category":"anti-social-behaviour","location_type":"Force","location":{"latitude":"51.657272","street":{"id":923655,"name":"On or near Petrol Station"},"longitude":"-0.153679"},"context":"","outcome_status":null,"persistent_id":"","id":74286363,"location_subtype":"","month":"2019-05"},{"category":"anti-social-behaviour","location_type":"Force","location":{"latitude":"51.657272","street":{"id":923655,"name":"On or near Petrol Station"},"longitude":"-0.153679"},"context":"","outcome_status":null,"persistent_id":"","id":74286362,"location_subtype":"","month":"2019-05"},{"category":"anti-social-behaviour","location_type":"Force","location":{"latitude":"51.652518","street":{"id":986982,"name":"On or near Lockwood Close"},"longitude":"-0.157862"},"context":"","outcome_status":null,"persistent_id":"","id":74289720,"location_subtype":"","month":"2019-05"},{"category":"anti-social-behaviour","location_type":"Force","location":{"latitude":"51.655243","street":{"id":986979,"name":"On or near Somercoates Close"},"longitude":"-0.160195"},"context":"","outcome_status":null,"persistent_id":"","id":74289728,"location_subtype":"","month":"2019-05"},{"category":"bicycle-theft","location_type":"Force","location":{"latitude":"51.648225","street":{"id":986544,"name":"On or near Parking Area"},"longitude":"-0.169108"},"context":"","outcome_status":{"category":"Status update unavailable","date":"2019-09"},"persistent_id":"631300fc5e82817ba029c8ad4d0f6516574bfd2db2c59f2cea0cfebc6305a596","id":74319853,"location_subtype":"","month":"2019-05"},{"category":"burglary","location_type":"Force","location":{"latitude":"51.642772","street":{"id":986339,"name":"On or near Avenue Close"},"longitude":"-0.132935"},"context":"","outcome_status":{"category":"Status update unavailable","date":"2019-09"},"persistent_id":"0e1c95197fce0a032e56fcb0b7993c099c664cdf75b13db5567adc4351840099","id":74371137,"location_subtype":"","month":"2019-05"},{"category":"burglary","location_type":"Force","location":{"latitude":"51.646653","street":{"id":986441,"name":"On or near Caddington Close"},"longitude":"-0.162335"},"context":"","outcome_status":{"category":"Status update unavailable","date":"2019-09"},"persistent_id":"77c47c935207f2a0f0c8f1b730b35cc75019938aeeb6cc92ad618569b5189233","id":74368767,"location_subtype":"","month":"2019-05"},{"category":"burglary","location_type":"Force","location":{"latitude":"51.651801","street":{"id":986996,"name":"On or near Edgeworth Road"},"longitude":"-0.161476"},"context":"","outcome_status":{"category":"Status update unavailable","date":"2019-09"},"persistent_id":"cf79c413409f5398eb9cd41144a036ff586d8f3d17ffff35608a789939216893","id":74308612,"location_subtype":"","month":"2019-05"},{"category":"burglary","location_type":"Force","location":{"latitude":"51.644616","street":{"id":986389,"name":"On or near Catherine Court"},"longitude":"-0.131862"},"context":"","outcome_status":{"category":"Status update unavailable","date":"2019-09"},"persistent_id":"68199ffdd14913ab9579f5c73da80d60a6ac354e8191b48b53ea0f668594315b","id":74366083,"location_subtype":"","month":"2019-05"},{"category":"burglary","location_type":"Force","location":{"latitude":"51.648760","street":{"id":986440,"name":"On or near Carson Road"},"longitude":"-0.157378"},"context":"","outcome_status":{"category":"Status update unavailable","date":"2019-09"},"persistent_id":"2780f133431ea780487cc31598af938584674c377849dbacbd7c6b8fedde214a","id":74348121,"location_subtype":"","month":"2019-05"},{"category":"burglary","location_type":"Force","location":{"latitude":"51.649563","street":{"id":986591,"name":"On or near Petrol Station"},"longitude":"-0.170196"},"context":"","outcome_status":{"category":"Status update unavailable","date":"2019-09"},"persistent_id":"67db0a154c7aca1dcfbeaacd8867d89d1048623124c4a8fafaa13c20affc40f4","id":74346859,"location_subtype":"","month":"2019-05"},{"category":"burglary","location_type":"Force","location":{"latitude":"51.654778","street":{"id":986944,"name":"On or near Linthorpe Road"},"longitude":"-0.162657"},"context":"","outcome_status":{"category":"Status update unavailable","date":"2019-09"},"persistent_id":"e88802715f4a4dfe489b08d57bb27ac706714295df38983c6a6fd0e899e19eaf","id":74341960,"location_subtype":"","month":"2019-05"},{"category":"burglary","location_type":"Force","location":{"latitude":"51.645899","street":{"id":986583,"name":"On or near Brookhill Road"},"longitude":"-0.166427"},"context":"","outcome_status":{"category":"Status update unavailable","date":"2019-09"},"persistent_id":"72921804dbafc9775a528374f58e450ed49e007a3dcfcf5757577e818f15df61","id":74335645,"location_subtype":"","month":"2019-05"},{"category":"burglary","location_type":"Force","location":{"latitude":"51.646128","street":{"id":986478,"name":"On or near Balmore Crescent"},"longitude":"-0.147237"},"context":"","outcome_status":{"category":"Status update unavailable","date":"2019-09"},"persistent_id":"5e1f07bb608d8dec78e31ae987b2e9439db797055493cd230ca2b3652a62787c","id":74329079,"location_subtype":"","month":"2019-05"},{"category":"burglary","location_type":"Force","location":{"latitude":"51.649324","street":{"id":986541,"name":"On or near Botany Close"},"longitude":"-0.164063"},"context":"","outcome_status":{"category":"Status update unavailable","date":"2019-09"},"persistent_id":"876c966079a2c9a0e947491ea0c885d5d68df2f9e19e5f7abfa5a3702ff00f52","id":74334050,"location_subtype":"","month":"2019-05"},{"category":"burglary","location_type":"Force","location":{"latitude":"51.645286","street":{"id":986474,"name":"On or near Cat Hill"},"longitude":"-0.148008"},"context":"","outcome_status":{"category":"Status update unavailable","date":"2019-09"},"persistent_id":"a357ccc519d2f731b586682b0904cb8532977b7d0865a2082ec8ce6c90483336","id":74317665,"location_subtype":"","month":"2019-05"},{"category":"burglary","location_type":"Force","location":{"latitude":"51.651801","street":{"id":986996,"name":"On or near Edgeworth Road"},"longitude":"-0.161476"},"context":"","outcome_status":{"category":"Status update unavailable","date":"2019-09"},"persistent_id":"181ea8914e1971c0479917729959836b2fb9e1345f1cb997869aab81040d08af","id":74301593,"location_subtype":"","month":"2019-05"},{"category":"burglary","location_type":"Force","location":{"latitude":"51.646888","street":{"id":986380,"name":"On or near Gerrards Close"},"longitude":"-0.131624"},"context":"","outcome_status":{"category":"Status update unavailable","date":"2019-09"},"persistent_id":"9af3773a9fad9b025a6c0a0a2c1dfccf92aa28951902f4f3fdeee8f4474ba3ed","id":74348638,"location_subtype":"","month":"2019-05"},{"category":"burglary","location_type":"Force","location":{"latitude":"51.655886","street":{"id":986987,"name":"On or near Fairgreen East"},"longitude":"-0.153634"},"context":"","outcome_status":{"category":"Status update unavailable","date":"2019-09"},"persistent_id":"7b9ed5d26afb19c0f88d8c84befafcc707f3161fe88fd80df3cdd37888eeceba","id":74290871,"location_subtype":"","month":"2019-05"},{"category":"burglary","location_type":"Force","location":{"latitude":"51.655886","street":{"id":986987,"name":"On or near Fairgreen East"},"longitude":"-0.153634"},"context":"","outcome_status":{"category":"Status update unavailable","date":"2019-09"},"persistent_id":"d2241c0d5b3dabf85ff1798532459195be4c4a4d75ab6f3070433fb3cb7be579","id":74291698,"location_subtype":"","month":"2019-05"},{"category":"burglary","location_type":"Force","location":{"latitude":"51.652331","street":{"id":986930,"name":"On or near Appletree Gardens"},"longitude":"-0.164288"},"context":"","outcome_status":{"category":"Investigation complete; no suspect identified","date":"2020-03"},"persistent_id":"719023003cd02f0bbd95937cb41f1522e71f41247b56e355feb531b3534e5e9b","id":74338962,"location_subtype":"","month":"2019-05"},{"category":"burglary","location_type":"Force","location":{"latitude":"51.640624","street":{"id":986483,"name":"On or near Further\/higher Educational Building"},"longitude":"-0.146652"},"context":"","outcome_status":{"category":"Status update unavailable","date":"2019-09"},"persistent_id":"a8419bd3ca6d8773e734d02d937e7497a3cbc78bed16ac237691c563c3c512c4","id":74323115,"location_subtype":"","month":"2019-05"},{"category":"criminal-damage-arson","location_type":"Force","location":{"latitude":"51.641926","street":{"id":986323,"name":"On or near The Fairway"},"longitude":"-0.136843"},"context":"","outcome_status":{"category":"Status update unavailable","date":"2019-09"},"persistent_id":"b62cfee870ef2477ac3f260104fc065bca3cfb696893794556f24687b7fddc52","id":74311731,"location_subtype":"","month":"2019-05"},{"category":"criminal-damage-arson","location_type":"Force","location":{"latitude":"51.653019","street":{"id":986977,"name":"On or near The Paddocks"},"longitude":"-0.153707"},"context":"","outcome_status":{"category":"Status update unavailable","date":"2019-09"},"persistent_id":"e55bab230aeaab4321d1c5d43e21abeec3678ada35ef89e36d2e1c6c6d2ee448","id":74293251,"location_subtype":"","month":"2019-05"},{"category":"criminal-damage-arson","location_type":"Force","location":{"latitude":"51.651615","street":{"id":986997,"name":"On or near Bevan Road"},"longitude":"-0.155354"},"context":"","outcome_status":{"category":"Status update unavailable","date":"2019-09"},"persistent_id":"1d68b5b1cb9762bdc3dc3641ce772a5336c6202ecb756559a1ae70e7c636b854","id":74306127,"location_subtype":"","month":"2019-05"},{"category":"criminal-damage-arson","location_type":"Force","location":{"latitude":"51.651615","street":{"id":986997,"name":"On or near Bevan Road"},"longitude":"-0.155354"},"context":"","outcome_status":{"category":"Status update unavailable","date":"2019-09"},"persistent_id":"79ed072d1be809062d1baacdb1302b9eb4e5a9a84d72b508b143678e5c2a6040","id":74314356,"location_subtype":"","month":"2019-05"},{"category":"criminal-damage-arson","location_type":"Force","location":{"latitude":"51.655711","street":{"id":987006,"name":"On or near Sports\/recreation Area"},"longitude":"-0.140254"},"context":"","outcome_status":{"category":"Status update unavailable","date":"2019-09"},"persistent_id":"5f98dab4ac465af16d1ceb95ad0fcdd61cd2f0fe1d68b3eeeec52558806d6e95","id":74337200,"location_subtype":"","month":"2019-05"},{"category":"criminal-damage-arson","location_type":"Force","location":{"latitude":"51.640224","street":{"id":986332,"name":"On or near Hood Avenue"},"longitude":"-0.138373"},"context":"","outcome_status":{"category":"Status update unavailable","date":"2019-09"},"persistent_id":"436570a8a23da1ac1a7c8cd0a4f3572b2d328f29f31597e1118abc7625048e74","id":74351197,"location_subtype":"","month":"2019-05"},{"category":"drugs","location_type":"Force","location":{"latitude":"51.643155","street":{"id":986542,"name":"On or near Barons Gate"},"longitude":"-0.163502"},"context":"","outcome_status":{"category":"Investigation complete; no suspect identified","date":"2020-05"},"persistent_id":"97a03969cedc5939731814e7929dadac89af39fea87c6b181ca7f562689e89f1","id":74346736,"location_subtype":"","month":"2019-05"},{"category":"other-theft","location_type":"BTP","location":{"latitude":"51.651700","street":{"id":1488713,"name":"Cockfosters (lu Station)"},"longitude":"-0.149683"},"context":"","outcome_status":{"category":"Status update unavailable","date":"2019-09"},"persistent_id":"","id":88718771,"location_subtype":"LU STATION","month":"2019-05"},{"category":"other-theft","location_type":"BTP","location":{"latitude":"51.651700","street":{"id":1488713,"name":"Cockfosters (lu Station)"},"longitude":"-0.149683"},"context":"","outcome_status":{"category":"Status update unavailable","date":"2019-09"},"persistent_id":"","id":88718770,"location_subtype":"LU STATION","month":"2019-05"},{"category":"other-theft","location_type":"Force","location":{"latitude":"51.639772","street":{"id":986475,"name":"On or near Canon Mohan Close"},"longitude":"-0.143941"},"context":"","outcome_status":{"category":"Status update unavailable","date":"2019-09"},"persistent_id":"2dee28acaf881ce5e87375570737cc334d3fc9476449a36539b35d54c539d22d","id":74343186,"location_subtype":"","month":"2019-05"},{"category":"other-theft","location_type":"Force","location":{"latitude":"51.649563","street":{"id":986591,"name":"On or near Petrol Station"},"longitude":"-0.170196"},"context":"","outcome_status":{"category":"Status update unavailable","date":"2019-09"},"persistent_id":"7bd64a0592a5dc2ab974da1fa5714d820e5706fd94a0fcc0cd35b4fc8dd9c9d1","id":74328581,"location_subtype":"","month":"2019-05"},{"category":"other-theft","location_type":"Force","location":{"latitude":"51.646190","street":{"id":986590,"name":"On or near Petrol Station"},"longitude":"-0.167210"},"context":"","outcome_status":{"category":"Status update unavailable","date":"2019-09"},"persistent_id":"aadd1a6311a0bf3fb90595efc2a4b1b251d1b592479336aaed6d1fa96d5802c9","id":74369228,"location_subtype":"","month":"2019-05"},{"category":"other-theft","location_type":"Force","location":{"latitude":"51.649563","street":{"id":986591,"name":"On or near Petrol Station"},"longitude":"-0.170196"},"context":"","outcome_status":{"category":"Status update unavailable","date":"2019-09"},"persistent_id":"d5b8ab42e2d24a65610cd421d16a5114622ae9d4e7f495733692c2f68e340a9a","id":74318126,"location_subtype":"","month":"2019-05"},{"category":"other-theft","location_type":"Force","location":{"latitude":"51.650191","street":{"id":986460,"name":"On or near Mount Pleasant"},"longitude":"-0.150020"},"context":"","outcome_status":{"category":"Status update unavailable","date":"2019-09"},"persistent_id":"7eed4c2b1a1b61725c5879c9306a98963e8341567ff60ea4ecb8eedb674e9143","id":74329881,"location_subtype":"","month":"2019-05"},{"category":"other-theft","location_type":"Force","location":{"latitude":"51.646190","street":{"id":986590,"name":"On or near Petrol Station"},"longitude":"-0.167210"},"context":"","outcome_status":{"category":"Status update unavailable","date":"2019-09"},"persistent_id":"0cba406dd018b3a4a5bb0c3ffc8ceb700b000033a2f783dc9f127a549df54994","id":74324119,"location_subtype":"","month":"2019-05"},{"category":"other-theft","location_type":"Force","location":{"latitude":"51.639772","street":{"id":986475,"name":"On or near Canon Mohan Close"},"longitude":"-0.143941"},"context":"","outcome_status":{"category":"Status update unavailable","date":"2019-09"},"persistent_id":"edf37f288b30961050d536a6295edf0c7ce87c41314fe537a0e73b0505eb7209","id":74342889,"location_subtype":"","month":"2019-05"},{"category":"other-theft","location_type":"Force","location":{"latitude":"51.648225","street":{"id":986544,"name":"On or near Parking Area"},"longitude":"-0.169108"},"context":"","outcome_status":{"category":"Status update unavailable","date":"2019-09"},"persistent_id":"72bea2ce49a38bf52de06b49f4bc51c413bce42ad2ba4ec56510486bada7ae0e","id":74292321,"location_subtype":"","month":"2019-05"},{"category":"other-theft","location_type":"Force","location":{"latitude":"51.643352","street":{"id":986438,"name":"On or near Cat Hill"},"longitude":"-0.161688"},"context":"","outcome_status":{"category":"Status update unavailable","date":"2019-09"},"persistent_id":"e1a9d57cb34213d60090e5b510b2fbf88900d599a9ba76fd1feb758439fb9684","id":74314094,"location_subtype":"","month":"2019-05"},{"category":"other-theft","location_type":"Force","location":{"latitude":"51.649563","street":{"id":986591,"name":"On or near Petrol Station"},"longitude":"-0.170196"},"context":"","outcome_status":{"category":"Status update unavailable","date":"2019-09"},"persistent_id":"d7c0bd44bc3f8e6a985c0339fc49b19ff117d9ed19ed9b3f26da705329942e81","id":74317029,"location_subtype":"","month":"2019-05"},{"category":"other-theft","location_type":"Force","location":{"latitude":"51.643155","street":{"id":986542,"name":"On or near Barons Gate"},"longitude":"-0.163502"},"context":"","outcome_status":{"category":"Status update unavailable","date":"2019-09"},"persistent_id":"a35a2185c8b9c4f2d7fa30315a2a8fa95ff12efb3f8fee0dae729cba8ddc1b6b","id":74307949,"location_subtype":"","month":"2019-05"},{"category":"other-theft","location_type":"Force","location":{"latitude":"51.649563","street":{"id":986591,"name":"On or near Petrol Station"},"longitude":"-0.170196"},"context":"","outcome_status":{"category":"Status update unavailable","date":"2019-09"},"persistent_id":"b10cccc654d431030be0ffca04c0be67e1bca1ad61d860b5337db5bd8a787e23","id":74321040,"location_subtype":"","month":"2019-05"},{"category":"other-theft","location_type":"Force","location":{"latitude":"51.640624","street":{"id":986483,"name":"On or near Further\/higher Educational Building"},"longitude":"-0.146652"},"context":"","outcome_status":{"category":"Status update unavailable","date":"2019-09"},"persistent_id":"6756ae64a7edb1882b2312bf67b85488a23e41ffae30ec329c09623d5a7b18ac","id":74301139,"location_subtype":"","month":"2019-05"},{"category":"other-theft","location_type":"BTP","location":{"latitude":"51.651700","street":{"id":1488713,"name":"Cockfosters (lu Station)"},"longitude":"-0.149683"},"context":"","outcome_status":{"category":"Status update unavailable","date":"2019-09"},"persistent_id":"","id":88718772,"location_subtype":"LU STATION","month":"2019-05"},{"category":"other-theft","location_type":"Force","location":{"latitude":"51.648083","street":{"id":986465,"name":"On or near Heddon Court Avenue"},"longitude":"-0.149774"},"context":"","outcome_status":{"category":"Status update unavailable","date":"2019-09"},"persistent_id":"0195fa89440cff275104143ba2e4766c0b2d50c43a2c2c17d3d0759924e51d40","id":74325569,"location_subtype":"","month":"2019-05"},{"category":"other-theft","location_type":"Force","location":{"latitude":"51.647595","street":{"id":986550,"name":"On or near Warwick Close"},"longitude":"-0.166228"},"context":"","outcome_status":{"category":"Status update unavailable","date":"2019-09"},"persistent_id":"ebcc6661a2e8c334356b9970810d8b9046ac796287a29b5a2e3352d6dc58aa1d","id":74312319,"location_subtype":"","month":"2019-05"},{"category":"other-theft","location_type":"Force","location":{"latitude":"51.650820","street":{"id":986589,"name":"On or near Albert Road"},"longitude":"-0.172965"},"context":"","outcome_status":{"category":"Status update unavailable","date":"2019-09"},"persistent_id":"28d799f17b559b7c7a3d43e90f1714fbe9ba00e97e82e58dc1bfb5362c31a33b","id":74312320,"location_subtype":"","month":"2019-05"},{"category":"possession-of-weapons","location_type":"Force","location":{"latitude":"51.647595","street":{"id":986550,"name":"On or near Warwick Close"},"longitude":"-0.166228"},"context":"","outcome_status":{"category":"Status update unavailable","date":"2019-09"},"persistent_id":"718ed59a7006958e852262d30c8b469ef1c3c6d602ad17b55fae453dd23acc71","id":74310964,"location_subtype":"","month":"2019-05"},{"category":"possession-of-weapons","location_type":"Force","location":{"latitude":"51.647595","street":{"id":986550,"name":"On or near Warwick Close"},"longitude":"-0.166228"},"context":"","outcome_status":{"category":"Court result unavailable","date":"2020-06"},"persistent_id":"718ed59a7006958e852262d30c8b469ef1c3c6d602ad17b55fae453dd23acc71","id":74313534,"location_subtype":"","month":"2019-05"},{"category":"public-order","location_type":"Force","location":{"latitude":"51.649240","street":{"id":986472,"name":"On or near Cockfosters Road"},"longitude":"-0.148440"},"context":"","outcome_status":{"category":"Status update unavailable","date":"2019-09"},"persistent_id":"01b82f174738c5ab174aa03084479a4eee3d2a6bac21e34df3d88908ecb28a40","id":74349737,"location_subtype":"","month":"2019-05"},{"category":"public-order","location_type":"Force","location":{"latitude":"51.642347","street":{"id":986417,"name":"On or near Ridgeway Avenue"},"longitude":"-0.156699"},"context":"","outcome_status":{"category":"Status update unavailable","date":"2019-09"},"persistent_id":"f16ba903a7ddf81af383aeacc66ee0140c8a85f1e6be9b5f0bb5d3809976999c","id":74330081,"location_subtype":"","month":"2019-05"},{"category":"public-order","location_type":"Force","location":{"latitude":"51.644062","street":{"id":986435,"name":"On or near Doggetts Court"},"longitude":"-0.162830"},"context":"","outcome_status":{"category":"Status update unavailable","date":"2019-09"},"persistent_id":"41725ed7dea753bfb31c21182e3b80a85033ee8305fb017f191cb03fe05a0360","id":74341511,"location_subtype":"","month":"2019-05"},{"category":"public-order","location_type":"BTP","location":{"latitude":"51.651700","street":{"id":1488713,"name":"Cockfosters (lu Station)"},"longitude":"-0.149683"},"context":"","outcome_status":{"category":"Status update unavailable","date":"2019-09"},"persistent_id":"","id":88718773,"location_subtype":"LU STATION","month":"2019-05"},{"category":"public-order","location_type":"Force","location":{"latitude":"51.646190","street":{"id":986590,"name":"On or near Petrol Station"},"longitude":"-0.167210"},"context":"","outcome_status":{"category":"Status update unavailable","date":"2019-09"},"persistent_id":"1da1cc434cb50502386a3daf9b0defe6786dd9816a6de896bba069374cc5ed8a","id":74305725,"location_subtype":"","month":"2019-05"},{"category":"public-order","location_type":"BTP","location":{"latitude":"51.651700","street":{"id":1488713,"name":"Cockfosters (lu Station)"},"longitude":"-0.149683"},"context":"","outcome_status":{"category":"Status update unavailable","date":"2019-09"},"persistent_id":"","id":88718774,"location_subtype":"LU STATION","month":"2019-05"},{"category":"public-order","location_type":"Force","location":{"latitude":"51.646556","street":{"id":986582,"name":"On or near Brownlow Close"},"longitude":"-0.168207"},"context":"","outcome_status":{"category":"Status update unavailable","date":"2019-09"},"persistent_id":"11181080e1728b02762bf59cb6752c14217ed4ee22b3f8a618cd2f3a0862a5c6","id":74359430,"location_subtype":"","month":"2019-05"},{"category":"robbery","location_type":"Force","location":{"latitude":"51.643274","street":{"id":986543,"name":"On or near Supermarket"},"longitude":"-0.164769"},"context":"","outcome_status":{"category":"Court result unavailable","date":"2020-02"},"persistent_id":"9a8b3bff45227f506b38a91d1ab1f9db2e8dfd42ef25f2718bc17d78187ead13","id":74370925,"location_subtype":"","month":"2019-05"},{"category":"robbery","location_type":"Force","location":{"latitude":"51.648916","street":{"id":986399,"name":"On or near Further\/higher Educational Building"},"longitude":"-0.129098"},"context":"","outcome_status":{"category":"Investigation complete; no suspect identified","date":"2020-03"},"persistent_id":"aa08a95327dee4d04867d1619015ca459ce942961d18e01f984a86e39b7954b6","id":74297058,"location_subtype":"","month":"2019-05"},{"category":"robbery","location_type":"Force","location":{"latitude":"51.643155","street":{"id":986542,"name":"On or near Barons Gate"},"longitude":"-0.163502"},"context":"","outcome_status":{"category":"Status update unavailable","date":"2019-09"},"persistent_id":"2e9ae5f9ee9c6b0776769abe916639d8a192e883b84c0040f262aefdd5aea72f","id":74295390,"location_subtype":"","month":"2019-05"},{"category":"robbery","location_type":"Force","location":{"latitude":"51.649563","street":{"id":986591,"name":"On or near Petrol Station"},"longitude":"-0.170196"},"context":"","outcome_status":{"category":"Status update unavailable","date":"2019-09"},"persistent_id":"4070f3097e4ee52466016f4ed10052235eb625f13f91dac86250dea2a31401a7","id":74328540,"location_subtype":"","month":"2019-05"},{"category":"robbery","location_type":"Force","location":{"latitude":"51.650191","street":{"id":986460,"name":"On or near Mount Pleasant"},"longitude":"-0.150020"},"context":"","outcome_status":{"category":"Status update unavailable","date":"2019-09"},"persistent_id":"50d3646eff0aeaccb6569fd7d1060e4b6deb82771fc9a65bdd767a307b4dbefd","id":74372687,"location_subtype":"","month":"2019-05"},{"category":"robbery","location_type":"Force","location":{"latitude":"51.642939","street":{"id":986534,"name":"On or near East Barnet Road"},"longitude":"-0.164075"},"context":"","outcome_status":{"category":"Investigation complete; no suspect identified","date":"2020-05"},"persistent_id":"8689a4d34633571373b6d99d3cdd0d3bbb11d4d2623826729bed94f07297a906","id":74295062,"location_subtype":"","month":"2019-05"},{"category":"robbery","location_type":"Force","location":{"latitude":"51.647733","street":{"id":986355,"name":"On or near Parking Area"},"longitude":"-0.131040"},"context":"","outcome_status":{"category":"Investigation complete; no suspect identified","date":"2020-03"},"persistent_id":"33184b8abd5af87145ebab42925427a8b73780dbe778b3dc1ae1146bf2194d6e","id":74300710,"location_subtype":"","month":"2019-05"},{"category":"robbery","location_type":"Force","location":{"latitude":"51.652192","street":{"id":986971,"name":"On or near Sports\/recreation Area"},"longitude":"-0.150850"},"context":"","outcome_status":{"category":"Status update unavailable","date":"2019-09"},"persistent_id":"635ee6124751d27d3d4709a67d2e89c223ebdb1eaf150295c541ce7b98bd3013","id":74346350,"location_subtype":"","month":"2019-05"},{"category":"robbery","location_type":"Force","location":{"latitude":"51.652192","street":{"id":986971,"name":"On or near Sports\/recreation Area"},"longitude":"-0.150850"},"context":"","outcome_status":{"category":"Investigation complete; no suspect identified","date":"2020-03"},"persistent_id":"327eaa69070c39c98134d9c125718cbfcdbc554800030f3b89ee2c4e020636ad","id":74351246,"location_subtype":"","month":"2019-05"},{"category":"shoplifting","location_type":"Force","location":{"latitude":"51.649563","street":{"id":986591,"name":"On or near Petrol Station"},"longitude":"-0.170196"},"context":"","outcome_status":{"category":"Status update unavailable","date":"2019-09"},"persistent_id":"1d8e294050f9d0ada39131d6a8b846e2a9cda677f531f8619f7131c72b6121ef","id":74319783,"location_subtype":"","month":"2019-05"},{"category":"shoplifting","location_type":"Force","location":{"latitude":"51.652192","street":{"id":986971,"name":"On or near Sports\/recreation Area"},"longitude":"-0.150850"},"context":"","outcome_status":{"category":"Status update unavailable","date":"2019-09"},"persistent_id":"445a359f1bda573f592844cbc0a97d23315c58ca4cf3e5f3ef00ffff17019017","id":74320894,"location_subtype":"","month":"2019-05"},{"category":"shoplifting","location_type":"Force","location":{"latitude":"51.646128","street":{"id":986478,"name":"On or near Balmore Crescent"},"longitude":"-0.147237"},"context":"","outcome_status":{"category":"Status update unavailable","date":"2019-09"},"persistent_id":"97bd07b3208050734422030da1fe7d9202c5be16cf02293a3dbc46f7d5b1ccaa","id":74327957,"location_subtype":"","month":"2019-05"},{"category":"shoplifting","location_type":"Force","location":{"latitude":"51.649470","street":{"id":986547,"name":"On or near Parking Area"},"longitude":"-0.171703"},"context":"","outcome_status":{"category":"Status update unavailable","date":"2019-09"},"persistent_id":"1cce7fcc3a6476793d35a0acd2ab211b19d70edae88d43bf380f66427c2b5889","id":74306128,"location_subtype":"","month":"2019-05"},{"category":"shoplifting","location_type":"Force","location":{"latitude":"51.652192","street":{"id":986971,"name":"On or near Sports\/recreation Area"},"longitude":"-0.150850"},"context":"","outcome_status":{"category":"Investigation complete; no suspect identified","date":"2020-03"},"persistent_id":"91d83ad38e9a3b42ee04c23f2dd70bb96b9b15e2b2db8452e70951b7efb9af7b","id":74352137,"location_subtype":"","month":"2019-05"},{"category":"shoplifting","location_type":"Force","location":{"latitude":"51.649470","street":{"id":986547,"name":"On or near Parking Area"},"longitude":"-0.171703"},"context":"","outcome_status":{"category":"Status update unavailable","date":"2019-09"},"persistent_id":"9e14108602d394d8432dc12c26dfbff41bbfff956655254c2ad7402f309f44f5","id":74298223,"location_subtype":"","month":"2019-05"},{"category":"shoplifting","location_type":"Force","location":{"latitude":"51.649563","street":{"id":986591,"name":"On or near Petrol Station"},"longitude":"-0.170196"},"context":"","outcome_status":{"category":"Status update unavailable","date":"2019-09"},"persistent_id":"60f4400bdf1bfebe79ab0cac348de7b8a3490dbdd296f57ca7b5b6475eb06a5c","id":74310982,"location_subtype":"","month":"2019-05"},{"category":"shoplifting","location_type":"Force","location":{"latitude":"51.652192","street":{"id":986971,"name":"On or near Sports\/recreation Area"},"longitude":"-0.150850"},"context":"","outcome_status":{"category":"Status update unavailable","date":"2019-09"},"persistent_id":"005b7c921d906a248f5b3f729348e0b1f5e6ec7019ae5f107afeb4603d63d360","id":74356800,"location_subtype":"","month":"2019-05"},{"category":"shoplifting","location_type":"Force","location":{"latitude":"51.655243","street":{"id":986979,"name":"On or near Somercoates Close"},"longitude":"-0.160195"},"context":"","outcome_status":{"category":"Status update unavailable","date":"2019-09"},"persistent_id":"1dde994032d1d6e5a848b815fe9582f9a7b0afb471f44b101a47cb78013a7917","id":74302682,"location_subtype":"","month":"2019-05"},{"category":"shoplifting","location_type":"Force","location":{"latitude":"51.650191","street":{"id":986460,"name":"On or near Mount Pleasant"},"longitude":"-0.150020"},"context":"","outcome_status":{"category":"Status update unavailable","date":"2019-09"},"persistent_id":"7168d1e695a3e09e3b049d498f8a116cdc0cae4eb0d12ef534936c65b750fd12","id":74293332,"location_subtype":"","month":"2019-05"},{"category":"shoplifting","location_type":"Force","location":{"latitude":"51.652192","street":{"id":986971,"name":"On or near Sports\/recreation Area"},"longitude":"-0.150850"},"context":"","outcome_status":{"category":"Status update unavailable","date":"2019-09"},"persistent_id":"9473512df8bb5a60d1e33e0f4825b54edff1bf2665a84cf9be6d89e04c2cbc6e","id":74349231,"location_subtype":"","month":"2019-05"},{"category":"shoplifting","location_type":"Force","location":{"latitude":"51.650191","street":{"id":986460,"name":"On or near Mount Pleasant"},"longitude":"-0.150020"},"context":"","outcome_status":{"category":"Status update unavailable","date":"2019-09"},"persistent_id":"5b466d671172b272b6927f72ca5de1aee1303142ba866f4f7b5ba6ca6733c3b2","id":74308779,"location_subtype":"","month":"2019-05"},{"category":"shoplifting","location_type":"Force","location":{"latitude":"51.650191","street":{"id":986460,"name":"On or near Mount Pleasant"},"longitude":"-0.150020"},"context":"","outcome_status":{"category":"Status update unavailable","date":"2019-09"},"persistent_id":"4ac5ec74e8fa1f31e1ae1e6996f1315229e2368325a67a843458f314a4418a8a","id":74298828,"location_subtype":"","month":"2019-05"},{"category":"shoplifting","location_type":"Force","location":{"latitude":"51.650191","street":{"id":986460,"name":"On or near Mount Pleasant"},"longitude":"-0.150020"},"context":"","outcome_status":{"category":"Status update unavailable","date":"2019-09"},"persistent_id":"7841d0bced872a7a6755dae4e77c4d4dde46a65bd9a509880afdfa8d85aabcb5","id":74340624,"location_subtype":"","month":"2019-05"},{"category":"theft-from-the-person","location_type":"BTP","location":{"latitude":"51.651700","street":{"id":1488713,"name":"Cockfosters (lu Station)"},"longitude":"-0.149683"},"context":"","outcome_status":{"category":"Status update unavailable","date":"2019-09"},"persistent_id":"","id":88718775,"location_subtype":"LU STATION","month":"2019-05"},{"category":"theft-from-the-person","location_type":"BTP","location":{"latitude":"51.647600","street":{"id":1488732,"name":"Oakwood (lu Station)"},"longitude":"-0.131866"},"context":"","outcome_status":{"category":"Status update unavailable","date":"2019-09"},"persistent_id":"","id":88717111,"location_subtype":"LU STATION","month":"2019-05"},{"category":"theft-from-the-person","location_type":"Force","location":{"latitude":"51.643155","street":{"id":986542,"name":"On or near Barons Gate"},"longitude":"-0.163502"},"context":"","outcome_status":{"category":"Status update unavailable","date":"2019-09"},"persistent_id":"e8855a1a030dda2feeae7579dc84d08bc095183dd48f604f59182e27c9882e08","id":74298728,"location_subtype":"","month":"2019-05"},{"category":"theft-from-the-person","location_type":"Force","location":{"latitude":"51.646634","street":{"id":986336,"name":"On or near Bramley Road"},"longitude":"-0.136014"},"context":"","outcome_status":{"category":"Status update unavailable","date":"2019-09"},"persistent_id":"86c412fa789a2257efdaf2ac712876a9e15597d64ada900e19633b3dbe8ad818","id":74332650,"location_subtype":"","month":"2019-05"},{"category":"vehicle-crime","location_type":"Force","location":{"latitude":"51.654619","street":{"id":986985,"name":"On or near Games Road"},"longitude":"-0.153657"},"context":"","outcome_status":{"category":"Status update unavailable","date":"2019-09"},"persistent_id":"83208e96bbf973b1ea5c193950fddafc48a27836d0c04a8f169cf21782adfad7","id":74358723,"location_subtype":"","month":"2019-05"},{"category":"vehicle-crime","location_type":"Force","location":{"latitude":"51.647412","street":{"id":986429,"name":"On or near Heddon Road"},"longitude":"-0.153978"},"context":"","outcome_status":{"category":"Status update unavailable","date":"2019-09"},"persistent_id":"6c14c6bd457edc292e1dd4c02b6689373ca890b02f995a26c9fda25c161a5f3a","id":74292542,"location_subtype":"","month":"2019-05"},{"category":"vehicle-crime","location_type":"Force","location":{"latitude":"51.646634","street":{"id":986336,"name":"On or near Bramley Road"},"longitude":"-0.136014"},"context":"","outcome_status":{"category":"Status update unavailable","date":"2019-09"},"persistent_id":"2147b2d5a3c51dee906ad01f9031bbe012b13f96ba14840fe3ccd60158b4481e","id":74304745,"location_subtype":"","month":"2019-05"},{"category":"vehicle-crime","location_type":"Force","location":{"latitude":"51.650950","street":{"id":986424,"name":"On or near Langford Crescent"},"longitude":"-0.155396"},"context":"","outcome_status":{"category":"Status update unavailable","date":"2019-09"},"persistent_id":"8d6819e50e8965f0bb2853f8dae095ff743d05307847b592a1bcf37366a1a587","id":74299457,"location_subtype":"","month":"2019-05"},{"category":"vehicle-crime","location_type":"Force","location":{"latitude":"51.650793","street":{"id":986551,"name":"On or near Victoria Road"},"longitude":"-0.169439"},"context":"","outcome_status":{"category":"Status update unavailable","date":"2019-09"},"persistent_id":"9ee7d7e39a2d01eb88b9a31728137a9a94daceac1b35fad9b4f2c23d09ff70e8","id":74295992,"location_subtype":"","month":"2019-05"},{"category":"vehicle-crime","location_type":"Force","location":{"latitude":"51.641903","street":{"id":986433,"name":"On or near Eton Avenue"},"longitude":"-0.159362"},"context":"","outcome_status":{"category":"Status update unavailable","date":"2019-09"},"persistent_id":"7bfcbaa98cb70358b5e730b676607827a05c2f174dadf45ddb0fc270821769a0","id":74324365,"location_subtype":"","month":"2019-05"},{"category":"vehicle-crime","location_type":"Force","location":{"latitude":"51.645284","street":{"id":986358,"name":"On or near Tregenna Close"},"longitude":"-0.131994"},"context":"","outcome_status":{"category":"Status update unavailable","date":"2019-09"},"persistent_id":"70d4a0980b394fe400b8128b3c4a4e3f957a71ef882af6b7dcda90d58c309ae7","id":74324519,"location_subtype":"","month":"2019-05"},{"category":"vehicle-crime","location_type":"Force","location":{"latitude":"51.652192","street":{"id":986971,"name":"On or near Sports\/recreation Area"},"longitude":"-0.150850"},"context":"","outcome_status":{"category":"Status update unavailable","date":"2019-09"},"persistent_id":"60bcc0685f18018ecc3f49f4a29997fc8a0c99b175085938b182f57f031b0246","id":74324711,"location_subtype":"","month":"2019-05"},{"category":"vehicle-crime","location_type":"Force","location":{"latitude":"51.651615","street":{"id":986997,"name":"On or near Bevan Road"},"longitude":"-0.155354"},"context":"","outcome_status":{"category":"Status update unavailable","date":"2019-09"},"persistent_id":"cffa256efa80b32cbe3e8a12fe492f87e4ad530ff7c175d42af4265c864a2bf7","id":74312879,"location_subtype":"","month":"2019-05"},{"category":"vehicle-crime","location_type":"Force","location":{"latitude":"51.643274","street":{"id":986543,"name":"On or near Supermarket"},"longitude":"-0.164769"},"context":"","outcome_status":{"category":"Status update unavailable","date":"2019-09"},"persistent_id":"571e1c115a31a1a139ec6b972bbd7e65602b552a3e502a6e5c5ee6669d3e9353","id":74312881,"location_subtype":"","month":"2019-05"},{"category":"vehicle-crime","location_type":"Force","location":{"latitude":"51.641160","street":{"id":986442,"name":"On or near Brookside"},"longitude":"-0.160129"},"context":"","outcome_status":{"category":"Status update unavailable","date":"2019-09"},"persistent_id":"0f12fb83a2cecf26ee90f75efec5d12f5d91f6020f9b717e9ccd765f6745eac0","id":74314580,"location_subtype":"","month":"2019-05"},{"category":"vehicle-crime","location_type":"Force","location":{"latitude":"51.645222","street":{"id":986439,"name":"On or near Cat Hill"},"longitude":"-0.155397"},"context":"","outcome_status":{"category":"Status update unavailable","date":"2019-09"},"persistent_id":"bbefda97476528d7ca21384908d01e3b89a1eb4d18c870da777122a3ebc52c05","id":74315729,"location_subtype":"","month":"2019-05"},{"category":"vehicle-crime","location_type":"Force","location":{"latitude":"51.641160","street":{"id":986442,"name":"On or near Brookside"},"longitude":"-0.160129"},"context":"","outcome_status":{"category":"Status update unavailable","date":"2019-09"},"persistent_id":"eb08bb0c5e32ffc8aaf309d0c4283d1acebd53376507b2f785e44f10059849ca","id":74318230,"location_subtype":"","month":"2019-05"},{"category":"vehicle-crime","location_type":"Force","location":{"latitude":"51.645067","street":{"id":986479,"name":"On or near A110"},"longitude":"-0.146110"},"context":"","outcome_status":{"category":"Status update unavailable","date":"2019-09"},"persistent_id":"a97e829c92f819db96add0c2ad73d1781f977f573575229ec97a1cbfaccfc583","id":74329272,"location_subtype":"","month":"2019-05"},{"category":"vehicle-crime","location_type":"Force","location":{"latitude":"51.642772","street":{"id":986339,"name":"On or near Avenue Close"},"longitude":"-0.132935"},"context":"","outcome_status":{"category":"Status update unavailable","date":"2019-09"},"persistent_id":"21e997050759c99e88fd7e2560a243db64f13ed8923d8b8e63a16f898c102f51","id":74360241,"location_subtype":"","month":"2019-05"},{"category":"vehicle-crime","location_type":"Force","location":{"latitude":"51.645279","street":{"id":986470,"name":"On or near Freston Gardens"},"longitude":"-0.151550"},"context":"","outcome_status":{"category":"Status update unavailable","date":"2019-09"},"persistent_id":"79fb87d9aa51a0cfd2d9ec7d7fa5633df19b4c1a223e859b0aa95669463ebae7","id":74335108,"location_subtype":"","month":"2019-05"},{"category":"vehicle-crime","location_type":"Force","location":{"latitude":"51.652331","street":{"id":986930,"name":"On or near Appletree Gardens"},"longitude":"-0.164288"},"context":"","outcome_status":{"category":"Status update unavailable","date":"2019-09"},"persistent_id":"c4590c1b100f92a67c800a7ec919fc14737763f06cda92eaf7bae29214023eb4","id":74335351,"location_subtype":"","month":"2019-05"},{"category":"vehicle-crime","location_type":"Force","location":{"latitude":"51.645222","street":{"id":986439,"name":"On or near Cat Hill"},"longitude":"-0.155397"},"context":"","outcome_status":{"category":"Status update unavailable","date":"2019-09"},"persistent_id":"f45c38f3f8363f93ab963fa4ca9b972dbc6794e5bf33570acc40a4c6c9d31f15","id":74342670,"location_subtype":"","month":"2019-05"},{"category":"vehicle-crime","location_type":"Force","location":{"latitude":"51.642347","street":{"id":986417,"name":"On or near Ridgeway Avenue"},"longitude":"-0.156699"},"context":"","outcome_status":{"category":"Status update unavailable","date":"2019-09"},"persistent_id":"c7e9fb9897a8ea81d45d01f8fb821f94a2b9802683f9f232703a7092f49e701f","id":74344461,"location_subtype":"","month":"2019-05"},{"category":"vehicle-crime","location_type":"Force","location":{"latitude":"51.643352","street":{"id":986438,"name":"On or near Cat Hill"},"longitude":"-0.161688"},"context":"","outcome_status":{"category":"Status update unavailable","date":"2019-09"},"persistent_id":"7ab899e50c861abda346a2628b6ff6a9f2ee71ea65c9afc69c79e13ffcfa99ad","id":74338405,"location_subtype":"","month":"2019-05"},{"category":"vehicle-crime","location_type":"Force","location":{"latitude":"51.647120","street":{"id":986469,"name":"On or near Freston Gardens"},"longitude":"-0.149683"},"context":"","outcome_status":{"category":"Status update unavailable","date":"2019-09"},"persistent_id":"43f8d4c693143bbcb46d91928e023521050beee44c12ab1e384af6eaa23bd6e3","id":74345743,"location_subtype":"","month":"2019-05"},{"category":"vehicle-crime","location_type":"Force","location":{"latitude":"51.648916","street":{"id":986399,"name":"On or near Further\/higher Educational Building"},"longitude":"-0.129098"},"context":"","outcome_status":{"category":"Status update unavailable","date":"2019-09"},"persistent_id":"dd54b61cba979273d23c1fd6f4a0d8635a1804466b4a746f77b044d64c836d1e","id":74350885,"location_subtype":"","month":"2019-05"},{"category":"vehicle-crime","location_type":"Force","location":{"latitude":"51.645170","street":{"id":986387,"name":"On or near Chase Road"},"longitude":"-0.131623"},"context":"","outcome_status":{"category":"Status update unavailable","date":"2019-09"},"persistent_id":"1e6c2e0cb8ec047ebf1494c047b2c513bd75726294fec084247e23a0d716c90f","id":74351009,"location_subtype":"","month":"2019-05"},{"category":"vehicle-crime","location_type":"Force","location":{"latitude":"51.645284","street":{"id":986358,"name":"On or near Tregenna Close"},"longitude":"-0.131994"},"context":"","outcome_status":{"category":"Status update unavailable","date":"2019-09"},"persistent_id":"3b214d4a2a33b23074ed003d7f51dcee95d2b74f0df6b868cfaf6be83830eb9b","id":74351018,"location_subtype":"","month":"2019-05"},{"category":"vehicle-crime","location_type":"Force","location":{"latitude":"51.645286","street":{"id":986474,"name":"On or near Cat Hill"},"longitude":"-0.148008"},"context":"","outcome_status":{"category":"Status update unavailable","date":"2019-09"},"persistent_id":"3fbae8bee6369812ed01de4336c03fbfab37e952e970867ee4773669b8a639d2","id":74362001,"location_subtype":"","month":"2019-05"},{"category":"vehicle-crime","location_type":"Force","location":{"latitude":"51.642772","street":{"id":986339,"name":"On or near Avenue Close"},"longitude":"-0.132935"},"context":"","outcome_status":{"category":"Status update unavailable","date":"2019-09"},"persistent_id":"b782992d31ad03dc155fbed0cd3281e9728967f2ad51a2b81ea6a4cac49c3326","id":74353181,"location_subtype":"","month":"2019-05"},{"category":"vehicle-crime","location_type":"Force","location":{"latitude":"51.645709","street":{"id":986569,"name":"On or near Kingston Road"},"longitude":"-0.167504"},"context":"","outcome_status":{"category":"Status update unavailable","date":"2019-09"},"persistent_id":"4347117578146b1200ee220ac18d6348f61355196ca6fe09cad554d2d1dbc14e","id":74370798,"location_subtype":"","month":"2019-05"},{"category":"vehicle-crime","location_type":"Force","location":{"latitude":"51.650191","street":{"id":986460,"name":"On or near Mount Pleasant"},"longitude":"-0.150020"},"context":"","outcome_status":{"category":"Investigation complete; no suspect identified","date":"2019-08"},"persistent_id":"03b01934b91d4457c6ff194b30068aed5a0444737aefcd696e63061f221514fc","id":74307074,"location_subtype":"","month":"2019-05"},{"category":"vehicle-crime","location_type":"Force","location":{"latitude":"51.642772","street":{"id":986339,"name":"On or near Avenue Close"},"longitude":"-0.132935"},"context":"","outcome_status":{"category":"Status update unavailable","date":"2019-09"},"persistent_id":"149305df13d31a16e22d8e7089fe19f2ba84a9bc771bc842a289f58d71ce82a3","id":74322942,"location_subtype":"","month":"2019-05"},{"category":"vehicle-crime","location_type":"Force","location":{"latitude":"51.646634","street":{"id":986336,"name":"On or near Bramley Road"},"longitude":"-0.136014"},"context":"","outcome_status":{"category":"Status update unavailable","date":"2019-09"},"persistent_id":"1fbc281df1b39164408ec4615e25fff65d529ce63cc359cb1284ae6629b0d83f","id":74305310,"location_subtype":"","month":"2019-05"},{"category":"violent-crime","location_type":"Force","location":{"latitude":"51.649563","street":{"id":986591,"name":"On or near Petrol Station"},"longitude":"-0.170196"},"context":"","outcome_status":{"category":"Status update unavailable","date":"2019-09"},"persistent_id":"ac0ec63773f7f2911ed9acea32b5b7dc0ee9d3926e7b24dcd58363367e57a3f9","id":74341719,"location_subtype":"","month":"2019-05"},{"category":"violent-crime","location_type":"Force","location":{"latitude":"51.647595","street":{"id":986550,"name":"On or near Warwick Close"},"longitude":"-0.166228"},"context":"","outcome_status":{"category":"Status update unavailable","date":"2019-09"},"persistent_id":"80edf8f50d840dbe576d2758472fe9cd99d47f4f5f604b3ddbe3f30d5676f3a4","id":74372325,"location_subtype":"","month":"2019-05"},{"category":"violent-crime","location_type":"Force","location":{"latitude":"51.647595","street":{"id":986550,"name":"On or near Warwick Close"},"longitude":"-0.166228"},"context":"","outcome_status":{"category":"Status update unavailable","date":"2019-09"},"persistent_id":"7be3569eae3f9d1e354f52e6cb7cb620e8f1ba1e540d2cc5eceab903e47ca183","id":74372757,"location_subtype":"","month":"2019-05"},{"category":"violent-crime","location_type":"Force","location":{"latitude":"51.646190","street":{"id":986590,"name":"On or near Petrol Station"},"longitude":"-0.167210"},"context":"","outcome_status":{"category":"Status update unavailable","date":"2019-09"},"persistent_id":"c328bc070676b69de036ffff885300c4811a903be0d175675832b79b029fa12b","id":74341371,"location_subtype":"","month":"2019-05"},{"category":"violent-crime","location_type":"Force","location":{"latitude":"51.648639","street":{"id":986575,"name":"On or near East Barnet Road"},"longitude":"-0.169164"},"context":"","outcome_status":{"category":"Status update unavailable","date":"2019-09"},"persistent_id":"8a6aa1939a196dac316999b07678fc1a4e64088cc33012987d0c57be83dd7340","id":74358891,"location_subtype":"","month":"2019-05"},{"category":"violent-crime","location_type":"Force","location":{"latitude":"51.647577","street":{"id":986445,"name":"On or near Ashurst Road"},"longitude":"-0.153046"},"context":"","outcome_status":{"category":"Status update unavailable","date":"2019-09"},"persistent_id":"4818d608f67b67ae48cbacfd70143a91719d6abeb10071b959aff65aff2a9351","id":74359070,"location_subtype":"","month":"2019-05"},{"category":"violent-crime","location_type":"Force","location":{"latitude":"51.644112","street":{"id":986351,"name":"On or near Sports\/recreation Area"},"longitude":"-0.139746"},"context":"","outcome_status":{"category":"Status update unavailable","date":"2019-09"},"persistent_id":"256bda83e7d932e2ed56698048b62e77c1f0c9c14481f4899e8967dd86bfbb0b","id":74328657,"location_subtype":"","month":"2019-05"},{"category":"violent-crime","location_type":"Force","location":{"latitude":"51.642780","street":{"id":986436,"name":"On or near Daneland"},"longitude":"-0.153343"},"context":"","outcome_status":{"category":"Status update unavailable","date":"2019-09"},"persistent_id":"1ee54d84a31441a3da7d3ec8ada121333a1f853d94fb3b5c0e7c09967fcbc97e","id":74307430,"location_subtype":"","month":"2019-05"},{"category":"violent-crime","location_type":"Force","location":{"latitude":"51.655218","street":{"id":986936,"name":"On or near Hertford Close"},"longitude":"-0.172412"},"context":"","outcome_status":{"category":"Status update unavailable","date":"2019-09"},"persistent_id":"b55ca3a55b6fecca0d1f2b00ef324a93b3d297fa2d4c02bcd41e961f0ea7efe5","id":74357901,"location_subtype":"","month":"2019-05"},{"category":"violent-crime","location_type":"Force","location":{"latitude":"51.645222","street":{"id":986439,"name":"On or near Cat Hill"},"longitude":"-0.155397"},"context":"","outcome_status":{"category":"Status update unavailable","date":"2019-09"},"persistent_id":"01cd876673fc6058c94ef5d0e6ee744dd2b8ccbbd9d1cb9c735742d5485deef5","id":74352805,"location_subtype":"","month":"2019-05"},{"category":"violent-crime","location_type":"Force","location":{"latitude":"51.649470","street":{"id":986547,"name":"On or near Parking Area"},"longitude":"-0.171703"},"context":"","outcome_status":{"category":"Status update unavailable","date":"2019-09"},"persistent_id":"5a992b53e5e870c1fc623c02b40f02df2acb1619774476ad19069bd7cf823fcc","id":74304818,"location_subtype":"","month":"2019-05"},{"category":"violent-crime","location_type":"Force","location":{"latitude":"51.650820","street":{"id":986589,"name":"On or near Albert Road"},"longitude":"-0.172965"},"context":"","outcome_status":{"category":"Status update unavailable","date":"2019-09"},"persistent_id":"35bef9b3b2a8aee7a3b19a0abba89fdf369f0fe189987adc76301461586bc34a","id":74353422,"location_subtype":"","month":"2019-05"},{"category":"violent-crime","location_type":"Force","location":{"latitude":"51.642347","street":{"id":986417,"name":"On or near Ridgeway Avenue"},"longitude":"-0.156699"},"context":"","outcome_status":{"category":"Status update unavailable","date":"2019-09"},"persistent_id":"b5251e3eca7aa48a9cadf810bb043baddb6993f299ceb2c3a878f831e175a3c1","id":74345547,"location_subtype":"","month":"2019-05"},{"category":"violent-crime","location_type":"Force","location":{"latitude":"51.641903","street":{"id":986433,"name":"On or near Eton Avenue"},"longitude":"-0.159362"},"context":"","outcome_status":{"category":"Status update unavailable","date":"2019-09"},"persistent_id":"7d4c57964f431bba61cbf117577c236a4d87d236bcae5f5682af54e8d04bc6c3","id":74305710,"location_subtype":"","month":"2019-05"},{"category":"violent-crime","location_type":"Force","location":{"latitude":"51.646190","street":{"id":986590,"name":"On or near Petrol Station"},"longitude":"-0.167210"},"context":"","outcome_status":{"category":"Status update unavailable","date":"2019-09"},"persistent_id":"b42ab2a6aa140442897087ff711ee9f9b77daa8a56fa0beea094afb17c3650e7","id":74292384,"location_subtype":"","month":"2019-05"},{"category":"violent-crime","location_type":"Force","location":{"latitude":"51.644314","street":{"id":986484,"name":"On or near Further\/higher Educational Building"},"longitude":"-0.147976"},"context":"","outcome_status":{"category":"Status update unavailable","date":"2019-09"},"persistent_id":"5c30473efbe7cc0308f65924ad05c75f0399638dca8e3f58975742eb8c6bee7c","id":74332939,"location_subtype":"","month":"2019-05"},{"category":"violent-crime","location_type":"Force","location":{"latitude":"51.646375","street":{"id":986344,"name":"On or near Sussex Way"},"longitude":"-0.140708"},"context":"","outcome_status":{"category":"Status update unavailable","date":"2019-09"},"persistent_id":"873f14254ea67345ab0b59e2b8b10a69a10c99ad6f74e687abd72c8932345e33","id":74305109,"location_subtype":"","month":"2019-05"},{"category":"violent-crime","location_type":"Force","location":{"latitude":"51.642347","street":{"id":986417,"name":"On or near Ridgeway Avenue"},"longitude":"-0.156699"},"context":"","outcome_status":{"category":"Status update unavailable","date":"2019-09"},"persistent_id":"c48c4bd99cf29431c08d2673335d134e6675e02977113f56914c16b7cc5e4937","id":74319447,"location_subtype":"","month":"2019-05"},{"category":"violent-crime","location_type":"Force","location":{"latitude":"51.648052","street":{"id":986398,"name":"On or near Supermarket"},"longitude":"-0.130189"},"context":"","outcome_status":{"category":"Status update unavailable","date":"2019-09"},"persistent_id":"4d6d91a8e1c86533553293d9e3ae9e20e07ee85f82a33509b198fd96af3d2c4b","id":74314049,"location_subtype":"","month":"2019-05"},{"category":"violent-crime","location_type":"Force","location":{"latitude":"51.652331","street":{"id":986930,"name":"On or near Appletree Gardens"},"longitude":"-0.164288"},"context":"","outcome_status":{"category":"Status update unavailable","date":"2019-09"},"persistent_id":"49fad50d8e728acfadddee4b634b3592dd1d0590fc158c548c1b59d0a97917ee","id":74315499,"location_subtype":"","month":"2019-05"},{"category":"violent-crime","location_type":"Force","location":{"latitude":"51.649240","street":{"id":986472,"name":"On or near Cockfosters Road"},"longitude":"-0.148440"},"context":"","outcome_status":{"category":"Status update unavailable","date":"2019-09"},"persistent_id":"2090dd6de9ff0a8b03650b36482b0d1d2c4902d8ecd55b0de9776dbafe929adb","id":74326308,"location_subtype":"","month":"2019-05"},{"category":"violent-crime","location_type":"Force","location":{"latitude":"51.647577","street":{"id":986445,"name":"On or near Ashurst Road"},"longitude":"-0.153046"},"context":"","outcome_status":{"category":"Status update unavailable","date":"2019-09"},"persistent_id":"32cda8a92a72cf95a0da7ffb3906abea653be915a1d0e2ac99eacd285af33c54","id":74325622,"location_subtype":"","month":"2019-05"},{"category":"violent-crime","location_type":"Force","location":{"latitude":"51.644616","street":{"id":986389,"name":"On or near Catherine Court"},"longitude":"-0.131862"},"context":"","outcome_status":{"category":"Status update unavailable","date":"2019-09"},"persistent_id":"0b27f4c31c7a59836db705652bae0a92037b5897ccdd5bad5c340b54e517076b","id":74309519,"location_subtype":"","month":"2019-05"},{"category":"violent-crime","location_type":"Force","location":{"latitude":"51.645418","street":{"id":986335,"name":"On or near Celandine Grove"},"longitude":"-0.135920"},"context":"","outcome_status":{"category":"Status update unavailable","date":"2019-09"},"persistent_id":"78a69cdd8c5fb9db890b153591329d559b595a9034cfdb644cf07504fff1dabd","id":74354130,"location_subtype":"","month":"2019-05"},{"category":"violent-crime","location_type":"Force","location":{"latitude":"51.652192","street":{"id":986971,"name":"On or near Sports\/recreation Area"},"longitude":"-0.150850"},"context":"","outcome_status":{"category":"Status update unavailable","date":"2019-09"},"persistent_id":"1b502d59d2bf2657ac146e13684ecba05be8ec421753d6a5aec74f46bd8c0f62","id":74355896,"location_subtype":"","month":"2019-05"},{"category":"violent-crime","location_type":"Force","location":{"latitude":"51.652332","street":{"id":986974,"name":"On or near Wilton Road"},"longitude":"-0.155788"},"context":"","outcome_status":{"category":"Status update unavailable","date":"2019-09"},"persistent_id":"091cee78df0d5c26153a2d08f7762e346e149b655d448680c5b4b20d44375894","id":74345729,"location_subtype":"","month":"2019-05"},{"category":"violent-crime","location_type":"Force","location":{"latitude":"51.642347","street":{"id":986417,"name":"On or near Ridgeway Avenue"},"longitude":"-0.156699"},"context":"","outcome_status":{"category":"Status update unavailable","date":"2019-09"},"persistent_id":"3169ae8f03b07405d130cbdd492bd29db7fa9e124cd5ced859abccfe7633e3f0","id":74321892,"location_subtype":"","month":"2019-05"},{"category":"violent-crime","location_type":"Force","location":{"latitude":"51.644616","street":{"id":986389,"name":"On or near Catherine Court"},"longitude":"-0.131862"},"context":"","outcome_status":{"category":"Status update unavailable","date":"2019-09"},"persistent_id":"0b27f4c31c7a59836db705652bae0a92037b5897ccdd5bad5c340b54e517076b","id":74306375,"location_subtype":"","month":"2019-05"},{"category":"violent-crime","location_type":"Force","location":{"latitude":"51.643211","street":{"id":986456,"name":"On or near Vernon Crescent"},"longitude":"-0.149307"},"context":"","outcome_status":{"category":"Status update unavailable","date":"2019-09"},"persistent_id":"3d56434f0a538fa3b51967fae439ab4efa72c3772f2b89a3f2c8a875018d5232","id":74343046,"location_subtype":"","month":"2019-05"},{"category":"violent-crime","location_type":"Force","location":{"latitude":"51.648639","street":{"id":986575,"name":"On or near East Barnet Road"},"longitude":"-0.169164"},"context":"","outcome_status":{"category":"Status update unavailable","date":"2019-09"},"persistent_id":"c93a6e22c0289ce1a1acf21ecdb5a253cca53ffa0567d44ec12d27522ddd5467","id":74348616,"location_subtype":"","month":"2019-05"},{"category":"violent-crime","location_type":"Force","location":{"latitude":"51.648691","street":{"id":986552,"name":"On or near Victoria Close"},"longitude":"-0.166155"},"context":"","outcome_status":{"category":"Status update unavailable","date":"2019-09"},"persistent_id":"bde1896e6777189122fe69e1cf1f8275de6701f4baedd2702a3f71eafc68cee6","id":74323243,"location_subtype":"","month":"2019-05"},{"category":"violent-crime","location_type":"Force","location":{"latitude":"51.654773","street":{"id":986933,"name":"On or near Westbrook Close"},"longitude":"-0.168107"},"context":"","outcome_status":{"category":"Status update unavailable","date":"2019-09"},"persistent_id":"39cf3b6715a49c2070ee2a942b6d433ef69494d56d253fde3a81e8e0bd862db7","id":74291588,"location_subtype":"","month":"2019-05"}]