[{"category":"anti-social-behaviour","location_type":"Force","location":{"latitude":"51.459301","street":{"id":943032,"name":"On or near Elsynge Road"},"longitude":"-0.177614"},"context":"","outcome_status":null,"persistent_id":"","id":74270566,"location_subtype":"","month":"2019-05"},{"category":"anti-social-behaviour","location_type":"Force","location":{"latitude":"51.471105","street":{"id":945392,"name":"On or near Lombard Road"},"longitude":"-0.177461"},"context":"","outcome_status":null,"persistent_id":"","id":74270571,"location_subtype":"","month":"2019-05"},{"category":"anti-social-behaviour","location_type":"Force","location":{"latitude":"51.461188","street":{"id":943027,"name":"On or near Harbut Road"},"longitude":"-0.178720"},"context":"","outcome_status":null,"persistent_id":"","id":74270572,"location_subtype":"","month":"2019-05"},{"category":"anti-social-behaviour","location_type":"Force","location":{"latitude":"51.469153","street":{"id":945509,"name":"On or near Conference\/exhibition Centre"},"longitude":"-0.178546"},"context":"","outcome_status":null,"persistent_id":"","id":74270573,"location_subtype":"","month":"2019-05"},{"category":"anti-social-behaviour","location_type":"Force","location":{"latitude":"51.463627","street":{"id":943016,"name":"On or near Maysoule Road"},"longitude":"-0.178867"},"context":"","outcome_status":null,"persistent_id":"","id":74270574,"location_subtype":"","month":"2019-05"},{"category":"anti-social-behaviour","location_type":"Force","location":{"latitude":"51.464736","street":{"id":943023,"name":"On or near Hope Street"},"longitude":"-0.179025"},"context":"","outcome_status":null,"persistent_id":"","id":74270575,"location_subtype":"","month":"2019-05"},{"category":"anti-social-behaviour","location_type":"Force","location":{"latitude":"51.452850","street":{"id":939443,"name":"On or near Kershaw Close"},"longitude":"-0.180879"},"context":"","outcome_status":null,"persistent_id":"","id":74270577,"location_subtype":"","month":"2019-05"},{"category":"anti-social-behaviour","location_type":"Force","location":{"latitude":"51.458926","street":{"id":943018,"name":"On or near Marcilly Road"},"longitude":"-0.179573"},"context":"","outcome_status":null,"persistent_id":"","id":74270578,"location_subtype":"","month":"2019-05"},{"category":"anti-social-behaviour","location_type":"Force","location":{"latitude":"51.458282","street":{"id":943019,"name":"On or near Marcilly Road"},"longitude":"-0.179224"},"context":"","outcome_status":null,"persistent_id":"","id":74270579,"location_subtype":"","month":"2019-05"},{"category":"anti-social-behaviour","location_type":"Force","location":{"latitude":"51.457231","street":{"id":942983,"name":"On or near Acris Street"},"longitude":"-0.182720"},"context":"","outcome_status":null,"persistent_id":"","id":74270584,"location_subtype":"","month":"2019-05"},{"category":"anti-social-behaviour","location_type":"Force","location":{"latitude":"51.465984","street":{"id":942989,"name":"On or near Shopping Area"},"longitude":"-0.181235"},"context":"","outcome_status":null,"persistent_id":"","id":74270586,"location_subtype":"","month":"2019-05"},{"category":"anti-social-behaviour","location_type":"Force","location":{"latitude":"51.454817","street":{"id":943074,"name":"On or near Geraldine Road"},"longitude":"-0.183665"},"context":"","outcome_status":null,"persistent_id":"","id":74270590,"location_subtype":"","month":"2019-05"},{"category":"anti-social-behaviour","location_type":"Force","location":{"latitude":"51.455681","street":{"id":943075,"name":"On or near Geraldine Road"},"longitude":"-0.184293"},"context":"","outcome_status":null,"persistent_id":"","id":74270592,"location_subtype":"","month":"2019-05"},{"category":"anti-social-behaviour","location_type":"Force","location":{"latitude":"51.461004","street":{"id":942949,"name":"On or near Podmore Road"},"longitude":"-0.186572"},"context":"","outcome_status":null,"persistent_id":"","id":74270598,"location_subtype":"","month":"2019-05"},{"category":"anti-social-behaviour","location_type":"Force","location":{"latitude":"51.456368","street":{"id":943071,"name":"On or near Knoll Road"},"longitude":"-0.187418"},"context":"","outcome_status":null,"persistent_id":"","id":74270600,"location_subtype":"","month":"2019-05"},{"category":"anti-social-behaviour","location_type":"Force","location":{"latitude":"51.462001","street":{"id":942987,"name":"On or near Petrol Station"},"longitude":"-0.188260"},"context":"","outcome_status":null,"persistent_id":"","id":74270601,"location_subtype":"","month":"2019-05"},{"category":"anti-social-behaviour","location_type":"Force","location":{"latitude":"51.457374","street":{"id":942975,"name":"On or near Cricketers Mews"},"longitude":"-0.187940"},"context":"","outcome_status":null,"persistent_id":"","id":74270618,"location_subtype":"","month":"2019-05"},{"category":"anti-social-behaviour","location_type":"Force","location":{"latitude":"51.457374","street":{"id":942975,"name":"On or near Cricketers Mews"},"longitude":"-0.187940"},"context":"","outcome_status":null,"persistent_id":"","id":74270619,"location_subtype":"","month":"2019-05"},{"category":"anti-social-behaviour","location_type":"Force","location":{"latitude":"51.462606","street":{"id":943086,"name":"On or near Parking Area"},"longitude":"-0.189546"},"context":"","outcome_status":null,"persistent_id":"","id":74270792,"location_subtype":"","month":"2019-05"},{"category":"anti-social-behaviour","location_type":"Force","location":{"latitude":"51.462606","street":{"id":943086,"name":"On or near Parking Area"},"longitude":"-0.189546"},"context":"","outcome_status":null,"persistent_id":"","id":74270793,"location_subtype":"","month":"2019-05"},{"category":"anti-social-behaviour","location_type":"Force","location":{"latitude":"51.462606","street":{"id":943086,"name":"On or near Parking Area"},"longitude":"-0.189546"},"context":"","outcome_status":null,"persistent_id":"","id":74270794,"location_subtype":"","month":"2019-05"},{"category":"anti-social-behaviour","location_type":"Force","location":{"latitude":"51.463893","street":{"id":942634,"name":"On or near Victoria Rise"},"longitude":"-0.148178"},"context":"","outcome_status":null,"persistent_id":"","id":74276004,"location_subtype":"","month":"2019-05"},{"category":"anti-social-behaviour","location_type":"Force","location":{"latitude":"51.466639","street":{"id":945662,"name":"On or near Willard Street"},"longitude":"-0.149550"},"context":"","outcome_status":null,"persistent_id":"","id":74276005,"location_subtype":"","month":"2019-05"},{"category":"anti-social-behaviour","location_type":"Force","location":{"latitude":"51.468045","street":{"id":945500,"name":"On or near Mantua Street"},"longitude":"-0.174386"},"context":"","outcome_status":null,"persistent_id":"","id":74270519,"location_subtype":"","month":"2019-05"},{"category":"anti-social-behaviour","location_type":"Force","location":{"latitude":"51.465708","street":{"id":942993,"name":"On or near Winstanley Road"},"longitude":"-0.174480"},"context":"","outcome_status":null,"persistent_id":"","id":74270520,"location_subtype":"","month":"2019-05"},{"category":"anti-social-behaviour","location_type":"Force","location":{"latitude":"51.465708","street":{"id":942993,"name":"On or near Winstanley Road"},"longitude":"-0.174480"},"context":"","outcome_status":null,"persistent_id":"","id":74270521,"location_subtype":"","month":"2019-05"},{"category":"anti-social-behaviour","location_type":"Force","location":{"latitude":"51.477462","street":{"id":945398,"name":"On or near Battersea Church Road"},"longitude":"-0.173910"},"context":"","outcome_status":null,"persistent_id":"","id":74270522,"location_subtype":"","month":"2019-05"},{"category":"anti-social-behaviour","location_type":"Force","location":{"latitude":"51.452389","street":{"id":939446,"name":"On or near Fitzhugh Grove"},"longitude":"-0.175515"},"context":"","outcome_status":null,"persistent_id":"","id":74270526,"location_subtype":"","month":"2019-05"},{"category":"anti-social-behaviour","location_type":"Force","location":{"latitude":"51.475188","street":{"id":945395,"name":"On or near Granfield Street"},"longitude":"-0.173410"},"context":"","outcome_status":null,"persistent_id":"","id":74270527,"location_subtype":"","month":"2019-05"},{"category":"anti-social-behaviour","location_type":"Force","location":{"latitude":"51.462383","street":{"id":943009,"name":"On or near Plough Road"},"longitude":"-0.175203"},"context":"","outcome_status":null,"persistent_id":"","id":74270530,"location_subtype":"","month":"2019-05"},{"category":"anti-social-behaviour","location_type":"Force","location":{"latitude":"51.461170","street":{"id":943036,"name":"On or near Brussels Road"},"longitude":"-0.175827"},"context":"","outcome_status":null,"persistent_id":"","id":74270531,"location_subtype":"","month":"2019-05"},{"category":"anti-social-behaviour","location_type":"Force","location":{"latitude":"51.461170","street":{"id":943036,"name":"On or near Brussels Road"},"longitude":"-0.175827"},"context":"","outcome_status":null,"persistent_id":"","id":74270532,"location_subtype":"","month":"2019-05"},{"category":"anti-social-behaviour","location_type":"Force","location":{"latitude":"51.461170","street":{"id":943036,"name":"On or near Brussels Road"},"longitude":"-0.175827"},"context":"","outcome_status":null,"persistent_id":"","id":74270533,"location_subtype":"","month":"2019-05"},{"category":"anti-social-behaviour","location_type":"Force","location":{"latitude":"51.461170","street":{"id":943036,"name":"On or near Brussels Road"},"longitude":"-0.175827"},"context":"","outcome_status":null,"persistent_id":"","id":74270534,"location_subtype":"","month":"2019-05"},{"category":"anti-social-behaviour","location_type":"Force","location":{"latitude":"51.461170","street":{"id":943036,"name":"On or near Brussels Road"},"longitude":"-0.175827"},"context":"","outcome_status":null,"persistent_id":"","id":74270535,"location_subtype":"","month":"2019-05"},{"category":"anti-social-behaviour","location_type":"Force","location":{"latitude":"51.461170","street":{"id":943036,"name":"On or near Brussels Road"},"longitude":"-0.175827"},"context":"","outcome_status":null,"persistent_id":"","id":74270536,"location_subtype":"","month":"2019-05"},{"category":"anti-social-behaviour","location_type":"Force","location":{"latitude":"51.468774","street":{"id":945496,"name":"On or near Wye Street"},"longitude":"-0.174976"},"context":"","outcome_status":null,"persistent_id":"","id":74270538,"location_subtype":"","month":"2019-05"},{"category":"anti-social-behaviour","location_type":"Force","location":{"latitude":"51.467217","street":{"id":945502,"name":"On or near Lavender Road"},"longitude":"-0.174952"},"context":"","outcome_status":null,"persistent_id":"","id":74270539,"location_subtype":"","month":"2019-05"},{"category":"anti-social-behaviour","location_type":"Force","location":{"latitude":"51.461170","street":{"id":943036,"name":"On or near Brussels Road"},"longitude":"-0.175827"},"context":"","outcome_status":null,"persistent_id":"","id":74270541,"location_subtype":"","month":"2019-05"},{"category":"anti-social-behaviour","location_type":"Force","location":{"latitude":"51.461678","street":{"id":943012,"name":"On or near Oberstein Road"},"longitude":"-0.176080"},"context":"","outcome_status":null,"persistent_id":"","id":74270542,"location_subtype":"","month":"2019-05"},{"category":"anti-social-behaviour","location_type":"Force","location":{"latitude":"51.464623","street":{"id":942995,"name":"On or near Weekley Square"},"longitude":"-0.175257"},"context":"","outcome_status":null,"persistent_id":"","id":74270543,"location_subtype":"","month":"2019-05"},{"category":"anti-social-behaviour","location_type":"Force","location":{"latitude":"51.464623","street":{"id":942995,"name":"On or near Weekley Square"},"longitude":"-0.175257"},"context":"","outcome_status":null,"persistent_id":"","id":74270544,"location_subtype":"","month":"2019-05"},{"category":"anti-social-behaviour","location_type":"Force","location":{"latitude":"51.464623","street":{"id":942995,"name":"On or near Weekley Square"},"longitude":"-0.175257"},"context":"","outcome_status":null,"persistent_id":"","id":74270545,"location_subtype":"","month":"2019-05"},{"category":"anti-social-behaviour","location_type":"Force","location":{"latitude":"51.466736","street":{"id":945498,"name":"On or near Newcomen Road"},"longitude":"-0.176353"},"context":"","outcome_status":null,"persistent_id":"","id":74270546,"location_subtype":"","month":"2019-05"},{"category":"anti-social-behaviour","location_type":"Force","location":{"latitude":"51.465313","street":{"id":943031,"name":"On or near Fowler Close"},"longitude":"-0.176842"},"context":"","outcome_status":null,"persistent_id":"","id":74270547,"location_subtype":"","month":"2019-05"},{"category":"anti-social-behaviour","location_type":"Force","location":{"latitude":"51.465313","street":{"id":943031,"name":"On or near Fowler Close"},"longitude":"-0.176842"},"context":"","outcome_status":null,"persistent_id":"","id":74270548,"location_subtype":"","month":"2019-05"},{"category":"anti-social-behaviour","location_type":"Force","location":{"latitude":"51.465313","street":{"id":943031,"name":"On or near Fowler Close"},"longitude":"-0.176842"},"context":"","outcome_status":null,"persistent_id":"","id":74270550,"location_subtype":"","month":"2019-05"},{"category":"anti-social-behaviour","location_type":"Force","location":{"latitude":"51.462127","street":{"id":943034,"name":"On or near Cologne Road"},"longitude":"-0.176609"},"context":"","outcome_status":null,"persistent_id":"","id":74270553,"location_subtype":"","month":"2019-05"},{"category":"anti-social-behaviour","location_type":"Force","location":{"latitude":"51.465313","street":{"id":943031,"name":"On or near Fowler Close"},"longitude":"-0.176842"},"context":"","outcome_status":null,"persistent_id":"","id":74270554,"location_subtype":"","month":"2019-05"},{"category":"anti-social-behaviour","location_type":"Force","location":{"latitude":"51.466736","street":{"id":945498,"name":"On or near Newcomen Road"},"longitude":"-0.176353"},"context":"","outcome_status":null,"persistent_id":"","id":74270556,"location_subtype":"","month":"2019-05"},{"category":"anti-social-behaviour","location_type":"Force","location":{"latitude":"51.466736","street":{"id":945498,"name":"On or near Newcomen Road"},"longitude":"-0.176353"},"context":"","outcome_status":null,"persistent_id":"","id":74270557,"location_subtype":"","month":"2019-05"},{"category":"anti-social-behaviour","location_type":"Force","location":{"latitude":"51.474319","street":{"id":945383,"name":"On or near Vicarage Crescent"},"longitude":"-0.176497"},"context":"","outcome_status":null,"persistent_id":"","id":74270558,"location_subtype":"","month":"2019-05"},{"category":"anti-social-behaviour","location_type":"Force","location":{"latitude":"51.474319","street":{"id":945383,"name":"On or near Vicarage Crescent"},"longitude":"-0.176497"},"context":"","outcome_status":null,"persistent_id":"","id":74270560,"location_subtype":"","month":"2019-05"},{"category":"anti-social-behaviour","location_type":"Force","location":{"latitude":"51.474319","street":{"id":945383,"name":"On or near Vicarage Crescent"},"longitude":"-0.176497"},"context":"","outcome_status":null,"persistent_id":"","id":74270561,"location_subtype":"","month":"2019-05"},{"category":"anti-social-behaviour","location_type":"Force","location":{"latitude":"51.471105","street":{"id":945392,"name":"On or near Lombard Road"},"longitude":"-0.177461"},"context":"","outcome_status":null,"persistent_id":"","id":74270564,"location_subtype":"","month":"2019-05"},{"category":"anti-social-behaviour","location_type":"Force","location":{"latitude":"51.471105","street":{"id":945392,"name":"On or near Lombard Road"},"longitude":"-0.177461"},"context":"","outcome_status":null,"persistent_id":"","id":74270565,"location_subtype":"","month":"2019-05"},{"category":"anti-social-behaviour","location_type":"Force","location":{"latitude":"51.471105","street":{"id":945392,"name":"On or near Lombard Road"},"longitude":"-0.177461"},"context":"","outcome_status":null,"persistent_id":"","id":74270570,"location_subtype":"","month":"2019-05"},{"category":"anti-social-behaviour","location_type":"Force","location":{"latitude":"51.475178","street":{"id":945443,"name":"On or near Harbour Avenue"},"longitude":"-0.182612"},"context":"","outcome_status":null,"persistent_id":"","id":74282837,"location_subtype":"","month":"2019-05"},{"category":"anti-social-behaviour","location_type":"Force","location":{"latitude":"51.456466","street":{"id":942929,"name":"On or near Belleville Road"},"longitude":"-0.165967"},"context":"","outcome_status":null,"persistent_id":"","id":74174029,"location_subtype":"","month":"2019-05"},{"category":"anti-social-behaviour","location_type":"Force","location":{"latitude":"51.456466","street":{"id":942929,"name":"On or near Belleville Road"},"longitude":"-0.165967"},"context":"","outcome_status":null,"persistent_id":"","id":74176249,"location_subtype":"","month":"2019-05"},{"category":"anti-social-behaviour","location_type":"Force","location":{"latitude":"51.456466","street":{"id":942929,"name":"On or near Belleville Road"},"longitude":"-0.165967"},"context":"","outcome_status":null,"persistent_id":"","id":74177444,"location_subtype":"","month":"2019-05"},{"category":"anti-social-behaviour","location_type":"Force","location":{"latitude":"51.456466","street":{"id":942929,"name":"On or near Belleville Road"},"longitude":"-0.165967"},"context":"","outcome_status":null,"persistent_id":"","id":74177446,"location_subtype":"","month":"2019-05"},{"category":"anti-social-behaviour","location_type":"Force","location":{"latitude":"51.456466","street":{"id":942929,"name":"On or near Belleville Road"},"longitude":"-0.165967"},"context":"","outcome_status":null,"persistent_id":"","id":74177930,"location_subtype":"","month":"2019-05"},{"category":"anti-social-behaviour","location_type":"Force","location":{"latitude":"51.456466","street":{"id":942929,"name":"On or near Belleville Road"},"longitude":"-0.165967"},"context":"","outcome_status":null,"persistent_id":"","id":74177932,"location_subtype":"","month":"2019-05"},{"category":"anti-social-behaviour","location_type":"Force","location":{"latitude":"51.456466","street":{"id":942929,"name":"On or near Belleville Road"},"longitude":"-0.165967"},"context":"","outcome_status":null,"persistent_id":"","id":74175184,"location_subtype":"","month":"2019-05"},{"category":"anti-social-behaviour","location_type":"Force","location":{"latitude":"51.456466","street":{"id":942929,"name":"On or near Belleville Road"},"longitude":"-0.165967"},"context":"","outcome_status":null,"persistent_id":"","id":74174267,"location_subtype":"","month":"2019-05"},{"category":"anti-social-behaviour","location_type":"Force","location":{"latitude":"51.475178","street":{"id":945443,"name":"On or near Harbour Avenue"},"longitude":"-0.182612"},"context":"","outcome_status":null,"persistent_id":"","id":74282835,"location_subtype":"","month":"2019-05"},{"category":"anti-social-behaviour","location_type":"Force","location":{"latitude":"51.455681","street":{"id":943075,"name":"On or near Geraldine Road"},"longitude":"-0.184293"},"context":"","outcome_status":null,"persistent_id":"","id":74270591,"location_subtype":"","month":"2019-05"},{"category":"anti-social-behaviour","location_type":"Force","location":{"latitude":"51.456466","street":{"id":942929,"name":"On or near Belleville Road"},"longitude":"-0.165967"},"context":"","outcome_status":null,"persistent_id":"","id":74173340,"location_subtype":"","month":"2019-05"},{"category":"anti-social-behaviour","location_type":"Force","location":{"latitude":"51.464680","street":{"id":942841,"name":"On or near Police Station"},"longitude":"-0.162197"},"context":"","outcome_status":null,"persistent_id":"","id":74270198,"location_subtype":"","month":"2019-05"},{"category":"anti-social-behaviour","location_type":"Force","location":{"latitude":"51.455924","street":{"id":943067,"name":"On or near Melody Road"},"longitude":"-0.183103"},"context":"","outcome_status":null,"persistent_id":"","id":74270589,"location_subtype":"","month":"2019-05"},{"category":"anti-social-behaviour","location_type":"Force","location":{"latitude":"51.465313","street":{"id":943031,"name":"On or near Fowler Close"},"longitude":"-0.176842"},"context":"","outcome_status":null,"persistent_id":"","id":74270549,"location_subtype":"","month":"2019-05"},{"category":"anti-social-behaviour","location_type":"Force","location":{"latitude":"51.474319","street":{"id":945383,"name":"On or near Vicarage Crescent"},"longitude":"-0.176497"},"context":"","outcome_status":null,"persistent_id":"","id":74270562,"location_subtype":"","month":"2019-05"},{"category":"anti-social-behaviour","location_type":"Force","location":{"latitude":"51.456466","street":{"id":942929,"name":"On or near Belleville Road"},"longitude":"-0.165967"},"context":"","outcome_status":null,"persistent_id":"","id":74174031,"location_subtype":"","month":"2019-05"},{"category":"anti-social-behaviour","location_type":"Force","location":{"latitude":"51.471708","street":{"id":945550,"name":"On or near Culvert Road"},"longitude":"-0.159064"},"context":"","outcome_status":null,"persistent_id":"","id":74270178,"location_subtype":"","month":"2019-05"},{"category":"anti-social-behaviour","location_type":"Force","location":{"latitude":"51.456466","street":{"id":942929,"name":"On or near Belleville Road"},"longitude":"-0.165967"},"context":"","outcome_status":null,"persistent_id":"","id":74176637,"location_subtype":"","month":"2019-05"},{"category":"anti-social-behaviour","location_type":"Force","location":{"latitude":"51.459805","street":{"id":923965,"name":"On or near Clapham Common West Side"},"longitude":"-0.159255"},"context":"","outcome_status":null,"persistent_id":"","id":74270184,"location_subtype":"","month":"2019-05"},{"category":"anti-social-behaviour","location_type":"Force","location":{"latitude":"51.470954","street":{"id":945416,"name":"On or near Snowbury Road"},"longitude":"-0.189763"},"context":"","outcome_status":null,"persistent_id":"","id":74283925,"location_subtype":"","month":"2019-05"},{"category":"anti-social-behaviour","location_type":"Force","location":{"latitude":"51.459983","street":{"id":942831,"name":"On or near Abyssinia Close"},"longitude":"-0.167165"},"context":"","outcome_status":null,"persistent_id":"","id":74270244,"location_subtype":"","month":"2019-05"},{"category":"anti-social-behaviour","location_type":"Force","location":{"latitude":"51.456466","street":{"id":942929,"name":"On or near Belleville Road"},"longitude":"-0.165967"},"context":"","outcome_status":null,"persistent_id":"","id":74174033,"location_subtype":"","month":"2019-05"},{"category":"anti-social-behaviour","location_type":"Force","location":{"latitude":"51.466110","street":{"id":943048,"name":"On or near Bramlands Close"},"longitude":"-0.170245"},"context":"","outcome_status":null,"persistent_id":"","id":74270478,"location_subtype":"","month":"2019-05"},{"category":"anti-social-behaviour","location_type":"Force","location":{"latitude":"51.460721","street":{"id":942818,"name":"On or near Boutflower Road"},"longitude":"-0.170072"},"context":"","outcome_status":null,"persistent_id":"","id":74270483,"location_subtype":"","month":"2019-05"},{"category":"anti-social-behaviour","location_type":"Force","location":{"latitude":"51.474319","street":{"id":945383,"name":"On or near Vicarage Crescent"},"longitude":"-0.176497"},"context":"","outcome_status":null,"persistent_id":"","id":74270559,"location_subtype":"","month":"2019-05"},{"category":"anti-social-behaviour","location_type":"Force","location":{"latitude":"51.465452","street":{"id":943146,"name":"On or near Carnwath Road"},"longitude":"-0.193321"},"context":"","outcome_status":null,"persistent_id":"","id":74283939,"location_subtype":"","month":"2019-05"},{"category":"anti-social-behaviour","location_type":"Force","location":{"latitude":"51.471391","street":{"id":945442,"name":"On or near Hazlebury Road"},"longitude":"-0.189530"},"context":"","outcome_status":null,"persistent_id":"","id":74283926,"location_subtype":"","month":"2019-05"},{"category":"anti-social-behaviour","location_type":"Force","location":{"latitude":"51.470954","street":{"id":945416,"name":"On or near Snowbury Road"},"longitude":"-0.189763"},"context":"","outcome_status":null,"persistent_id":"","id":74283924,"location_subtype":"","month":"2019-05"},{"category":"anti-social-behaviour","location_type":"Force","location":{"latitude":"51.467999","street":{"id":945481,"name":"On or near De Morgan Road"},"longitude":"-0.188800"},"context":"","outcome_status":null,"persistent_id":"","id":74283923,"location_subtype":"","month":"2019-05"},{"category":"anti-social-behaviour","location_type":"Force","location":{"latitude":"51.471459","street":{"id":945394,"name":"On or near Gwynne Road"},"longitude":"-0.175330"},"context":"","outcome_status":null,"persistent_id":"","id":74270552,"location_subtype":"","month":"2019-05"},{"category":"anti-social-behaviour","location_type":"Force","location":{"latitude":"51.462383","street":{"id":943009,"name":"On or near Plough Road"},"longitude":"-0.175203"},"context":"","outcome_status":null,"persistent_id":"","id":74270529,"location_subtype":"","month":"2019-05"},{"category":"anti-social-behaviour","location_type":"Force","location":{"latitude":"51.456466","street":{"id":942929,"name":"On or near Belleville Road"},"longitude":"-0.165967"},"context":"","outcome_status":null,"persistent_id":"","id":74176247,"location_subtype":"","month":"2019-05"},{"category":"anti-social-behaviour","location_type":"Force","location":{"latitude":"51.466467","street":{"id":945689,"name":"On or near Supermarket"},"longitude":"-0.150046"},"context":"","outcome_status":null,"persistent_id":"","id":74276009,"location_subtype":"","month":"2019-05"},{"category":"anti-social-behaviour","location_type":"Force","location":{"latitude":"51.466467","street":{"id":945689,"name":"On or near Supermarket"},"longitude":"-0.150046"},"context":"","outcome_status":null,"persistent_id":"","id":74276008,"location_subtype":"","month":"2019-05"},{"category":"anti-social-behaviour","location_type":"Force","location":{"latitude":"51.456466","street":{"id":942929,"name":"On or near Belleville Road"},"longitude":"-0.165967"},"context":"","outcome_status":null,"persistent_id":"","id":74265793,"location_subtype":"","month":"2019-05"},{"category":"anti-social-behaviour","location_type":"Force","location":{"latitude":"51.456466","street":{"id":942929,"name":"On or near Belleville Road"},"longitude":"-0.165967"},"context":"","outcome_status":null,"persistent_id":"","id":74265792,"location_subtype":"","month":"2019-05"},{"category":"anti-social-behaviour","location_type":"Force","location":{"latitude":"51.469209","street":{"id":945475,"name":"On or near Wandsworth Bridge Road"},"longitude":"-0.190869"},"context":"","outcome_status":null,"persistent_id":"","id":74283928,"location_subtype":"","month":"2019-05"},{"category":"anti-social-behaviour","location_type":"Force","location":{"latitude":"51.467598","street":{"id":945674,"name":"On or near Heather Close"},"longitude":"-0.149324"},"context":"","outcome_status":null,"persistent_id":"","id":74276007,"location_subtype":"","month":"2019-05"},{"category":"anti-social-behaviour","location_type":"Force","location":{"latitude":"51.469138","street":{"id":945491,"name":"On or near Coppock Close"},"longitude":"-0.171837"},"context":"","outcome_status":null,"persistent_id":"","id":74270503,"location_subtype":"","month":"2019-05"},{"category":"anti-social-behaviour","location_type":"Force","location":{"latitude":"51.477093","street":{"id":945396,"name":"On or near Bolingbroke Walk"},"longitude":"-0.172167"},"context":"","outcome_status":null,"persistent_id":"","id":74270505,"location_subtype":"","month":"2019-05"},{"category":"anti-social-behaviour","location_type":"Force","location":{"latitude":"51.473483","street":{"id":945412,"name":"On or near The Boulevard"},"longitude":"-0.182924"},"context":"","outcome_status":null,"persistent_id":"","id":74282833,"location_subtype":"","month":"2019-05"},{"category":"anti-social-behaviour","location_type":"Force","location":{"latitude":"51.475178","street":{"id":945443,"name":"On or near Harbour Avenue"},"longitude":"-0.182612"},"context":"","outcome_status":null,"persistent_id":"","id":74282834,"location_subtype":"","month":"2019-05"},{"category":"anti-social-behaviour","location_type":"Force","location":{"latitude":"51.475178","street":{"id":945443,"name":"On or near Harbour Avenue"},"longitude":"-0.182612"},"context":"","outcome_status":null,"persistent_id":"","id":74282836,"location_subtype":"","month":"2019-05"},{"category":"anti-social-behaviour","location_type":"Force","location":{"latitude":"51.475178","street":{"id":945443,"name":"On or near Harbour Avenue"},"longitude":"-0.182612"},"context":"","outcome_status":null,"persistent_id":"","id":74282838,"location_subtype":"","month":"2019-05"},{"category":"anti-social-behaviour","location_type":"Force","location":{"latitude":"51.475178","street":{"id":945443,"name":"On or near Harbour Avenue"},"longitude":"-0.182612"},"context":"","outcome_status":null,"persistent_id":"","id":74282839,"location_subtype":"","month":"2019-05"},{"category":"anti-social-behaviour","location_type":"Force","location":{"latitude":"51.475178","street":{"id":945443,"name":"On or near Harbour Avenue"},"longitude":"-0.182612"},"context":"","outcome_status":null,"persistent_id":"","id":74282840,"location_subtype":"","month":"2019-05"},{"category":"anti-social-behaviour","location_type":"Force","location":{"latitude":"51.472883","street":{"id":945453,"name":"On or near Elbe Street"},"longitude":"-0.185410"},"context":"","outcome_status":null,"persistent_id":"","id":74282841,"location_subtype":"","month":"2019-05"},{"category":"anti-social-behaviour","location_type":"Force","location":{"latitude":"51.472883","street":{"id":945453,"name":"On or near Elbe Street"},"longitude":"-0.185410"},"context":"","outcome_status":null,"persistent_id":"","id":74282842,"location_subtype":"","month":"2019-05"},{"category":"anti-social-behaviour","location_type":"Force","location":{"latitude":"51.472883","street":{"id":945453,"name":"On or near Elbe Street"},"longitude":"-0.185410"},"context":"","outcome_status":null,"persistent_id":"","id":74282843,"location_subtype":"","month":"2019-05"},{"category":"anti-social-behaviour","location_type":"Force","location":{"latitude":"51.472883","street":{"id":945453,"name":"On or near Elbe Street"},"longitude":"-0.185410"},"context":"","outcome_status":null,"persistent_id":"","id":74282845,"location_subtype":"","month":"2019-05"},{"category":"anti-social-behaviour","location_type":"Force","location":{"latitude":"51.472883","street":{"id":945453,"name":"On or near Elbe Street"},"longitude":"-0.185410"},"context":"","outcome_status":null,"persistent_id":"","id":74282846,"location_subtype":"","month":"2019-05"},{"category":"anti-social-behaviour","location_type":"Force","location":{"latitude":"51.470036","street":{"id":945474,"name":"On or near Watermeadow Lane"},"longitude":"-0.184443"},"context":"","outcome_status":null,"persistent_id":"","id":74282847,"location_subtype":"","month":"2019-05"},{"category":"anti-social-behaviour","location_type":"Force","location":{"latitude":"51.474680","street":{"id":945402,"name":"On or near Imperial Road"},"longitude":"-0.185857"},"context":"","outcome_status":null,"persistent_id":"","id":74282848,"location_subtype":"","month":"2019-05"},{"category":"anti-social-behaviour","location_type":"Force","location":{"latitude":"51.467762","street":{"id":945484,"name":"On or near Supermarket"},"longitude":"-0.185110"},"context":"","outcome_status":null,"persistent_id":"","id":74282849,"location_subtype":"","month":"2019-05"},{"category":"anti-social-behaviour","location_type":"Force","location":{"latitude":"51.473261","street":{"id":945452,"name":"On or near Elswick Street"},"longitude":"-0.186590"},"context":"","outcome_status":null,"persistent_id":"","id":74282850,"location_subtype":"","month":"2019-05"},{"category":"anti-social-behaviour","location_type":"Force","location":{"latitude":"51.464679","street":{"id":942939,"name":"On or near Wandsworth Bridge Road"},"longitude":"-0.187564"},"context":"","outcome_status":null,"persistent_id":"","id":74282851,"location_subtype":"","month":"2019-05"},{"category":"anti-social-behaviour","location_type":"Force","location":{"latitude":"51.471898","street":{"id":945449,"name":"On or near Furness Road"},"longitude":"-0.187984"},"context":"","outcome_status":null,"persistent_id":"","id":74282852,"location_subtype":"","month":"2019-05"},{"category":"anti-social-behaviour","location_type":"Force","location":{"latitude":"51.469717","street":{"id":945476,"name":"On or near Rosebury Road"},"longitude":"-0.189452"},"context":"","outcome_status":null,"persistent_id":"","id":74282853,"location_subtype":"","month":"2019-05"},{"category":"anti-social-behaviour","location_type":"Force","location":{"latitude":"51.472443","street":{"id":945448,"name":"On or near Gilstead Road"},"longitude":"-0.188912"},"context":"","outcome_status":null,"persistent_id":"","id":74282854,"location_subtype":"","month":"2019-05"},{"category":"anti-social-behaviour","location_type":"Force","location":{"latitude":"51.468033","street":{"id":945497,"name":"On or near Wolftencroft Close"},"longitude":"-0.173033"},"context":"","outcome_status":null,"persistent_id":"","id":74270511,"location_subtype":"","month":"2019-05"},{"category":"anti-social-behaviour","location_type":"Force","location":{"latitude":"51.475188","street":{"id":945395,"name":"On or near Granfield Street"},"longitude":"-0.173410"},"context":"","outcome_status":null,"persistent_id":"","id":74270528,"location_subtype":"","month":"2019-05"},{"category":"anti-social-behaviour","location_type":"Force","location":{"latitude":"51.472883","street":{"id":945453,"name":"On or near Elbe Street"},"longitude":"-0.185410"},"context":"","outcome_status":null,"persistent_id":"","id":74282844,"location_subtype":"","month":"2019-05"},{"category":"anti-social-behaviour","location_type":"Force","location":{"latitude":"51.465957","street":{"id":942639,"name":"On or near Conference\/exhibition Centre"},"longitude":"-0.147346"},"context":"","outcome_status":null,"persistent_id":"","id":74276006,"location_subtype":"","month":"2019-05"},{"category":"anti-social-behaviour","location_type":"Force","location":{"latitude":"51.466110","street":{"id":943048,"name":"On or near Bramlands Close"},"longitude":"-0.170245"},"context":"","outcome_status":null,"persistent_id":"","id":74270479,"location_subtype":"","month":"2019-05"},{"category":"anti-social-behaviour","location_type":"Force","location":{"latitude":"51.461311","street":{"id":942880,"name":"On or near Clapham Common North Side"},"longitude":"-0.149232"},"context":"","outcome_status":null,"persistent_id":"","id":74269939,"location_subtype":"","month":"2019-05"},{"category":"anti-social-behaviour","location_type":"Force","location":{"latitude":"51.468083","street":{"id":945665,"name":"On or near Stanley Grove"},"longitude":"-0.150974"},"context":"","outcome_status":null,"persistent_id":"","id":74269945,"location_subtype":"","month":"2019-05"},{"category":"anti-social-behaviour","location_type":"Force","location":{"latitude":"51.470342","street":{"id":945546,"name":"On or near Emu Road"},"longitude":"-0.151099"},"context":"","outcome_status":null,"persistent_id":"","id":74269951,"location_subtype":"","month":"2019-05"},{"category":"anti-social-behaviour","location_type":"Force","location":{"latitude":"51.469279","street":{"id":945666,"name":"On or near Stanley Grove"},"longitude":"-0.151588"},"context":"","outcome_status":null,"persistent_id":"","id":74269954,"location_subtype":"","month":"2019-05"},{"category":"anti-social-behaviour","location_type":"Force","location":{"latitude":"51.466731","street":{"id":945687,"name":"On or near Ashley Crescent"},"longitude":"-0.151921"},"context":"","outcome_status":null,"persistent_id":"","id":74269960,"location_subtype":"","month":"2019-05"},{"category":"anti-social-behaviour","location_type":"Force","location":{"latitude":"51.469653","street":{"id":945519,"name":"On or near Wycliffe Road"},"longitude":"-0.153056"},"context":"","outcome_status":null,"persistent_id":"","id":74269964,"location_subtype":"","month":"2019-05"},{"category":"anti-social-behaviour","location_type":"Force","location":{"latitude":"51.469653","street":{"id":945519,"name":"On or near Wycliffe Road"},"longitude":"-0.153056"},"context":"","outcome_status":null,"persistent_id":"","id":74269965,"location_subtype":"","month":"2019-05"},{"category":"anti-social-behaviour","location_type":"Force","location":{"latitude":"51.469653","street":{"id":945519,"name":"On or near Wycliffe Road"},"longitude":"-0.153056"},"context":"","outcome_status":null,"persistent_id":"","id":74269966,"location_subtype":"","month":"2019-05"},{"category":"anti-social-behaviour","location_type":"Force","location":{"latitude":"51.462222","street":{"id":942846,"name":"On or near Tregarvon Road"},"longitude":"-0.153414"},"context":"","outcome_status":null,"persistent_id":"","id":74269972,"location_subtype":"","month":"2019-05"},{"category":"anti-social-behaviour","location_type":"Force","location":{"latitude":"51.462222","street":{"id":942846,"name":"On or near Tregarvon Road"},"longitude":"-0.153414"},"context":"","outcome_status":null,"persistent_id":"","id":74269973,"location_subtype":"","month":"2019-05"},{"category":"anti-social-behaviour","location_type":"Force","location":{"latitude":"51.465397","street":{"id":942855,"name":"On or near Rush Hill Road"},"longitude":"-0.154005"},"context":"","outcome_status":null,"persistent_id":"","id":74269976,"location_subtype":"","month":"2019-05"},{"category":"anti-social-behaviour","location_type":"Force","location":{"latitude":"51.468370","street":{"id":945664,"name":"On or near Tyneham Road"},"longitude":"-0.154360"},"context":"","outcome_status":null,"persistent_id":"","id":74269977,"location_subtype":"","month":"2019-05"},{"category":"anti-social-behaviour","location_type":"Force","location":{"latitude":"51.465646","street":{"id":942856,"name":"On or near Rush Hill Mews"},"longitude":"-0.153822"},"context":"","outcome_status":null,"persistent_id":"","id":74269978,"location_subtype":"","month":"2019-05"},{"category":"anti-social-behaviour","location_type":"Force","location":{"latitude":"51.465646","street":{"id":942856,"name":"On or near Rush Hill Mews"},"longitude":"-0.153822"},"context":"","outcome_status":null,"persistent_id":"","id":74270144,"location_subtype":"","month":"2019-05"},{"category":"anti-social-behaviour","location_type":"Force","location":{"latitude":"51.473261","street":{"id":945543,"name":"On or near Francis Chichester Way"},"longitude":"-0.153760"},"context":"","outcome_status":null,"persistent_id":"","id":74270148,"location_subtype":"","month":"2019-05"},{"category":"anti-social-behaviour","location_type":"Force","location":{"latitude":"51.469565","street":{"id":945663,"name":"On or near Wickersley Road"},"longitude":"-0.154283"},"context":"","outcome_status":null,"persistent_id":"","id":74270149,"location_subtype":"","month":"2019-05"},{"category":"anti-social-behaviour","location_type":"Force","location":{"latitude":"51.472779","street":{"id":945563,"name":"On or near Astle Street"},"longitude":"-0.154528"},"context":"","outcome_status":null,"persistent_id":"","id":74270150,"location_subtype":"","month":"2019-05"},{"category":"anti-social-behaviour","location_type":"Force","location":{"latitude":"51.465732","street":{"id":942847,"name":"On or near Tipthorpe Road"},"longitude":"-0.155863"},"context":"","outcome_status":null,"persistent_id":"","id":74270152,"location_subtype":"","month":"2019-05"},{"category":"anti-social-behaviour","location_type":"Force","location":{"latitude":"51.462581","street":{"id":942873,"name":"On or near Forthbridge Road"},"longitude":"-0.155055"},"context":"","outcome_status":null,"persistent_id":"","id":74270153,"location_subtype":"","month":"2019-05"},{"category":"anti-social-behaviour","location_type":"Force","location":{"latitude":"51.466732","street":{"id":945676,"name":"On or near Gideon Road"},"longitude":"-0.155391"},"context":"","outcome_status":null,"persistent_id":"","id":74270154,"location_subtype":"","month":"2019-05"},{"category":"anti-social-behaviour","location_type":"Force","location":{"latitude":"51.463361","street":{"id":942853,"name":"On or near Stormont Road"},"longitude":"-0.156045"},"context":"","outcome_status":null,"persistent_id":"","id":74270158,"location_subtype":"","month":"2019-05"},{"category":"anti-social-behaviour","location_type":"Force","location":{"latitude":"51.472113","street":{"id":945559,"name":"On or near Blondel Street"},"longitude":"-0.156816"},"context":"","outcome_status":null,"persistent_id":"","id":74270168,"location_subtype":"","month":"2019-05"},{"category":"anti-social-behaviour","location_type":"Force","location":{"latitude":"51.473026","street":{"id":945548,"name":"On or near Dagnall Street"},"longitude":"-0.157657"},"context":"","outcome_status":null,"persistent_id":"","id":74270173,"location_subtype":"","month":"2019-05"},{"category":"anti-social-behaviour","location_type":"Force","location":{"latitude":"51.463006","street":{"id":942854,"name":"On or near Sisters Avenue"},"longitude":"-0.159212"},"context":"","outcome_status":null,"persistent_id":"","id":74270174,"location_subtype":"","month":"2019-05"},{"category":"anti-social-behaviour","location_type":"Force","location":{"latitude":"51.471416","street":{"id":945558,"name":"On or near Brougham Street"},"longitude":"-0.159954"},"context":"","outcome_status":null,"persistent_id":"","id":74270176,"location_subtype":"","month":"2019-05"},{"category":"anti-social-behaviour","location_type":"Force","location":{"latitude":"51.471416","street":{"id":945558,"name":"On or near Brougham Street"},"longitude":"-0.159954"},"context":"","outcome_status":null,"persistent_id":"","id":74270177,"location_subtype":"","month":"2019-05"},{"category":"anti-social-behaviour","location_type":"Force","location":{"latitude":"51.471708","street":{"id":945550,"name":"On or near Culvert Road"},"longitude":"-0.159064"},"context":"","outcome_status":null,"persistent_id":"","id":74270179,"location_subtype":"","month":"2019-05"},{"category":"anti-social-behaviour","location_type":"Force","location":{"latitude":"51.457443","street":{"id":942844,"name":"On or near Alfriston Road"},"longitude":"-0.159451"},"context":"","outcome_status":null,"persistent_id":"","id":74270183,"location_subtype":"","month":"2019-05"},{"category":"anti-social-behaviour","location_type":"Force","location":{"latitude":"51.455822","street":{"id":942909,"name":"On or near Chatto Road"},"longitude":"-0.160451"},"context":"","outcome_status":null,"persistent_id":"","id":74270187,"location_subtype":"","month":"2019-05"},{"category":"anti-social-behaviour","location_type":"Force","location":{"latitude":"51.467812","street":{"id":945672,"name":"On or near Kingsley Street"},"longitude":"-0.160041"},"context":"","outcome_status":null,"persistent_id":"","id":74270188,"location_subtype":"","month":"2019-05"},{"category":"anti-social-behaviour","location_type":"Force","location":{"latitude":"51.470389","street":{"id":945581,"name":"On or near Sheepcote Lane"},"longitude":"-0.160974"},"context":"","outcome_status":null,"persistent_id":"","id":74270191,"location_subtype":"","month":"2019-05"},{"category":"anti-social-behaviour","location_type":"Force","location":{"latitude":"51.464680","street":{"id":942841,"name":"On or near Police Station"},"longitude":"-0.162197"},"context":"","outcome_status":null,"persistent_id":"","id":74270199,"location_subtype":"","month":"2019-05"},{"category":"anti-social-behaviour","location_type":"Force","location":{"latitude":"51.466112","street":{"id":942801,"name":"On or near Latchmere Road"},"longitude":"-0.162341"},"context":"","outcome_status":null,"persistent_id":"","id":74270201,"location_subtype":"","month":"2019-05"},{"category":"anti-social-behaviour","location_type":"Force","location":{"latitude":"51.461045","street":{"id":942832,"name":"On or near A3"},"longitude":"-0.162041"},"context":"","outcome_status":null,"persistent_id":"","id":74270206,"location_subtype":"","month":"2019-05"},{"category":"anti-social-behaviour","location_type":"Force","location":{"latitude":"51.461045","street":{"id":942832,"name":"On or near A3"},"longitude":"-0.162041"},"context":"","outcome_status":null,"persistent_id":"","id":74270207,"location_subtype":"","month":"2019-05"},{"category":"anti-social-behaviour","location_type":"Force","location":{"latitude":"51.469416","street":{"id":945645,"name":"On or near Poyntz Road"},"longitude":"-0.163144"},"context":"","outcome_status":null,"persistent_id":"","id":74270209,"location_subtype":"","month":"2019-05"},{"category":"anti-social-behaviour","location_type":"Force","location":{"latitude":"51.458120","street":{"id":942820,"name":"On or near Bennerley Road"},"longitude":"-0.165930"},"context":"","outcome_status":null,"persistent_id":"","id":74270211,"location_subtype":"","month":"2019-05"},{"category":"anti-social-behaviour","location_type":"Force","location":{"latitude":"51.472175","street":{"id":945594,"name":"On or near Latchmere Street"},"longitude":"-0.164733"},"context":"","outcome_status":null,"persistent_id":"","id":74270220,"location_subtype":"","month":"2019-05"},{"category":"anti-social-behaviour","location_type":"Force","location":{"latitude":"51.460112","street":{"id":942828,"name":"On or near Almeric Road"},"longitude":"-0.165663"},"context":"","outcome_status":null,"persistent_id":"","id":74270224,"location_subtype":"","month":"2019-05"},{"category":"anti-social-behaviour","location_type":"Force","location":{"latitude":"51.462564","street":{"id":942798,"name":"On or near Lavender Sweep"},"longitude":"-0.165464"},"context":"","outcome_status":null,"persistent_id":"","id":74270227,"location_subtype":"","month":"2019-05"},{"category":"anti-social-behaviour","location_type":"Force","location":{"latitude":"51.462564","street":{"id":942798,"name":"On or near Lavender Sweep"},"longitude":"-0.165464"},"context":"","outcome_status":null,"persistent_id":"","id":74270228,"location_subtype":"","month":"2019-05"},{"category":"anti-social-behaviour","location_type":"Force","location":{"latitude":"51.459983","street":{"id":942831,"name":"On or near Abyssinia Close"},"longitude":"-0.167165"},"context":"","outcome_status":null,"persistent_id":"","id":74270245,"location_subtype":"","month":"2019-05"},{"category":"anti-social-behaviour","location_type":"Force","location":{"latitude":"51.459983","street":{"id":942831,"name":"On or near Abyssinia Close"},"longitude":"-0.167165"},"context":"","outcome_status":null,"persistent_id":"","id":74270246,"location_subtype":"","month":"2019-05"},{"category":"anti-social-behaviour","location_type":"Force","location":{"latitude":"51.464623","street":{"id":942810,"name":"On or near Falcon Lane"},"longitude":"-0.166605"},"context":"","outcome_status":null,"persistent_id":"","id":74270247,"location_subtype":"","month":"2019-05"},{"category":"anti-social-behaviour","location_type":"Force","location":{"latitude":"51.464623","street":{"id":942810,"name":"On or near Falcon Lane"},"longitude":"-0.166605"},"context":"","outcome_status":null,"persistent_id":"","id":74270248,"location_subtype":"","month":"2019-05"},{"category":"anti-social-behaviour","location_type":"Force","location":{"latitude":"51.464623","street":{"id":942810,"name":"On or near Falcon Lane"},"longitude":"-0.166605"},"context":"","outcome_status":null,"persistent_id":"","id":74270249,"location_subtype":"","month":"2019-05"},{"category":"anti-social-behaviour","location_type":"Force","location":{"latitude":"51.471963","street":{"id":945640,"name":"On or near Theatre\/concert Hall"},"longitude":"-0.165576"},"context":"","outcome_status":null,"persistent_id":"","id":74270250,"location_subtype":"","month":"2019-05"},{"category":"anti-social-behaviour","location_type":"Force","location":{"latitude":"51.471431","street":{"id":945607,"name":"On or near Frere Street"},"longitude":"-0.166605"},"context":"","outcome_status":null,"persistent_id":"","id":74270252,"location_subtype":"","month":"2019-05"},{"category":"anti-social-behaviour","location_type":"Force","location":{"latitude":"51.463716","street":{"id":942783,"name":"On or near St John's Road"},"longitude":"-0.167836"},"context":"","outcome_status":null,"persistent_id":"","id":74270259,"location_subtype":"","month":"2019-05"},{"category":"anti-social-behaviour","location_type":"Force","location":{"latitude":"51.478345","street":{"id":945601,"name":"On or near Juer Street"},"longitude":"-0.167091"},"context":"","outcome_status":null,"persistent_id":"","id":74270260,"location_subtype":"","month":"2019-05"},{"category":"anti-social-behaviour","location_type":"Force","location":{"latitude":"51.458120","street":{"id":942820,"name":"On or near Bennerley Road"},"longitude":"-0.165930"},"context":"","outcome_status":null,"persistent_id":"","id":74270262,"location_subtype":"","month":"2019-05"},{"category":"anti-social-behaviour","location_type":"Force","location":{"latitude":"51.474000","street":{"id":945620,"name":"On or near Bridge Lane"},"longitude":"-0.166992"},"context":"","outcome_status":null,"persistent_id":"","id":74270266,"location_subtype":"","month":"2019-05"},{"category":"anti-social-behaviour","location_type":"Force","location":{"latitude":"51.474000","street":{"id":945620,"name":"On or near Bridge Lane"},"longitude":"-0.166992"},"context":"","outcome_status":null,"persistent_id":"","id":74270267,"location_subtype":"","month":"2019-05"},{"category":"anti-social-behaviour","location_type":"Force","location":{"latitude":"51.470311","street":{"id":945583,"name":"On or near Rowena Crescent"},"longitude":"-0.168018"},"context":"","outcome_status":null,"persistent_id":"","id":74270268,"location_subtype":"","month":"2019-05"},{"category":"anti-social-behaviour","location_type":"Force","location":{"latitude":"51.462623","street":{"id":942840,"name":"On or near Supermarket"},"longitude":"-0.168067"},"context":"","outcome_status":null,"persistent_id":"","id":74270269,"location_subtype":"","month":"2019-05"},{"category":"anti-social-behaviour","location_type":"Force","location":{"latitude":"51.462623","street":{"id":942840,"name":"On or near Supermarket"},"longitude":"-0.168067"},"context":"","outcome_status":null,"persistent_id":"","id":74270270,"location_subtype":"","month":"2019-05"},{"category":"anti-social-behaviour","location_type":"Force","location":{"latitude":"51.462623","street":{"id":942840,"name":"On or near Supermarket"},"longitude":"-0.168067"},"context":"","outcome_status":null,"persistent_id":"","id":74270271,"location_subtype":"","month":"2019-05"},{"category":"anti-social-behaviour","location_type":"Force","location":{"latitude":"51.462623","street":{"id":942840,"name":"On or near Supermarket"},"longitude":"-0.168067"},"context":"","outcome_status":null,"persistent_id":"","id":74270272,"location_subtype":"","month":"2019-05"},{"category":"anti-social-behaviour","location_type":"Force","location":{"latitude":"51.462623","street":{"id":942840,"name":"On or near Supermarket"},"longitude":"-0.168067"},"context":"","outcome_status":null,"persistent_id":"","id":74270273,"location_subtype":"","month":"2019-05"},{"category":"anti-social-behaviour","location_type":"Force","location":{"latitude":"51.462623","street":{"id":942840,"name":"On or near Supermarket"},"longitude":"-0.168067"},"context":"","outcome_status":null,"persistent_id":"","id":74270274,"location_subtype":"","month":"2019-05"},{"category":"anti-social-behaviour","location_type":"Force","location":{"latitude":"51.462623","street":{"id":942840,"name":"On or near Supermarket"},"longitude":"-0.168067"},"context":"","outcome_status":null,"persistent_id":"","id":74270275,"location_subtype":"","month":"2019-05"},{"category":"anti-social-behaviour","location_type":"Force","location":{"latitude":"51.462623","street":{"id":942840,"name":"On or near Supermarket"},"longitude":"-0.168067"},"context":"","outcome_status":null,"persistent_id":"","id":74270276,"location_subtype":"","month":"2019-05"},{"category":"anti-social-behaviour","location_type":"Force","location":{"latitude":"51.462623","street":{"id":942840,"name":"On or near Supermarket"},"longitude":"-0.168067"},"context":"","outcome_status":null,"persistent_id":"","id":74270277,"location_subtype":"","month":"2019-05"},{"category":"anti-social-behaviour","location_type":"Force","location":{"latitude":"51.462623","street":{"id":942840,"name":"On or near Supermarket"},"longitude":"-0.168067"},"context":"","outcome_status":null,"persistent_id":"","id":74270278,"location_subtype":"","month":"2019-05"},{"category":"anti-social-behaviour","location_type":"Force","location":{"latitude":"51.476078","street":{"id":945575,"name":"On or near Watford Close"},"longitude":"-0.166520"},"context":"","outcome_status":null,"persistent_id":"","id":74270279,"location_subtype":"","month":"2019-05"},{"category":"anti-social-behaviour","location_type":"Force","location":{"latitude":"51.476934","street":{"id":945610,"name":"On or near Ethelburga Street"},"longitude":"-0.167767"},"context":"","outcome_status":null,"persistent_id":"","id":74270281,"location_subtype":"","month":"2019-05"},{"category":"anti-social-behaviour","location_type":"Force","location":{"latitude":"51.460004","street":{"id":942825,"name":"On or near Auckland Road"},"longitude":"-0.168532"},"context":"","outcome_status":null,"persistent_id":"","id":74270282,"location_subtype":"","month":"2019-05"},{"category":"anti-social-behaviour","location_type":"Force","location":{"latitude":"51.459819","street":{"id":942817,"name":"On or near Buckmaster Road"},"longitude":"-0.169316"},"context":"","outcome_status":null,"persistent_id":"","id":74270291,"location_subtype":"","month":"2019-05"},{"category":"anti-social-behaviour","location_type":"Force","location":{"latitude":"51.466402","street":{"id":945647,"name":"On or near Lavender Terrace"},"longitude":"-0.169370"},"context":"","outcome_status":null,"persistent_id":"","id":74270293,"location_subtype":"","month":"2019-05"},{"category":"anti-social-behaviour","location_type":"Force","location":{"latitude":"51.466402","street":{"id":945647,"name":"On or near Lavender Terrace"},"longitude":"-0.169370"},"context":"","outcome_status":null,"persistent_id":"","id":74270294,"location_subtype":"","month":"2019-05"},{"category":"anti-social-behaviour","location_type":"Force","location":{"latitude":"51.466402","street":{"id":945647,"name":"On or near Lavender Terrace"},"longitude":"-0.169370"},"context":"","outcome_status":null,"persistent_id":"","id":74270295,"location_subtype":"","month":"2019-05"},{"category":"anti-social-behaviour","location_type":"Force","location":{"latitude":"51.476838","street":{"id":945624,"name":"On or near Battersea Bridge Road"},"longitude":"-0.168534"},"context":"","outcome_status":null,"persistent_id":"","id":74270296,"location_subtype":"","month":"2019-05"},{"category":"anti-social-behaviour","location_type":"Force","location":{"latitude":"51.476838","street":{"id":945624,"name":"On or near Battersea Bridge Road"},"longitude":"-0.168534"},"context":"","outcome_status":null,"persistent_id":"","id":74270297,"location_subtype":"","month":"2019-05"},{"category":"anti-social-behaviour","location_type":"Force","location":{"latitude":"51.467791","street":{"id":945651,"name":"On or near Falcon Grove"},"longitude":"-0.169631"},"context":"","outcome_status":null,"persistent_id":"","id":74270302,"location_subtype":"","month":"2019-05"},{"category":"anti-social-behaviour","location_type":"Force","location":{"latitude":"51.476638","street":{"id":945512,"name":"On or near Randall Close"},"longitude":"-0.170112"},"context":"","outcome_status":null,"persistent_id":"","id":74270466,"location_subtype":"","month":"2019-05"},{"category":"anti-social-behaviour","location_type":"Force","location":{"latitude":"51.458352","street":{"id":943047,"name":"On or near Chivalry Road"},"longitude":"-0.171534"},"context":"","outcome_status":null,"persistent_id":"","id":74270467,"location_subtype":"","month":"2019-05"},{"category":"anti-social-behaviour","location_type":"Force","location":{"latitude":"51.466110","street":{"id":943048,"name":"On or near Bramlands Close"},"longitude":"-0.170245"},"context":"","outcome_status":null,"persistent_id":"","id":74270468,"location_subtype":"","month":"2019-05"},{"category":"anti-social-behaviour","location_type":"Force","location":{"latitude":"51.466110","street":{"id":943048,"name":"On or near Bramlands Close"},"longitude":"-0.170245"},"context":"","outcome_status":null,"persistent_id":"","id":74270469,"location_subtype":"","month":"2019-05"},{"category":"anti-social-behaviour","location_type":"Force","location":{"latitude":"51.466110","street":{"id":943048,"name":"On or near Bramlands Close"},"longitude":"-0.170245"},"context":"","outcome_status":null,"persistent_id":"","id":74270470,"location_subtype":"","month":"2019-05"},{"category":"anti-social-behaviour","location_type":"Force","location":{"latitude":"51.476638","street":{"id":945512,"name":"On or near Randall Close"},"longitude":"-0.170112"},"context":"","outcome_status":null,"persistent_id":"","id":74270471,"location_subtype":"","month":"2019-05"},{"category":"anti-social-behaviour","location_type":"Force","location":{"latitude":"51.476638","street":{"id":945512,"name":"On or near Randall Close"},"longitude":"-0.170112"},"context":"","outcome_status":null,"persistent_id":"","id":74270472,"location_subtype":"","month":"2019-05"},{"category":"anti-social-behaviour","location_type":"Force","location":{"latitude":"51.469693","street":{"id":945486,"name":"On or near Patience Road"},"longitude":"-0.170519"},"context":"","outcome_status":null,"persistent_id":"","id":74270473,"location_subtype":"","month":"2019-05"},{"category":"anti-social-behaviour","location_type":"Force","location":{"latitude":"51.466110","street":{"id":943048,"name":"On or near Bramlands Close"},"longitude":"-0.170245"},"context":"","outcome_status":null,"persistent_id":"","id":74270480,"location_subtype":"","month":"2019-05"},{"category":"anti-social-behaviour","location_type":"Force","location":{"latitude":"51.467915","street":{"id":945489,"name":"On or near Hicks Close"},"longitude":"-0.171238"},"context":"","outcome_status":null,"persistent_id":"","id":74270481,"location_subtype":"","month":"2019-05"},{"category":"anti-social-behaviour","location_type":"Force","location":{"latitude":"51.467915","street":{"id":945489,"name":"On or near Hicks Close"},"longitude":"-0.171238"},"context":"","outcome_status":null,"persistent_id":"","id":74270482,"location_subtype":"","month":"2019-05"},{"category":"anti-social-behaviour","location_type":"Force","location":{"latitude":"51.460721","street":{"id":942818,"name":"On or near Boutflower Road"},"longitude":"-0.170072"},"context":"","outcome_status":null,"persistent_id":"","id":74270484,"location_subtype":"","month":"2019-05"},{"category":"anti-social-behaviour","location_type":"Force","location":{"latitude":"51.467915","street":{"id":945489,"name":"On or near Hicks Close"},"longitude":"-0.171238"},"context":"","outcome_status":null,"persistent_id":"","id":74270485,"location_subtype":"","month":"2019-05"},{"category":"anti-social-behaviour","location_type":"Force","location":{"latitude":"51.467915","street":{"id":945489,"name":"On or near Hicks Close"},"longitude":"-0.171238"},"context":"","outcome_status":null,"persistent_id":"","id":74270487,"location_subtype":"","month":"2019-05"},{"category":"anti-social-behaviour","location_type":"Force","location":{"latitude":"51.464902","street":{"id":943043,"name":"On or near Pedestrian Subway"},"longitude":"-0.170653"},"context":"","outcome_status":null,"persistent_id":"","id":74270488,"location_subtype":"","month":"2019-05"},{"category":"anti-social-behaviour","location_type":"Force","location":{"latitude":"51.462898","street":{"id":943045,"name":"On or near St John's Hill"},"longitude":"-0.170690"},"context":"","outcome_status":null,"persistent_id":"","id":74270489,"location_subtype":"","month":"2019-05"},{"category":"anti-social-behaviour","location_type":"Force","location":{"latitude":"51.462898","street":{"id":943045,"name":"On or near St John's Hill"},"longitude":"-0.170690"},"context":"","outcome_status":null,"persistent_id":"","id":74270490,"location_subtype":"","month":"2019-05"},{"category":"anti-social-behaviour","location_type":"Force","location":{"latitude":"51.462898","street":{"id":943045,"name":"On or near St John's Hill"},"longitude":"-0.170690"},"context":"","outcome_status":null,"persistent_id":"","id":74270491,"location_subtype":"","month":"2019-05"},{"category":"anti-social-behaviour","location_type":"Force","location":{"latitude":"51.467915","street":{"id":945489,"name":"On or near Hicks Close"},"longitude":"-0.171238"},"context":"","outcome_status":null,"persistent_id":"","id":74270492,"location_subtype":"","month":"2019-05"},{"category":"anti-social-behaviour","location_type":"Force","location":{"latitude":"51.467915","street":{"id":945489,"name":"On or near Hicks Close"},"longitude":"-0.171238"},"context":"","outcome_status":null,"persistent_id":"","id":74270493,"location_subtype":"","month":"2019-05"},{"category":"anti-social-behaviour","location_type":"Force","location":{"latitude":"51.461024","street":{"id":943044,"name":"On or near Strath Terrace"},"longitude":"-0.171672"},"context":"","outcome_status":null,"persistent_id":"","id":74270494,"location_subtype":"","month":"2019-05"},{"category":"anti-social-behaviour","location_type":"Force","location":{"latitude":"51.469693","street":{"id":945486,"name":"On or near Patience Road"},"longitude":"-0.170519"},"context":"","outcome_status":null,"persistent_id":"","id":74270495,"location_subtype":"","month":"2019-05"},{"category":"anti-social-behaviour","location_type":"Force","location":{"latitude":"51.475078","street":{"id":945371,"name":"On or near Parkham Street"},"longitude":"-0.172133"},"context":"","outcome_status":null,"persistent_id":"","id":74270501,"location_subtype":"","month":"2019-05"},{"category":"anti-social-behaviour","location_type":"Force","location":{"latitude":"51.475078","street":{"id":945371,"name":"On or near Parkham Street"},"longitude":"-0.172133"},"context":"","outcome_status":null,"persistent_id":"","id":74270502,"location_subtype":"","month":"2019-05"},{"category":"anti-social-behaviour","location_type":"Force","location":{"latitude":"51.477093","street":{"id":945396,"name":"On or near Bolingbroke Walk"},"longitude":"-0.172167"},"context":"","outcome_status":null,"persistent_id":"","id":74270504,"location_subtype":"","month":"2019-05"},{"category":"anti-social-behaviour","location_type":"Force","location":{"latitude":"51.464911","street":{"id":943029,"name":"On or near Grant Road"},"longitude":"-0.172913"},"context":"","outcome_status":null,"persistent_id":"","id":74270506,"location_subtype":"","month":"2019-05"},{"category":"anti-social-behaviour","location_type":"Force","location":{"latitude":"51.466317","street":{"id":943015,"name":"On or near Meyrick Road"},"longitude":"-0.173131"},"context":"","outcome_status":null,"persistent_id":"","id":74270508,"location_subtype":"","month":"2019-05"},{"category":"anti-social-behaviour","location_type":"Force","location":{"latitude":"51.475188","street":{"id":945395,"name":"On or near Granfield Street"},"longitude":"-0.173410"},"context":"","outcome_status":null,"persistent_id":"","id":74270509,"location_subtype":"","month":"2019-05"},{"category":"anti-social-behaviour","location_type":"Force","location":{"latitude":"51.468033","street":{"id":945497,"name":"On or near Wolftencroft Close"},"longitude":"-0.173033"},"context":"","outcome_status":null,"persistent_id":"","id":74270510,"location_subtype":"","month":"2019-05"},{"category":"anti-social-behaviour","location_type":"Force","location":{"latitude":"51.464911","street":{"id":943029,"name":"On or near Grant Road"},"longitude":"-0.172913"},"context":"","outcome_status":null,"persistent_id":"","id":74270512,"location_subtype":"","month":"2019-05"},{"category":"anti-social-behaviour","location_type":"Force","location":{"latitude":"51.464911","street":{"id":943029,"name":"On or near Grant Road"},"longitude":"-0.172913"},"context":"","outcome_status":null,"persistent_id":"","id":74270513,"location_subtype":"","month":"2019-05"},{"category":"anti-social-behaviour","location_type":"Force","location":{"latitude":"51.467524","street":{"id":945503,"name":"On or near Ingrave Street"},"longitude":"-0.172679"},"context":"","outcome_status":null,"persistent_id":"","id":74270514,"location_subtype":"","month":"2019-05"},{"category":"anti-social-behaviour","location_type":"Force","location":{"latitude":"51.473286","street":{"id":945385,"name":"On or near Trott Street"},"longitude":"-0.172521"},"context":"","outcome_status":null,"persistent_id":"","id":74270515,"location_subtype":"","month":"2019-05"},{"category":"anti-social-behaviour","location_type":"Force","location":{"latitude":"51.469365","street":{"id":945505,"name":"On or near Fawcett Close"},"longitude":"-0.174262"},"context":"","outcome_status":null,"persistent_id":"","id":74270517,"location_subtype":"","month":"2019-05"},{"category":"anti-social-behaviour","location_type":"Force","location":{"latitude":"51.468045","street":{"id":945500,"name":"On or near Mantua Street"},"longitude":"-0.174386"},"context":"","outcome_status":null,"persistent_id":"","id":74270518,"location_subtype":"","month":"2019-05"},{"category":"bicycle-theft","location_type":"Force","location":{"latitude":"51.473483","street":{"id":945412,"name":"On or near The Boulevard"},"longitude":"-0.182924"},"context":"","outcome_status":{"category":"Status update unavailable","date":"2019-09"},"persistent_id":"12b96a8df87b8a6ea350f0ad186275e681c2226f013bee3f29ae39d6206ed179","id":74294483,"location_subtype":"","month":"2019-05"},{"category":"bicycle-theft","location_type":"Force","location":{"latitude":"51.472931","street":{"id":945625,"name":"On or near Banbury Street"},"longitude":"-0.166531"},"context":"","outcome_status":{"category":"Status update unavailable","date":"2019-09"},"persistent_id":"5d6e4d6e0be6c8bce649d5849a1feee3468634f75db3924c5ed7bb32531f879a","id":74345101,"location_subtype":"","month":"2019-05"},{"category":"bicycle-theft","location_type":"Force","location":{"latitude":"51.474853","street":{"id":945566,"name":"On or near Alexandra Avenue"},"longitude":"-0.156043"},"context":"","outcome_status":{"category":"Status update unavailable","date":"2019-09"},"persistent_id":"b181420b5560375f35dfe16a351460ada56718253ec782c446061052a183ebe7","id":74294052,"location_subtype":"","month":"2019-05"},{"category":"bicycle-theft","location_type":"Force","location":{"latitude":"51.464104","street":{"id":942776,"name":"On or near Pedestrian Subway"},"longitude":"-0.169634"},"context":"","outcome_status":{"category":"Status update unavailable","date":"2019-09"},"persistent_id":"cfe0af1233fa9e919e0392c8e865a9dc0969b4a25bcefbe7d6da1c22a99442b4","id":74363658,"location_subtype":"","month":"2019-05"},{"category":"bicycle-theft","location_type":"Force","location":{"latitude":"51.455964","street":{"id":943065,"name":"On or near Ridgmount Road"},"longitude":"-0.188600"},"context":"","outcome_status":{"category":"Status update unavailable","date":"2019-09"},"persistent_id":"e4999a4c20b23e506ab6357a3e0ea84163cedf5f0a9abf1fbd2561c9d71e70ed","id":74333384,"location_subtype":"","month":"2019-05"},{"category":"bicycle-theft","location_type":"Force","location":{"latitude":"51.470036","street":{"id":945474,"name":"On or near Watermeadow Lane"},"longitude":"-0.184443"},"context":"","outcome_status":{"category":"Status update unavailable","date":"2019-09"},"persistent_id":"68fb7dca80557b8b6cdd8118e3350fd8995dc3d4e2291f03bffaa75a41ad185a","id":74308735,"location_subtype":"","month":"2019-05"},{"category":"bicycle-theft","location_type":"Force","location":{"latitude":"51.472433","street":{"id":945613,"name":"On or near Colestown Street"},"longitude":"-0.166306"},"context":"","outcome_status":{"category":"Status update unavailable","date":"2019-09"},"persistent_id":"476a36b5ccf3051bd68038387a6350e576a2000ae7c28fb6a106ad2d39cff639","id":74296592,"location_subtype":"","month":"2019-05"},{"category":"bicycle-theft","location_type":"Force","location":{"latitude":"51.459490","street":{"id":942785,"name":"On or near Shelgate Road"},"longitude":"-0.164982"},"context":"","outcome_status":{"category":"Status update unavailable","date":"2019-09"},"persistent_id":"d979445b8d37794b15976a55a34476e5260a16ed9e7a3bb33c6f4ca778939b72","id":74333395,"location_subtype":"","month":"2019-05"},{"category":"bicycle-theft","location_type":"Force","location":{"latitude":"51.459805","street":{"id":923965,"name":"On or near Clapham Common West Side"},"longitude":"-0.159255"},"context":"","outcome_status":{"category":"Status update unavailable","date":"2019-09"},"persistent_id":"445272fbe935a806297d5a0ca0d7d00759564452af15ac3d01d2daf8ffd568d2","id":74350299,"location_subtype":"","month":"2019-05"},{"category":"bicycle-theft","location_type":"Force","location":{"latitude":"51.471105","street":{"id":945392,"name":"On or near Lombard Road"},"longitude":"-0.177461"},"context":"","outcome_status":{"category":"Status update unavailable","date":"2019-09"},"persistent_id":"fab1599526dc281a7f4d446250a0ca081e64a11a7b3d1ab17cd2769a4a5b26ed","id":74346159,"location_subtype":"","month":"2019-05"},{"category":"bicycle-theft","location_type":"Force","location":{"latitude":"51.464128","street":{"id":942958,"name":"On or near Juniper Drive"},"longitude":"-0.183900"},"context":"","outcome_status":{"category":"Status update unavailable","date":"2019-09"},"persistent_id":"f3e05c21f6fb2ff146b8c5f8707a46ff5d5794c105e69526d6889db553ec8600","id":74296517,"location_subtype":"","month":"2019-05"},{"category":"bicycle-theft","location_type":"Force","location":{"latitude":"51.472554","street":{"id":945397,"name":"On or near Battersea High Street"},"longitude":"-0.173458"},"context":"","outcome_status":{"category":"Court result unavailable","date":"2020-01"},"persistent_id":"f83d5bbde99c848724623e7a95a66e7e82870b2b1be967ed4131f4bc276218e2","id":74299949,"location_subtype":"","month":"2019-05"},{"category":"bicycle-theft","location_type":"Force","location":{"latitude":"51.460114","street":{"id":942967,"name":"On or near Edgel Street"},"longitude":"-0.189472"},"context":"","outcome_status":{"category":"Status update unavailable","date":"2019-09"},"persistent_id":"86a6cb461deec0da8f55251a19f11331ff6cb9a605b4ff418419917786e1afe1","id":74296496,"location_subtype":"","month":"2019-05"},{"category":"bicycle-theft","location_type":"Force","location":{"latitude":"51.465546","street":{"id":942782,"name":"On or near Theatre Street"},"longitude":"-0.161212"},"context":"","outcome_status":{"category":"Status update unavailable","date":"2019-09"},"persistent_id":"c37d10b53285a5345b3949ddadcb97634e27b3d46dea4f21ee8139172bf141f0","id":74372454,"location_subtype":"","month":"2019-05"},{"category":"bicycle-theft","location_type":"Force","location":{"latitude":"51.472448","street":{"id":945410,"name":"On or near Tynemouth Street"},"longitude":"-0.185773"},"context":"","outcome_status":{"category":"Status update unavailable","date":"2019-09"},"persistent_id":"e9980bf207e676d793787036e2fa057e0e9f06b9aa4fb6c10b7f545f6de6ac83","id":74354083,"location_subtype":"","month":"2019-05"},{"category":"bicycle-theft","location_type":"Force","location":{"latitude":"51.471538","street":{"id":945367,"name":"On or near Winders Road"},"longitude":"-0.171166"},"context":"","outcome_status":{"category":"Status update unavailable","date":"2019-09"},"persistent_id":"fca34fd182da72101d776602d67ad665d70bd67bcf57b79d7b0620a1cfa19d85","id":74307447,"location_subtype":"","month":"2019-05"},{"category":"bicycle-theft","location_type":"Force","location":{"latitude":"51.465646","street":{"id":942856,"name":"On or near Rush Hill Mews"},"longitude":"-0.153822"},"context":"","outcome_status":{"category":"Status update unavailable","date":"2019-09"},"persistent_id":"17225fb60140ec80cc79915006efe5fbc8bce7bd7150efa92b400ba408dd8288","id":74314773,"location_subtype":"","month":"2019-05"},{"category":"bicycle-theft","location_type":"Force","location":{"latitude":"51.467852","street":{"id":945490,"name":"On or near Falcon Road"},"longitude":"-0.170636"},"context":"","outcome_status":{"category":"Status update unavailable","date":"2019-09"},"persistent_id":"a0bef4ccf5df75f16eea81c81da205dcce4c38846266369dcad6061a9d835711","id":74333397,"location_subtype":"","month":"2019-05"},{"category":"bicycle-theft","location_type":"Force","location":{"latitude":"51.471105","street":{"id":945392,"name":"On or near Lombard Road"},"longitude":"-0.177461"},"context":"","outcome_status":{"category":"Status update unavailable","date":"2019-09"},"persistent_id":"1d727a1148262dac1c8da263237e2fadcf68eaf35bb3fda87c5404c8456e9f18","id":74294643,"location_subtype":"","month":"2019-05"},{"category":"bicycle-theft","location_type":"Force","location":{"latitude":"51.457145","street":{"id":942789,"name":"On or near Northcote Road"},"longitude":"-0.165652"},"context":"","outcome_status":{"category":"Status update unavailable","date":"2019-09"},"persistent_id":"6242a2395988d37d41a584324f94adf1b81aa7ca558d9fad104aca4d8f310aee","id":74333587,"location_subtype":"","month":"2019-05"},{"category":"bicycle-theft","location_type":"Force","location":{"latitude":"51.465938","street":{"id":942871,"name":"On or near Garfield Mews"},"longitude":"-0.151824"},"context":"","outcome_status":{"category":"Status update unavailable","date":"2019-09"},"persistent_id":"fd9d5b481decc83bb204660820ed89c71f774eac286eff56959406fbb6125c19","id":74371611,"location_subtype":"","month":"2019-05"},{"category":"bicycle-theft","location_type":"Force","location":{"latitude":"51.469693","street":{"id":945486,"name":"On or near Patience Road"},"longitude":"-0.170519"},"context":"","outcome_status":{"category":"Status update unavailable","date":"2019-09"},"persistent_id":"4acf8f7cf46b39ce4b7ba9ec622fab645c06d8f48b6a8b45a807aece3be6bd30","id":74322115,"location_subtype":"","month":"2019-05"},{"category":"bicycle-theft","location_type":"Force","location":{"latitude":"51.464104","street":{"id":942776,"name":"On or near Pedestrian Subway"},"longitude":"-0.169634"},"context":"","outcome_status":{"category":"Status update unavailable","date":"2019-09"},"persistent_id":"13259dafc25c48fce770843b5bfe2d2484deb20ff79be588bf12007bd0b67256","id":74360616,"location_subtype":"","month":"2019-05"},{"category":"bicycle-theft","location_type":"Force","location":{"latitude":"51.465732","street":{"id":942847,"name":"On or near Tipthorpe Road"},"longitude":"-0.155863"},"context":"","outcome_status":{"category":"Status update unavailable","date":"2019-09"},"persistent_id":"5e99f043cbd01898c08eeb2c3cb6975bd18ab4eac4834808b051932d51ef5ffb","id":74307446,"location_subtype":"","month":"2019-05"},{"category":"bicycle-theft","location_type":"BTP","location":{"latitude":"51.464349","street":{"id":1490547,"name":"Clapham Junction (station)"},"longitude":"-0.168926"},"context":"","outcome_status":{"category":"Status update unavailable","date":"2019-09"},"persistent_id":"","id":88720170,"location_subtype":"STATION","month":"2019-05"},{"category":"bicycle-theft","location_type":"Force","location":{"latitude":"51.471182","street":{"id":945622,"name":"On or near Battersea Park Road"},"longitude":"-0.169106"},"context":"","outcome_status":{"category":"Status update unavailable","date":"2019-09"},"persistent_id":"bb9fd227caf19157874847631c0cd3c605551e4225706cf4dcd3098143042573","id":74328425,"location_subtype":"","month":"2019-05"},{"category":"bicycle-theft","location_type":"Force","location":{"latitude":"51.460330","street":{"id":942953,"name":"On or near Old York Road"},"longitude":"-0.188312"},"context":"","outcome_status":{"category":"Status update unavailable","date":"2019-09"},"persistent_id":"596c7b7b4a7d54cc309546d08287a81298e019fea1aeeb9572fc05b52e7d3cc4","id":74330803,"location_subtype":"","month":"2019-05"},{"category":"bicycle-theft","location_type":"Force","location":{"latitude":"51.459274","street":{"id":942884,"name":"On or near Bowood Road"},"longitude":"-0.157506"},"context":"","outcome_status":{"category":"Status update unavailable","date":"2019-09"},"persistent_id":"2587664f26561dcec0b49de6a8449a5da1f8c640f1157e1fb1a73255e27e09da","id":74347929,"location_subtype":"","month":"2019-05"},{"category":"bicycle-theft","location_type":"Force","location":{"latitude":"51.459805","street":{"id":923965,"name":"On or near Clapham Common West Side"},"longitude":"-0.159255"},"context":"","outcome_status":{"category":"Status update unavailable","date":"2019-09"},"persistent_id":"445272fbe935a806297d5a0ca0d7d00759564452af15ac3d01d2daf8ffd568d2","id":74350300,"location_subtype":"","month":"2019-05"},{"category":"bicycle-theft","location_type":"Force","location":{"latitude":"51.469169","street":{"id":945501,"name":"On or near Lombard Road"},"longitude":"-0.176717"},"context":"","outcome_status":{"category":"Status update unavailable","date":"2019-09"},"persistent_id":"9d4d4bd209165a3712698e2ec8a76736845995e1353a324579b131057a979aea","id":74345412,"location_subtype":"","month":"2019-05"},{"category":"bicycle-theft","location_type":"Force","location":{"latitude":"51.476078","street":{"id":945575,"name":"On or near Watford Close"},"longitude":"-0.166520"},"context":"","outcome_status":{"category":"Status update unavailable","date":"2019-09"},"persistent_id":"490693221f3223fd0871aa36a14edaa3e7e2474653e4ceffeefc6b2c781ad6d1","id":74370844,"location_subtype":"","month":"2019-05"},{"category":"bicycle-theft","location_type":"Force","location":{"latitude":"51.461472","street":{"id":942824,"name":"On or near Barnard Mews"},"longitude":"-0.166947"},"context":"","outcome_status":{"category":"Status update unavailable","date":"2019-09"},"persistent_id":"f5dcc9906009e1bba9b8abebae9e29526ff34eb24742f99679fcb5d4cddcd347","id":74328500,"location_subtype":"","month":"2019-05"},{"category":"bicycle-theft","location_type":"Force","location":{"latitude":"51.458636","street":{"id":942792,"name":"On or near Mallinson Road"},"longitude":"-0.166154"},"context":"","outcome_status":{"category":"Status update unavailable","date":"2019-09"},"persistent_id":"4731b4fffda8afd5e752d42f23d65daebc8de9834494f5cd9999bde06e5d283b","id":74370842,"location_subtype":"","month":"2019-05"},{"category":"bicycle-theft","location_type":"Force","location":{"latitude":"51.478231","street":{"id":945574,"name":"On or near Worfield Street"},"longitude":"-0.166131"},"context":"","outcome_status":{"category":"Status update unavailable","date":"2019-09"},"persistent_id":"0751c566815912f5db82cc896cdff6469e53287e47dfdb6e5055022908fd0150","id":74344192,"location_subtype":"","month":"2019-05"},{"category":"burglary","location_type":"Force","location":{"latitude":"51.460643","street":{"id":942961,"name":"On or near Garrick Close"},"longitude":"-0.181275"},"context":"","outcome_status":{"category":"Status update unavailable","date":"2019-09"},"persistent_id":"961532826c636faba2af560adb324a7471ac392afd41bab28413022930f60bb2","id":74309081,"location_subtype":"","month":"2019-05"},{"category":"burglary","location_type":"Force","location":{"latitude":"51.462581","street":{"id":942873,"name":"On or near Forthbridge Road"},"longitude":"-0.155055"},"context":"","outcome_status":{"category":"Status update unavailable","date":"2019-09"},"persistent_id":"a70f2b6de2f7d4a6b7737d2aa40c14ebbbf5e047fd1e7f136d080de08561968d","id":74316067,"location_subtype":"","month":"2019-05"},{"category":"burglary","location_type":"Force","location":{"latitude":"51.469853","street":{"id":945551,"name":"On or near Culvert Road"},"longitude":"-0.156576"},"context":"","outcome_status":{"category":"Status update unavailable","date":"2019-09"},"persistent_id":"dcc69043014a97c71154bf60b7df443e2a0339207b415c0c62b3fc40f8e6acae","id":74305103,"location_subtype":"","month":"2019-05"},{"category":"burglary","location_type":"Force","location":{"latitude":"51.468466","street":{"id":945478,"name":"On or near Hamble Street"},"longitude":"-0.188177"},"context":"","outcome_status":{"category":"Status update unavailable","date":"2019-09"},"persistent_id":"525bdebff4a9dfba8e16a19b844c16040665f502b2a62488597330a6fecbf612","id":74314898,"location_subtype":"","month":"2019-05"},{"category":"burglary","location_type":"Force","location":{"latitude":"51.451277","street":{"id":939638,"name":"On or near Blenkarne Road"},"longitude":"-0.164247"},"context":"","outcome_status":{"category":"Status update unavailable","date":"2019-09"},"persistent_id":"21dabc62f952912f5da99e5286a92a7de67ad05b29be71d5f0e439e56a73ef27","id":74314846,"location_subtype":"","month":"2019-05"},{"category":"burglary","location_type":"Force","location":{"latitude":"51.469138","street":{"id":945491,"name":"On or near Coppock Close"},"longitude":"-0.171837"},"context":"","outcome_status":{"category":"Status update unavailable","date":"2019-09"},"persistent_id":"31e4b63d15ea7f2d28382da89fc553d960cbd41e648f0e95dfffb77ddcbe658c","id":74320283,"location_subtype":"","month":"2019-05"},{"category":"burglary","location_type":"Force","location":{"latitude":"51.471898","street":{"id":945449,"name":"On or near Furness Road"},"longitude":"-0.187984"},"context":"","outcome_status":{"category":"Status update unavailable","date":"2019-09"},"persistent_id":"e6f3dc0eec9f261aab0cbaf21373abed37e4f3757c9d946486ae01959c350c6f","id":74314842,"location_subtype":"","month":"2019-05"},{"category":"burglary","location_type":"Force","location":{"latitude":"51.460372","street":{"id":942802,"name":"On or near Keildon Road"},"longitude":"-0.163291"},"context":"","outcome_status":{"category":"Status update unavailable","date":"2019-09"},"persistent_id":"31dd41b75475b0b848b7967746bb58565d5846f6237ebdf1a960d53ba153c13c","id":74323903,"location_subtype":"","month":"2019-05"},{"category":"burglary","location_type":"Force","location":{"latitude":"51.468083","street":{"id":945665,"name":"On or near Stanley Grove"},"longitude":"-0.150974"},"context":"","outcome_status":{"category":"Investigation complete; no suspect identified","date":"2020-09"},"persistent_id":"fe5b3d756bdf00eab6ed4f90dbdf427c5dc50ec6b7a8217dc71b1c53d4a2c8f7","id":74314726,"location_subtype":"","month":"2019-05"},{"category":"burglary","location_type":"Force","location":{"latitude":"51.466731","street":{"id":945687,"name":"On or near Ashley Crescent"},"longitude":"-0.151921"},"context":"","outcome_status":{"category":"Status update unavailable","date":"2019-09"},"persistent_id":"3037a5a82423545416066b9fe65bfaeb3500b46149d9c13025c3f21e492661aa","id":74325109,"location_subtype":"","month":"2019-05"},{"category":"burglary","location_type":"Force","location":{"latitude":"51.455598","street":{"id":942897,"name":"On or near Wisley Road"},"longitude":"-0.158762"},"context":"","outcome_status":{"category":"Status update unavailable","date":"2019-09"},"persistent_id":"0f3163d5dde0c767a8d4eb8682d2f49a123ce5754dfcde29d2b34fee0137423c","id":74306102,"location_subtype":"","month":"2019-05"},{"category":"burglary","location_type":"Force","location":{"latitude":"51.470963","street":{"id":945369,"name":"On or near Simpson Street"},"longitude":"-0.171793"},"context":"","outcome_status":{"category":"Status update unavailable","date":"2019-09"},"persistent_id":"5253159f82f21613ae74f29682a680181c4f6b3c66c96846bf176d61df95af11","id":74309760,"location_subtype":"","month":"2019-05"},{"category":"burglary","location_type":"Force","location":{"latitude":"51.455461","street":{"id":943072,"name":"On or near Jessica Road"},"longitude":"-0.181697"},"context":"","outcome_status":{"category":"Defendant sent to Crown Court","date":"2019-05"},"persistent_id":"083e9cd6c6986141676be13f6098829bc7b7964ac2eb5f69f976ef9d5c23145a","id":74323719,"location_subtype":"","month":"2019-05"},{"category":"burglary","location_type":"Force","location":{"latitude":"51.465051","street":{"id":942956,"name":"On or near Mendip Road"},"longitude":"-0.181935"},"context":"","outcome_status":{"category":"Status update unavailable","date":"2019-09"},"persistent_id":"fd17a7a619dab1dfda784e791ee94d0c6ff759c222b38d507477067ff5eb3a8c","id":74364736,"location_subtype":"","month":"2019-05"},{"category":"burglary","location_type":"Force","location":{"latitude":"51.461472","street":{"id":942824,"name":"On or near Barnard Mews"},"longitude":"-0.166947"},"context":"","outcome_status":{"category":"Status update unavailable","date":"2019-09"},"persistent_id":"28b3381e4c90c0893891013e0d62053fa812a5594c514753f4be21771db5ab07","id":74340391,"location_subtype":"","month":"2019-05"},{"category":"burglary","location_type":"Force","location":{"latitude":"51.471935","street":{"id":945462,"name":"On or near Broughton Road"},"longitude":"-0.189235"},"context":"","outcome_status":{"category":"Status update unavailable","date":"2019-09"},"persistent_id":"f83e0a891381f6dca484b4da61dd54d5dfa748121dadc1c0b26398c687e8f3fc","id":74361475,"location_subtype":"","month":"2019-05"},{"category":"burglary","location_type":"Force","location":{"latitude":"51.473261","street":{"id":945452,"name":"On or near Elswick Street"},"longitude":"-0.186590"},"context":"","outcome_status":{"category":"Status update unavailable","date":"2019-09"},"persistent_id":"ba9d527832f0885a77cf1dec204b175622abe83f89fc6a49ed718a0a0fdcb4b6","id":74343744,"location_subtype":"","month":"2019-05"},{"category":"burglary","location_type":"Force","location":{"latitude":"51.461539","street":{"id":942637,"name":"On or near Clapham Common North Side"},"longitude":"-0.147755"},"context":"","outcome_status":{"category":"Status update unavailable","date":"2019-09"},"persistent_id":"39167dceb3b824fb750c45edc03f00c18ea1ed097aaa6b454f1626bcedc48b7c","id":74320604,"location_subtype":"","month":"2019-05"},{"category":"burglary","location_type":"Force","location":{"latitude":"51.454327","street":{"id":942923,"name":"On or near Cobham Close"},"longitude":"-0.167161"},"context":"","outcome_status":{"category":"Status update unavailable","date":"2019-09"},"persistent_id":"a05eb9ff272b3c6db9bd3810132883230661e571ffd60398b88d8712addfcf31","id":74361263,"location_subtype":"","month":"2019-05"},{"category":"burglary","location_type":"Force","location":{"latitude":"51.473261","street":{"id":945452,"name":"On or near Elswick Street"},"longitude":"-0.186590"},"context":"","outcome_status":{"category":"Status update unavailable","date":"2019-09"},"persistent_id":"3d886d538b8ea914e3441fb8a200f3d47a66df45560b529642426d72d777478e","id":74367438,"location_subtype":"","month":"2019-05"},{"category":"burglary","location_type":"Force","location":{"latitude":"51.464446","street":{"id":942872,"name":"On or near Freke Road"},"longitude":"-0.151855"},"context":"","outcome_status":{"category":"Status update unavailable","date":"2019-09"},"persistent_id":"5f209d5399dea0f3db68b553559bfe8257a33bc9fb1c4bec9f7faec74a20030b","id":74302746,"location_subtype":"","month":"2019-05"},{"category":"burglary","location_type":"Force","location":{"latitude":"51.455254","street":{"id":942924,"name":"On or near Chatham Road"},"longitude":"-0.163195"},"context":"","outcome_status":{"category":"Status update unavailable","date":"2019-09"},"persistent_id":"c6d6a895685edfa05c80d68478749d470aa0df3acddac50600c3dad32f324e47","id":74320169,"location_subtype":"","month":"2019-05"},{"category":"burglary","location_type":"Force","location":{"latitude":"51.464837","street":{"id":943025,"name":"On or near Hibbert Street"},"longitude":"-0.180345"},"context":"","outcome_status":{"category":"Status update unavailable","date":"2019-09"},"persistent_id":"4a326944a7e14e7509d3375fcb8304e6f0ce2fcca764852a34bc68d0692da7a8","id":74290851,"location_subtype":"","month":"2019-05"},{"category":"burglary","location_type":"Force","location":{"latitude":"51.467058","street":{"id":945495,"name":"On or near York Place"},"longitude":"-0.179724"},"context":"","outcome_status":{"category":"Court result unavailable","date":"2020-04"},"persistent_id":"2e8859f54c9b2c3625f81924bccb18c677ceefca0851cf0b6d56d5e1eba6de84","id":74346526,"location_subtype":"","month":"2019-05"},{"category":"burglary","location_type":"Force","location":{"latitude":"51.462127","street":{"id":943034,"name":"On or near Cologne Road"},"longitude":"-0.176609"},"context":"","outcome_status":{"category":"Status update unavailable","date":"2019-09"},"persistent_id":"a858d759efc12f9db712316321b2f574ac906e144774367131b4d946e7559a03","id":74356112,"location_subtype":"","month":"2019-05"},{"category":"burglary","location_type":"Force","location":{"latitude":"51.463181","street":{"id":942806,"name":"On or near Ilminster Gardens"},"longitude":"-0.166936"},"context":"","outcome_status":{"category":"Status update unavailable","date":"2019-09"},"persistent_id":"0c745992af21a0c6c0b20e929cc6007ddd44339cb2ee22ff71c9c7204b803ca1","id":74347222,"location_subtype":"","month":"2019-05"},{"category":"burglary","location_type":"Force","location":{"latitude":"51.452022","street":{"id":939599,"name":"On or near Thurleigh Road"},"longitude":"-0.158388"},"context":"","outcome_status":{"category":"Status update unavailable","date":"2019-09"},"persistent_id":"1a0570dcea4cc0eb8e5d7cba2b5a7d2c82a7d74a34b8af1b23e374b0c7f1f50f","id":74347204,"location_subtype":"","month":"2019-05"},{"category":"burglary","location_type":"Force","location":{"latitude":"51.469365","street":{"id":945505,"name":"On or near Fawcett Close"},"longitude":"-0.174262"},"context":"","outcome_status":{"category":"Status update unavailable","date":"2019-09"},"persistent_id":"651d0e9beeee22e144a1ff7a21f618928bf80b4e5a584162bf18ed00209fb09a","id":74346458,"location_subtype":"","month":"2019-05"},{"category":"burglary","location_type":"Force","location":{"latitude":"51.467058","street":{"id":945495,"name":"On or near York Place"},"longitude":"-0.179724"},"context":"","outcome_status":{"category":"Status update unavailable","date":"2019-09"},"persistent_id":"b22ae86ef02cb4312b9ae0f5e1934171214cb3347c618cc93c4a41457758da67","id":74297255,"location_subtype":"","month":"2019-05"},{"category":"burglary","location_type":"Force","location":{"latitude":"51.455081","street":{"id":942917,"name":"On or near Stonell's Road"},"longitude":"-0.162511"},"context":"","outcome_status":{"category":"Status update unavailable","date":"2019-09"},"persistent_id":"7c58e9d2b0ceacc17d2da93d67a028260027be2b7a1b9a86afc928a4e93b525e","id":74345754,"location_subtype":"","month":"2019-05"},{"category":"burglary","location_type":"Force","location":{"latitude":"51.460372","street":{"id":942802,"name":"On or near Keildon Road"},"longitude":"-0.163291"},"context":"","outcome_status":{"category":"Status update unavailable","date":"2019-09"},"persistent_id":"08d463b8bf437426a43ff9d939ef24746dd6c09f11c0c6a12fcb6e207d1983af","id":74344405,"location_subtype":"","month":"2019-05"},{"category":"burglary","location_type":"Force","location":{"latitude":"51.456262","street":{"id":943052,"name":"On or near Wandsworth Common West Side"},"longitude":"-0.180600"},"context":"","outcome_status":{"category":"Status update unavailable","date":"2019-09"},"persistent_id":"c68a60fd0a80fcc90ac495b4153e4bff4d594656fc0fd5e8265c718f7a626185","id":74344016,"location_subtype":"","month":"2019-05"},{"category":"burglary","location_type":"Force","location":{"latitude":"51.471431","street":{"id":945607,"name":"On or near Frere Street"},"longitude":"-0.166605"},"context":"","outcome_status":{"category":"Status update unavailable","date":"2019-09"},"persistent_id":"df9db36d51ef9ec9697715ff91a2d653985c5d8f9a61d64ba4b9ac5b507c8c65","id":74342562,"location_subtype":"","month":"2019-05"},{"category":"burglary","location_type":"Force","location":{"latitude":"51.472433","street":{"id":945613,"name":"On or near Colestown Street"},"longitude":"-0.166306"},"context":"","outcome_status":{"category":"Status update unavailable","date":"2019-09"},"persistent_id":"083821ac1db83e579dc21b8bc280d89f1e5debc212ef6e3919a6438bff9a57ec","id":74342507,"location_subtype":"","month":"2019-05"},{"category":"burglary","location_type":"Force","location":{"latitude":"51.461115","street":{"id":942829,"name":"On or near Aliwal Road"},"longitude":"-0.168833"},"context":"","outcome_status":{"category":"Status update unavailable","date":"2019-09"},"persistent_id":"7d3daab45a6c088ca2a2544d4e808d77a2b52237362ab446aae72a1e8445d112","id":74342350,"location_subtype":"","month":"2019-05"},{"category":"burglary","location_type":"Force","location":{"latitude":"51.462127","street":{"id":943034,"name":"On or near Cologne Road"},"longitude":"-0.176609"},"context":"","outcome_status":{"category":"Status update unavailable","date":"2019-09"},"persistent_id":"ea101784363ac36768282e6eed9823e3e36a14c5372df287eb3fa586f8ec0d08","id":74342215,"location_subtype":"","month":"2019-05"},{"category":"burglary","location_type":"Force","location":{"latitude":"51.469153","street":{"id":945509,"name":"On or near Conference\/exhibition Centre"},"longitude":"-0.178546"},"context":"","outcome_status":{"category":"Status update unavailable","date":"2019-09"},"persistent_id":"f46d0b296ad561d677f9e719d41e211b233d20fb9a6ce5d7cc98cdf38ebc85ad","id":74289982,"location_subtype":"","month":"2019-05"},{"category":"burglary","location_type":"Force","location":{"latitude":"51.460773","street":{"id":943006,"name":"On or near Sangora Road"},"longitude":"-0.174014"},"context":"","outcome_status":{"category":"Status update unavailable","date":"2019-09"},"persistent_id":"77b1327e91b7caf248877f53e817cc7ba7aee32c48e0f8e2e910486d40e5588b","id":74300667,"location_subtype":"","month":"2019-05"},{"category":"burglary","location_type":"Force","location":{"latitude":"51.460424","street":{"id":942957,"name":"On or near Lovetts Place"},"longitude":"-0.188006"},"context":"","outcome_status":{"category":"Investigation complete; no suspect identified","date":"2020-03"},"persistent_id":"6a374ebcf487d24fdf2c93e1ac22626dba17ecd8f73538e10e5cc290eb3b57d4","id":74342054,"location_subtype":"","month":"2019-05"},{"category":"burglary","location_type":"Force","location":{"latitude":"51.454968","street":{"id":942906,"name":"On or near Kyrle Road"},"longitude":"-0.157031"},"context":"","outcome_status":{"category":"Status update unavailable","date":"2019-09"},"persistent_id":"a3df514bcec720875633e5abeda959fbca39864bf33b9b4a83f7013331da25cc","id":74300918,"location_subtype":"","month":"2019-05"},{"category":"burglary","location_type":"Force","location":{"latitude":"51.464623","street":{"id":942810,"name":"On or near Falcon Lane"},"longitude":"-0.166605"},"context":"","outcome_status":{"category":"Status update unavailable","date":"2019-09"},"persistent_id":"490e1f95359a0217ff86125a5fb368ca15fa74a5ad606f6b1dd5090772cef1d9","id":74341539,"location_subtype":"","month":"2019-05"},{"category":"burglary","location_type":"Force","location":{"latitude":"51.466402","street":{"id":945647,"name":"On or near Lavender Terrace"},"longitude":"-0.169370"},"context":"","outcome_status":{"category":"Status update unavailable","date":"2019-09"},"persistent_id":"8545767499e8a9aee42186566c7fc4247d5b66bafaf91a2dde73a7d9cda1ee8d","id":74341537,"location_subtype":"","month":"2019-05"},{"category":"burglary","location_type":"Force","location":{"latitude":"51.471298","street":{"id":945612,"name":"On or near Crombie Mews"},"longitude":"-0.167302"},"context":"","outcome_status":{"category":"Status update unavailable","date":"2019-09"},"persistent_id":"cd11c90320511788521267bc4be0aa0785979dd6841eadca9670704abd7d7f02","id":74341406,"location_subtype":"","month":"2019-05"},{"category":"burglary","location_type":"Force","location":{"latitude":"51.466597","street":{"id":945684,"name":"On or near Beaufoy Road"},"longitude":"-0.150833"},"context":"","outcome_status":{"category":"Status update unavailable","date":"2019-09"},"persistent_id":"b35d2ea12dc8b4ff4fd513f810c93fad31b00990e759c0489d8bdc40f7ba97a9","id":74341394,"location_subtype":"","month":"2019-05"},{"category":"burglary","location_type":"Force","location":{"latitude":"51.454093","street":{"id":942920,"name":"On or near Honeywell Road"},"longitude":"-0.163745"},"context":"","outcome_status":{"category":"Status update unavailable","date":"2019-09"},"persistent_id":"0334e3dc18e8c7bfc2b06c5357d87b6835e5dc9350c261145068be3e170588c8","id":74302308,"location_subtype":"","month":"2019-05"},{"category":"burglary","location_type":"Force","location":{"latitude":"51.470631","street":{"id":945455,"name":"On or near Cranbury Road"},"longitude":"-0.190352"},"context":"","outcome_status":{"category":"Status update unavailable","date":"2019-09"},"persistent_id":"c1a6c1af02bdc4fb33a24e1a784515878120d29d891d39599583f27404056594","id":74341230,"location_subtype":"","month":"2019-05"},{"category":"burglary","location_type":"Force","location":{"latitude":"51.463283","street":{"id":942852,"name":"On or near Sugden Road"},"longitude":"-0.157373"},"context":"","outcome_status":{"category":"Status update unavailable","date":"2019-09"},"persistent_id":"d757301a273510f752fd1142eb172cb4e0220133fbfa294dba8d9fbd80d06d55","id":74331531,"location_subtype":"","month":"2019-05"},{"category":"burglary","location_type":"Force","location":{"latitude":"51.462176","street":{"id":942864,"name":"On or near Marjorie Grove"},"longitude":"-0.159087"},"context":"","outcome_status":{"category":"Status update unavailable","date":"2019-09"},"persistent_id":"50d90cc7c728d23fd3726ee38b28fe6e38d254d992e1e5e55749b5c35db580ac","id":74331267,"location_subtype":"","month":"2019-05"},{"category":"burglary","location_type":"Force","location":{"latitude":"51.470963","street":{"id":945369,"name":"On or near Simpson Street"},"longitude":"-0.171793"},"context":"","outcome_status":{"category":"Status update unavailable","date":"2019-09"},"persistent_id":"d45d8755db653b60a7bb896b5243916fc0d2bea9690c421bc4de68827c8164f0","id":74330678,"location_subtype":"","month":"2019-05"},{"category":"burglary","location_type":"Force","location":{"latitude":"51.452850","street":{"id":939443,"name":"On or near Kershaw Close"},"longitude":"-0.180879"},"context":"","outcome_status":{"category":"Status update unavailable","date":"2019-09"},"persistent_id":"c52f13468807501739a626f5be4ba1680f978810f99e8965a0119e06fefd79a2","id":74329059,"location_subtype":"","month":"2019-05"},{"category":"burglary","location_type":"Force","location":{"latitude":"51.466731","street":{"id":945687,"name":"On or near Ashley Crescent"},"longitude":"-0.151921"},"context":"","outcome_status":{"category":"Status update unavailable","date":"2019-09"},"persistent_id":"a543298b5b626048a0c6c449ae06e44d4860d104f813c4886d9e854680c0dad8","id":74334065,"location_subtype":"","month":"2019-05"},{"category":"burglary","location_type":"Force","location":{"latitude":"51.470994","street":{"id":945415,"name":"On or near Stephendale Road"},"longitude":"-0.187098"},"context":"","outcome_status":{"category":"Status update unavailable","date":"2019-09"},