[{"category":"anti-social-behaviour","location_type":"Force","location":{"latitude":"51.454926","street":{"id":942026,"name":"On or near Slagrove Place"},"longitude":"-0.022523"},"context":"","outcome_status":null,"persistent_id":"","id":74276653,"location_subtype":"","month":"2019-05"},{"category":"anti-social-behaviour","location_type":"Force","location":{"latitude":"51.454926","street":{"id":942026,"name":"On or near Slagrove Place"},"longitude":"-0.022523"},"context":"","outcome_status":null,"persistent_id":"","id":74276655,"location_subtype":"","month":"2019-05"},{"category":"anti-social-behaviour","location_type":"Force","location":{"latitude":"51.454926","street":{"id":942026,"name":"On or near Slagrove Place"},"longitude":"-0.022523"},"context":"","outcome_status":null,"persistent_id":"","id":74276659,"location_subtype":"","month":"2019-05"},{"category":"anti-social-behaviour","location_type":"Force","location":{"latitude":"51.456055","street":{"id":941850,"name":"On or near Malyons Terrace"},"longitude":"-0.021237"},"context":"","outcome_status":null,"persistent_id":"","id":74276666,"location_subtype":"","month":"2019-05"},{"category":"anti-social-behaviour","location_type":"Force","location":{"latitude":"51.456055","street":{"id":941850,"name":"On or near Malyons Terrace"},"longitude":"-0.021237"},"context":"","outcome_status":null,"persistent_id":"","id":74276667,"location_subtype":"","month":"2019-05"},{"category":"anti-social-behaviour","location_type":"Force","location":{"latitude":"51.456055","street":{"id":941850,"name":"On or near Malyons Terrace"},"longitude":"-0.021237"},"context":"","outcome_status":null,"persistent_id":"","id":74276668,"location_subtype":"","month":"2019-05"},{"category":"anti-social-behaviour","location_type":"Force","location":{"latitude":"51.444393","street":{"id":940374,"name":"On or near Parking Area"},"longitude":"-0.021842"},"context":"","outcome_status":null,"persistent_id":"","id":74276669,"location_subtype":"","month":"2019-05"},{"category":"anti-social-behaviour","location_type":"Force","location":{"latitude":"51.448627","street":{"id":940391,"name":"On or near Silvermere Road"},"longitude":"-0.022306"},"context":"","outcome_status":null,"persistent_id":"","id":74276671,"location_subtype":"","month":"2019-05"},{"category":"anti-social-behaviour","location_type":"Force","location":{"latitude":"51.451109","street":{"id":942066,"name":"On or near Lion Close"},"longitude":"-0.026056"},"context":"","outcome_status":null,"persistent_id":"","id":74276672,"location_subtype":"","month":"2019-05"},{"category":"anti-social-behaviour","location_type":"Force","location":{"latitude":"51.435336","street":{"id":937010,"name":"On or near Grangemill Way"},"longitude":"-0.025513"},"context":"","outcome_status":null,"persistent_id":"","id":74276674,"location_subtype":"","month":"2019-05"},{"category":"anti-social-behaviour","location_type":"Force","location":{"latitude":"51.455959","street":{"id":942017,"name":"On or near Phoebeth Road"},"longitude":"-0.024091"},"context":"","outcome_status":null,"persistent_id":"","id":74276690,"location_subtype":"","month":"2019-05"},{"category":"anti-social-behaviour","location_type":"Force","location":{"latitude":"51.455959","street":{"id":942017,"name":"On or near Phoebeth Road"},"longitude":"-0.024091"},"context":"","outcome_status":null,"persistent_id":"","id":74276691,"location_subtype":"","month":"2019-05"},{"category":"anti-social-behaviour","location_type":"Force","location":{"latitude":"51.451631","street":{"id":941972,"name":"On or near Albacore Crescent"},"longitude":"-0.019672"},"context":"","outcome_status":null,"persistent_id":"","id":74276623,"location_subtype":"","month":"2019-05"},{"category":"anti-social-behaviour","location_type":"Force","location":{"latitude":"51.451631","street":{"id":941972,"name":"On or near Albacore Crescent"},"longitude":"-0.019672"},"context":"","outcome_status":null,"persistent_id":"","id":74276624,"location_subtype":"","month":"2019-05"},{"category":"anti-social-behaviour","location_type":"Force","location":{"latitude":"51.445407","street":{"id":940382,"name":"On or near Catford Broadway"},"longitude":"-0.021179"},"context":"","outcome_status":null,"persistent_id":"","id":74276626,"location_subtype":"","month":"2019-05"},{"category":"anti-social-behaviour","location_type":"Force","location":{"latitude":"51.445407","street":{"id":940382,"name":"On or near Catford Broadway"},"longitude":"-0.021179"},"context":"","outcome_status":null,"persistent_id":"","id":74276627,"location_subtype":"","month":"2019-05"},{"category":"anti-social-behaviour","location_type":"Force","location":{"latitude":"51.445407","street":{"id":940382,"name":"On or near Catford Broadway"},"longitude":"-0.021179"},"context":"","outcome_status":null,"persistent_id":"","id":74276628,"location_subtype":"","month":"2019-05"},{"category":"anti-social-behaviour","location_type":"Force","location":{"latitude":"51.445407","street":{"id":940382,"name":"On or near Catford Broadway"},"longitude":"-0.021179"},"context":"","outcome_status":null,"persistent_id":"","id":74276629,"location_subtype":"","month":"2019-05"},{"category":"anti-social-behaviour","location_type":"Force","location":{"latitude":"51.445407","street":{"id":940382,"name":"On or near Catford Broadway"},"longitude":"-0.021179"},"context":"","outcome_status":null,"persistent_id":"","id":74276630,"location_subtype":"","month":"2019-05"},{"category":"anti-social-behaviour","location_type":"Force","location":{"latitude":"51.445407","street":{"id":940382,"name":"On or near Catford Broadway"},"longitude":"-0.021179"},"context":"","outcome_status":null,"persistent_id":"","id":74276631,"location_subtype":"","month":"2019-05"},{"category":"anti-social-behaviour","location_type":"Force","location":{"latitude":"51.445407","street":{"id":940382,"name":"On or near Catford Broadway"},"longitude":"-0.021179"},"context":"","outcome_status":null,"persistent_id":"","id":74276632,"location_subtype":"","month":"2019-05"},{"category":"anti-social-behaviour","location_type":"Force","location":{"latitude":"51.439779","street":{"id":940409,"name":"On or near Canadian Avenue"},"longitude":"-0.020228"},"context":"","outcome_status":null,"persistent_id":"","id":74276633,"location_subtype":"","month":"2019-05"},{"category":"anti-social-behaviour","location_type":"Force","location":{"latitude":"51.449493","street":{"id":940400,"name":"On or near Hawstead Road"},"longitude":"-0.019290"},"context":"","outcome_status":null,"persistent_id":"","id":74276636,"location_subtype":"","month":"2019-05"},{"category":"anti-social-behaviour","location_type":"Force","location":{"latitude":"51.449493","street":{"id":940400,"name":"On or near Hawstead Road"},"longitude":"-0.019290"},"context":"","outcome_status":null,"persistent_id":"","id":74276637,"location_subtype":"","month":"2019-05"},{"category":"anti-social-behaviour","location_type":"Force","location":{"latitude":"51.445407","street":{"id":940382,"name":"On or near Catford Broadway"},"longitude":"-0.021179"},"context":"","outcome_status":null,"persistent_id":"","id":74276644,"location_subtype":"","month":"2019-05"},{"category":"anti-social-behaviour","location_type":"Force","location":{"latitude":"51.447759","street":{"id":940402,"name":"On or near Brookdale Road"},"longitude":"-0.020948"},"context":"","outcome_status":null,"persistent_id":"","id":74276646,"location_subtype":"","month":"2019-05"},{"category":"anti-social-behaviour","location_type":"Force","location":{"latitude":"51.432504","street":{"id":936823,"name":"On or near Supermarket"},"longitude":"-0.021291"},"context":"","outcome_status":null,"persistent_id":"","id":74276647,"location_subtype":"","month":"2019-05"},{"category":"anti-social-behaviour","location_type":"Force","location":{"latitude":"51.439885","street":{"id":940310,"name":"On or near Fordmill Road"},"longitude":"-0.023288"},"context":"","outcome_status":null,"persistent_id":"","id":74276650,"location_subtype":"","month":"2019-05"},{"category":"anti-social-behaviour","location_type":"Force","location":{"latitude":"51.454926","street":{"id":942026,"name":"On or near Slagrove Place"},"longitude":"-0.022523"},"context":"","outcome_status":null,"persistent_id":"","id":74276654,"location_subtype":"","month":"2019-05"},{"category":"anti-social-behaviour","location_type":"Force","location":{"latitude":"51.445407","street":{"id":940382,"name":"On or near Catford Broadway"},"longitude":"-0.021179"},"context":"","outcome_status":null,"persistent_id":"","id":74276625,"location_subtype":"","month":"2019-05"},{"category":"anti-social-behaviour","location_type":"Force","location":{"latitude":"51.444879","street":{"id":940380,"name":"On or near Plassy Road"},"longitude":"-0.017633"},"context":"","outcome_status":null,"persistent_id":"","id":74275551,"location_subtype":"","month":"2019-05"},{"category":"anti-social-behaviour","location_type":"Force","location":{"latitude":"51.433272","street":{"id":936818,"name":"On or near Bellingham Road"},"longitude":"-0.017258"},"context":"","outcome_status":null,"persistent_id":"","id":74275548,"location_subtype":"","month":"2019-05"},{"category":"anti-social-behaviour","location_type":"Force","location":{"latitude":"51.456015","street":{"id":941888,"name":"On or near Campshill Place"},"longitude":"-0.010400"},"context":"","outcome_status":null,"persistent_id":"","id":74275490,"location_subtype":"","month":"2019-05"},{"category":"anti-social-behaviour","location_type":"Force","location":{"latitude":"51.452270","street":{"id":941960,"name":"On or near Fordyce Road"},"longitude":"-0.010116"},"context":"","outcome_status":null,"persistent_id":"","id":74275485,"location_subtype":"","month":"2019-05"},{"category":"anti-social-behaviour","location_type":"Force","location":{"latitude":"51.443044","street":{"id":940092,"name":"On or near Wastdale Road"},"longitude":"-0.045989"},"context":"","outcome_status":null,"persistent_id":"","id":74278332,"location_subtype":"","month":"2019-05"},{"category":"anti-social-behaviour","location_type":"Force","location":{"latitude":"51.443044","street":{"id":940092,"name":"On or near Wastdale Road"},"longitude":"-0.045989"},"context":"","outcome_status":null,"persistent_id":"","id":74278331,"location_subtype":"","month":"2019-05"},{"category":"anti-social-behaviour","location_type":"Force","location":{"latitude":"51.452625","street":{"id":941949,"name":"On or near St Swithun's Road"},"longitude":"-0.006171"},"context":"","outcome_status":null,"persistent_id":"","id":74275460,"location_subtype":"","month":"2019-05"},{"category":"anti-social-behaviour","location_type":"Force","location":{"latitude":"51.443044","street":{"id":940092,"name":"On or near Wastdale Road"},"longitude":"-0.045989"},"context":"","outcome_status":null,"persistent_id":"","id":74278330,"location_subtype":"","month":"2019-05"},{"category":"anti-social-behaviour","location_type":"Force","location":{"latitude":"51.443044","street":{"id":940092,"name":"On or near Wastdale Road"},"longitude":"-0.045989"},"context":"","outcome_status":null,"persistent_id":"","id":74278329,"location_subtype":"","month":"2019-05"},{"category":"anti-social-behaviour","location_type":"Force","location":{"latitude":"51.449318","street":{"id":940283,"name":"On or near Honor Oak Park"},"longitude":"-0.043649"},"context":"","outcome_status":null,"persistent_id":"","id":74278311,"location_subtype":"","month":"2019-05"},{"category":"anti-social-behaviour","location_type":"Force","location":{"latitude":"51.444571","street":{"id":940267,"name":"On or near Firs Close"},"longitude":"-0.043751"},"context":"","outcome_status":null,"persistent_id":"","id":74278309,"location_subtype":"","month":"2019-05"},{"category":"anti-social-behaviour","location_type":"Force","location":{"latitude":"51.449896","street":{"id":940279,"name":"On or near Stondon Park"},"longitude":"-0.040558"},"context":"","outcome_status":null,"persistent_id":"","id":74277510,"location_subtype":"","month":"2019-05"},{"category":"anti-social-behaviour","location_type":"Force","location":{"latitude":"51.453054","street":{"id":942088,"name":"On or near Bartram Road"},"longitude":"-0.039617"},"context":"","outcome_status":null,"persistent_id":"","id":74277502,"location_subtype":"","month":"2019-05"},{"category":"anti-social-behaviour","location_type":"Force","location":{"latitude":"51.447046","street":{"id":940268,"name":"On or near Duncombe Hill"},"longitude":"-0.040105"},"context":"","outcome_status":null,"persistent_id":"","id":74277493,"location_subtype":"","month":"2019-05"},{"category":"anti-social-behaviour","location_type":"Force","location":{"latitude":"51.451988","street":{"id":942080,"name":"On or near Holmesley Road"},"longitude":"-0.040915"},"context":"","outcome_status":null,"persistent_id":"","id":74277490,"location_subtype":"","month":"2019-05"},{"category":"anti-social-behaviour","location_type":"Force","location":{"latitude":"51.446866","street":{"id":940372,"name":"On or near Blashford Street"},"longitude":"-0.002263"},"context":"","outcome_status":null,"persistent_id":"","id":74275439,"location_subtype":"","month":"2019-05"},{"category":"anti-social-behaviour","location_type":"Force","location":{"latitude":"51.439657","street":{"id":940297,"name":"On or near Elsinore Road"},"longitude":"-0.039716"},"context":"","outcome_status":null,"persistent_id":"","id":74277488,"location_subtype":"","month":"2019-05"},{"category":"anti-social-behaviour","location_type":"Force","location":{"latitude":"51.439925","street":{"id":940296,"name":"On or near Hurstbourne Road"},"longitude":"-0.038553"},"context":"","outcome_status":null,"persistent_id":"","id":74277476,"location_subtype":"","month":"2019-05"},{"category":"anti-social-behaviour","location_type":"Force","location":{"latitude":"51.445256","street":{"id":940252,"name":"On or near Owens Way"},"longitude":"-0.037922"},"context":"","outcome_status":null,"persistent_id":"","id":74277465,"location_subtype":"","month":"2019-05"},{"category":"anti-social-behaviour","location_type":"Force","location":{"latitude":"51.448893","street":{"id":940291,"name":"On or near Stillness Road"},"longitude":"-0.036500"},"context":"","outcome_status":null,"persistent_id":"","id":74277461,"location_subtype":"","month":"2019-05"},{"category":"anti-social-behaviour","location_type":"Force","location":{"latitude":"51.444418","street":{"id":940253,"name":"On or near Osborn Lane"},"longitude":"-0.037800"},"context":"","outcome_status":null,"persistent_id":"","id":74277452,"location_subtype":"","month":"2019-05"},{"category":"anti-social-behaviour","location_type":"Force","location":{"latitude":"51.444418","street":{"id":940253,"name":"On or near Osborn Lane"},"longitude":"-0.037800"},"context":"","outcome_status":null,"persistent_id":"","id":74277451,"location_subtype":"","month":"2019-05"},{"category":"anti-social-behaviour","location_type":"Force","location":{"latitude":"51.444418","street":{"id":940253,"name":"On or near Osborn Lane"},"longitude":"-0.037800"},"context":"","outcome_status":null,"persistent_id":"","id":74277450,"location_subtype":"","month":"2019-05"},{"category":"anti-social-behaviour","location_type":"Force","location":{"latitude":"51.456103","street":{"id":942013,"name":"On or near Beecroft Lane"},"longitude":"-0.036910"},"context":"","outcome_status":null,"persistent_id":"","id":74277447,"location_subtype":"","month":"2019-05"},{"category":"anti-social-behaviour","location_type":"Force","location":{"latitude":"51.443389","street":{"id":940216,"name":"On or near Ravensbourne Road"},"longitude":"-0.034879"},"context":"","outcome_status":null,"persistent_id":"","id":74277433,"location_subtype":"","month":"2019-05"},{"category":"anti-social-behaviour","location_type":"Force","location":{"latitude":"51.454360","street":{"id":942064,"name":"On or near Marnock Road"},"longitude":"-0.035416"},"context":"","outcome_status":null,"persistent_id":"","id":74277432,"location_subtype":"","month":"2019-05"},{"category":"anti-social-behaviour","location_type":"Force","location":{"latitude":"51.447315","street":{"id":940249,"name":"On or near Bankhurst Road"},"longitude":"-0.032523"},"context":"","outcome_status":null,"persistent_id":"","id":74277427,"location_subtype":"","month":"2019-05"},{"category":"anti-social-behaviour","location_type":"Force","location":{"latitude":"51.440250","street":{"id":940309,"name":"On or near Marler Road"},"longitude":"-0.035935"},"context":"","outcome_status":null,"persistent_id":"","id":74277425,"location_subtype":"","month":"2019-05"},{"category":"anti-social-behaviour","location_type":"Force","location":{"latitude":"51.432694","street":{"id":924009,"name":"On or near Silver Birch Close"},"longitude":"-0.035828"},"context":"","outcome_status":null,"persistent_id":"","id":74277424,"location_subtype":"","month":"2019-05"},{"category":"anti-social-behaviour","location_type":"Force","location":{"latitude":"51.440842","street":{"id":940315,"name":"On or near Carholme Road"},"longitude":"-0.034759"},"context":"","outcome_status":null,"persistent_id":"","id":74277419,"location_subtype":"","month":"2019-05"},{"category":"anti-social-behaviour","location_type":"Force","location":{"latitude":"51.440842","street":{"id":940315,"name":"On or near Carholme Road"},"longitude":"-0.034759"},"context":"","outcome_status":null,"persistent_id":"","id":74277418,"location_subtype":"","month":"2019-05"},{"category":"anti-social-behaviour","location_type":"Force","location":{"latitude":"51.440842","street":{"id":940315,"name":"On or near Carholme Road"},"longitude":"-0.034759"},"context":"","outcome_status":null,"persistent_id":"","id":74277417,"location_subtype":"","month":"2019-05"},{"category":"anti-social-behaviour","location_type":"Force","location":{"latitude":"51.454301","street":{"id":942067,"name":"On or near Lindal Road"},"longitude":"-0.034022"},"context":"","outcome_status":null,"persistent_id":"","id":74277412,"location_subtype":"","month":"2019-05"},{"category":"anti-social-behaviour","location_type":"Force","location":{"latitude":"51.450777","street":{"id":940241,"name":"On or near Salehurst Road"},"longitude":"-0.033065"},"context":"","outcome_status":null,"persistent_id":"","id":74277408,"location_subtype":"","month":"2019-05"},{"category":"anti-social-behaviour","location_type":"Force","location":{"latitude":"51.436274","street":{"id":936940,"name":"On or near Perry Hill"},"longitude":"-0.034264"},"context":"","outcome_status":null,"persistent_id":"","id":74277403,"location_subtype":"","month":"2019-05"},{"category":"anti-social-behaviour","location_type":"Force","location":{"latitude":"51.436274","street":{"id":936940,"name":"On or near Perry Hill"},"longitude":"-0.034264"},"context":"","outcome_status":null,"persistent_id":"","id":74277401,"location_subtype":"","month":"2019-05"},{"category":"anti-social-behaviour","location_type":"Force","location":{"latitude":"51.433058","street":{"id":936933,"name":"On or near Selworthy Road"},"longitude":"-0.034445"},"context":"","outcome_status":null,"persistent_id":"","id":74277400,"location_subtype":"","month":"2019-05"},{"category":"anti-social-behaviour","location_type":"Force","location":{"latitude":"51.433058","street":{"id":936933,"name":"On or near Selworthy Road"},"longitude":"-0.034445"},"context":"","outcome_status":null,"persistent_id":"","id":74277399,"location_subtype":"","month":"2019-05"},{"category":"anti-social-behaviour","location_type":"Force","location":{"latitude":"51.440602","street":{"id":940317,"name":"On or near Blythe Vale"},"longitude":"-0.033330"},"context":"","outcome_status":null,"persistent_id":"","id":74277398,"location_subtype":"","month":"2019-05"},{"category":"anti-social-behaviour","location_type":"Force","location":{"latitude":"51.434423","street":{"id":936952,"name":"On or near Clowders Road"},"longitude":"-0.033782"},"context":"","outcome_status":null,"persistent_id":"","id":74277397,"location_subtype":"","month":"2019-05"},{"category":"anti-social-behaviour","location_type":"Force","location":{"latitude":"51.436097","street":{"id":936935,"name":"On or near Rutland Park"},"longitude":"-0.033365"},"context":"","outcome_status":null,"persistent_id":"","id":74277396,"location_subtype":"","month":"2019-05"},{"category":"anti-social-behaviour","location_type":"Force","location":{"latitude":"51.452625","street":{"id":941949,"name":"On or near St Swithun's Road"},"longitude":"-0.006171"},"context":"","outcome_status":null,"persistent_id":"","id":74275465,"location_subtype":"","month":"2019-05"},{"category":"anti-social-behaviour","location_type":"Force","location":{"latitude":"51.436097","street":{"id":936935,"name":"On or near Rutland Park"},"longitude":"-0.033365"},"context":"","outcome_status":null,"persistent_id":"","id":74277395,"location_subtype":"","month":"2019-05"},{"category":"anti-social-behaviour","location_type":"Force","location":{"latitude":"51.435479","street":{"id":936954,"name":"On or near Castlands Road"},"longitude":"-0.033478"},"context":"","outcome_status":null,"persistent_id":"","id":74277394,"location_subtype":"","month":"2019-05"},{"category":"anti-social-behaviour","location_type":"Force","location":{"latitude":"51.435479","street":{"id":936954,"name":"On or near Castlands Road"},"longitude":"-0.033478"},"context":"","outcome_status":null,"persistent_id":"","id":74277393,"location_subtype":"","month":"2019-05"},{"category":"anti-social-behaviour","location_type":"Force","location":{"latitude":"51.436289","street":{"id":936931,"name":"On or near Tugela Street"},"longitude":"-0.031400"},"context":"","outcome_status":null,"persistent_id":"","id":74276759,"location_subtype":"","month":"2019-05"},{"category":"anti-social-behaviour","location_type":"Force","location":{"latitude":"51.439699","street":{"id":940312,"name":"On or near Creeland Grove"},"longitude":"-0.030966"},"context":"","outcome_status":null,"persistent_id":"","id":74276758,"location_subtype":"","month":"2019-05"},{"category":"anti-social-behaviour","location_type":"Force","location":{"latitude":"51.442242","street":{"id":940223,"name":"On or near Glenwood Road"},"longitude":"-0.029259"},"context":"","outcome_status":null,"persistent_id":"","id":74276746,"location_subtype":"","month":"2019-05"},{"category":"anti-social-behaviour","location_type":"Force","location":{"latitude":"51.436274","street":{"id":936940,"name":"On or near Perry Hill"},"longitude":"-0.034264"},"context":"","outcome_status":null,"persistent_id":"","id":74277402,"location_subtype":"","month":"2019-05"},{"category":"anti-social-behaviour","location_type":"Force","location":{"latitude":"51.452625","street":{"id":941949,"name":"On or near St Swithun's Road"},"longitude":"-0.006171"},"context":"","outcome_status":null,"persistent_id":"","id":74275466,"location_subtype":"","month":"2019-05"},{"category":"anti-social-behaviour","location_type":"Force","location":{"latitude":"51.458473","street":{"id":942057,"name":"On or near Adelaide Avenue"},"longitude":"-0.027610"},"context":"","outcome_status":null,"persistent_id":"","id":74276741,"location_subtype":"","month":"2019-05"},{"category":"anti-social-behaviour","location_type":"Force","location":{"latitude":"51.452128","street":{"id":941956,"name":"On or near Littlewood"},"longitude":"-0.009187"},"context":"","outcome_status":null,"persistent_id":"","id":74275473,"location_subtype":"","month":"2019-05"},{"category":"anti-social-behaviour","location_type":"Force","location":{"latitude":"51.450777","street":{"id":940241,"name":"On or near Salehurst Road"},"longitude":"-0.033065"},"context":"","outcome_status":null,"persistent_id":"","id":74277409,"location_subtype":"","month":"2019-05"},{"category":"anti-social-behaviour","location_type":"Force","location":{"latitude":"51.437234","street":{"id":936938,"name":"On or near Polecroft Lane"},"longitude":"-0.034669"},"context":"","outcome_status":null,"persistent_id":"","id":74277410,"location_subtype":"","month":"2019-05"},{"category":"anti-social-behaviour","location_type":"Force","location":{"latitude":"51.439657","street":{"id":940297,"name":"On or near Elsinore Road"},"longitude":"-0.039716"},"context":"","outcome_status":null,"persistent_id":"","id":74277487,"location_subtype":"","month":"2019-05"},{"category":"anti-social-behaviour","location_type":"Force","location":{"latitude":"51.437449","street":{"id":936903,"name":"On or near Woolstone Road"},"longitude":"-0.038386"},"context":"","outcome_status":null,"persistent_id":"","id":74277489,"location_subtype":"","month":"2019-05"},{"category":"anti-social-behaviour","location_type":"Force","location":{"latitude":"51.440959","street":{"id":940302,"name":"On or near Vineyard Close"},"longitude":"-0.028321"},"context":"","outcome_status":null,"persistent_id":"","id":74276737,"location_subtype":"","month":"2019-05"},{"category":"anti-social-behaviour","location_type":"Force","location":{"latitude":"51.440959","street":{"id":940302,"name":"On or near Vineyard Close"},"longitude":"-0.028321"},"context":"","outcome_status":null,"persistent_id":"","id":74276735,"location_subtype":"","month":"2019-05"},{"category":"anti-social-behaviour","location_type":"Force","location":{"latitude":"51.440959","street":{"id":940302,"name":"On or near Vineyard Close"},"longitude":"-0.028321"},"context":"","outcome_status":null,"persistent_id":"","id":74276734,"location_subtype":"","month":"2019-05"},{"category":"anti-social-behaviour","location_type":"Force","location":{"latitude":"51.440959","street":{"id":940302,"name":"On or near Vineyard Close"},"longitude":"-0.028321"},"context":"","outcome_status":null,"persistent_id":"","id":74276733,"location_subtype":"","month":"2019-05"},{"category":"anti-social-behaviour","location_type":"Force","location":{"latitude":"51.442933","street":{"id":940236,"name":"On or near A205"},"longitude":"-0.028107"},"context":"","outcome_status":null,"persistent_id":"","id":74276729,"location_subtype":"","month":"2019-05"},{"category":"anti-social-behaviour","location_type":"Force","location":{"latitude":"51.442933","street":{"id":940236,"name":"On or near A205"},"longitude":"-0.028107"},"context":"","outcome_status":null,"persistent_id":"","id":74276728,"location_subtype":"","month":"2019-05"},{"category":"anti-social-behaviour","location_type":"Force","location":{"latitude":"51.440959","street":{"id":940302,"name":"On or near Vineyard Close"},"longitude":"-0.028321"},"context":"","outcome_status":null,"persistent_id":"","id":74276736,"location_subtype":"","month":"2019-05"},{"category":"anti-social-behaviour","location_type":"Force","location":{"latitude":"51.443282","street":{"id":940226,"name":"On or near Catford Road"},"longitude":"-0.026941"},"context":"","outcome_status":null,"persistent_id":"","id":74276712,"location_subtype":"","month":"2019-05"},{"category":"anti-social-behaviour","location_type":"Force","location":{"latitude":"51.457082","street":{"id":941863,"name":"On or near Church Grove"},"longitude":"-0.017075"},"context":"","outcome_status":null,"persistent_id":"","id":74275552,"location_subtype":"","month":"2019-05"},{"category":"anti-social-behaviour","location_type":"Force","location":{"latitude":"51.443282","street":{"id":940226,"name":"On or near Catford Road"},"longitude":"-0.026941"},"context":"","outcome_status":null,"persistent_id":"","id":74276711,"location_subtype":"","month":"2019-05"},{"category":"anti-social-behaviour","location_type":"Force","location":{"latitude":"51.458036","street":{"id":942047,"name":"On or near Eastern Road"},"longitude":"-0.025138"},"context":"","outcome_status":null,"persistent_id":"","id":74276701,"location_subtype":"","month":"2019-05"},{"category":"anti-social-behaviour","location_type":"Force","location":{"latitude":"51.435336","street":{"id":937010,"name":"On or near Grangemill Way"},"longitude":"-0.025513"},"context":"","outcome_status":null,"persistent_id":"","id":74276699,"location_subtype":"","month":"2019-05"},{"category":"anti-social-behaviour","location_type":"Force","location":{"latitude":"51.448303","street":{"id":940321,"name":"On or near Sports\/recreation Area"},"longitude":"-0.024450"},"context":"","outcome_status":null,"persistent_id":"","id":74276698,"location_subtype":"","month":"2019-05"},{"category":"anti-social-behaviour","location_type":"Force","location":{"latitude":"51.448303","street":{"id":940321,"name":"On or near Sports\/recreation Area"},"longitude":"-0.024450"},"context":"","outcome_status":null,"persistent_id":"","id":74276692,"location_subtype":"","month":"2019-05"},{"category":"anti-social-behaviour","location_type":"Force","location":{"latitude":"51.448683","street":{"id":940360,"name":"On or near Park Piazza"},"longitude":"-0.003882"},"context":"","outcome_status":null,"persistent_id":"","id":74275448,"location_subtype":"","month":"2019-05"},{"category":"anti-social-behaviour","location_type":"Force","location":{"latitude":"51.448683","street":{"id":940360,"name":"On or near Park Piazza"},"longitude":"-0.003882"},"context":"","outcome_status":null,"persistent_id":"","id":74275449,"location_subtype":"","month":"2019-05"},{"category":"anti-social-behaviour","location_type":"Force","location":{"latitude":"51.448683","street":{"id":940360,"name":"On or near Park Piazza"},"longitude":"-0.003882"},"context":"","outcome_status":null,"persistent_id":"","id":74275452,"location_subtype":"","month":"2019-05"},{"category":"anti-social-behaviour","location_type":"Force","location":{"latitude":"51.452625","street":{"id":941949,"name":"On or near St Swithun's Road"},"longitude":"-0.006171"},"context":"","outcome_status":null,"persistent_id":"","id":74275461,"location_subtype":"","month":"2019-05"},{"category":"anti-social-behaviour","location_type":"Force","location":{"latitude":"51.438388","street":{"id":940419,"name":"On or near Muncies Mews"},"longitude":"-0.009784"},"context":"","outcome_status":null,"persistent_id":"","id":74275468,"location_subtype":"","month":"2019-05"},{"category":"anti-social-behaviour","location_type":"Force","location":{"latitude":"51.438388","street":{"id":940419,"name":"On or near Muncies Mews"},"longitude":"-0.009784"},"context":"","outcome_status":null,"persistent_id":"","id":74275469,"location_subtype":"","month":"2019-05"},{"category":"anti-social-behaviour","location_type":"Force","location":{"latitude":"51.451865","street":{"id":941951,"name":"On or near Radford Road"},"longitude":"-0.008522"},"context":"","outcome_status":null,"persistent_id":"","id":74275470,"location_subtype":"","month":"2019-05"},{"category":"anti-social-behaviour","location_type":"Force","location":{"latitude":"51.442068","street":{"id":940337,"name":"On or near Supermarket"},"longitude":"-0.010416"},"context":"","outcome_status":null,"persistent_id":"","id":74275472,"location_subtype":"","month":"2019-05"},{"category":"anti-social-behaviour","location_type":"Force","location":{"latitude":"51.443616","street":{"id":940324,"name":"On or near St Fillans Road"},"longitude":"-0.009442"},"context":"","outcome_status":null,"persistent_id":"","id":74275474,"location_subtype":"","month":"2019-05"},{"category":"anti-social-behaviour","location_type":"Force","location":{"latitude":"51.452270","street":{"id":941960,"name":"On or near Fordyce Road"},"longitude":"-0.010116"},"context":"","outcome_status":null,"persistent_id":"","id":74275483,"location_subtype":"","month":"2019-05"},{"category":"anti-social-behaviour","location_type":"Force","location":{"latitude":"51.452270","street":{"id":941960,"name":"On or near Fordyce Road"},"longitude":"-0.010116"},"context":"","outcome_status":null,"persistent_id":"","id":74275484,"location_subtype":"","month":"2019-05"},{"category":"anti-social-behaviour","location_type":"Force","location":{"latitude":"51.448632","street":{"id":940351,"name":"On or near Sycamore Grove"},"longitude":"-0.011973"},"context":"","outcome_status":null,"persistent_id":"","id":74275489,"location_subtype":"","month":"2019-05"},{"category":"anti-social-behaviour","location_type":"Force","location":{"latitude":"51.452270","street":{"id":941960,"name":"On or near Fordyce Road"},"longitude":"-0.010116"},"context":"","outcome_status":null,"persistent_id":"","id":74275491,"location_subtype":"","month":"2019-05"},{"category":"anti-social-behaviour","location_type":"Force","location":{"latitude":"51.444519","street":{"id":940346,"name":"On or near Elmer Road"},"longitude":"-0.011230"},"context":"","outcome_status":null,"persistent_id":"","id":74275500,"location_subtype":"","month":"2019-05"},{"category":"anti-social-behaviour","location_type":"Force","location":{"latitude":"51.444519","street":{"id":940346,"name":"On or near Elmer Road"},"longitude":"-0.011230"},"context":"","outcome_status":null,"persistent_id":"","id":74275501,"location_subtype":"","month":"2019-05"},{"category":"anti-social-behaviour","location_type":"Force","location":{"latitude":"51.444519","street":{"id":940346,"name":"On or near Elmer Road"},"longitude":"-0.011230"},"context":"","outcome_status":null,"persistent_id":"","id":74275502,"location_subtype":"","month":"2019-05"},{"category":"anti-social-behaviour","location_type":"Force","location":{"latitude":"51.444519","street":{"id":940346,"name":"On or near Elmer Road"},"longitude":"-0.011230"},"context":"","outcome_status":null,"persistent_id":"","id":74275503,"location_subtype":"","month":"2019-05"},{"category":"anti-social-behaviour","location_type":"Force","location":{"latitude":"51.442133","street":{"id":940338,"name":"On or near Supermarket"},"longitude":"-0.010543"},"context":"","outcome_status":null,"persistent_id":"","id":74275505,"location_subtype":"","month":"2019-05"},{"category":"anti-social-behaviour","location_type":"Force","location":{"latitude":"51.442133","street":{"id":940338,"name":"On or near Supermarket"},"longitude":"-0.010543"},"context":"","outcome_status":null,"persistent_id":"","id":74275506,"location_subtype":"","month":"2019-05"},{"category":"anti-social-behaviour","location_type":"Force","location":{"latitude":"51.434164","street":{"id":936843,"name":"On or near Conisborough Crescent"},"longitude":"-0.012025"},"context":"","outcome_status":null,"persistent_id":"","id":74275507,"location_subtype":"","month":"2019-05"},{"category":"anti-social-behaviour","location_type":"Force","location":{"latitude":"51.434164","street":{"id":936843,"name":"On or near Conisborough Crescent"},"longitude":"-0.012025"},"context":"","outcome_status":null,"persistent_id":"","id":74275508,"location_subtype":"","month":"2019-05"},{"category":"anti-social-behaviour","location_type":"Force","location":{"latitude":"51.434164","street":{"id":936843,"name":"On or near Conisborough Crescent"},"longitude":"-0.012025"},"context":"","outcome_status":null,"persistent_id":"","id":74275509,"location_subtype":"","month":"2019-05"},{"category":"anti-social-behaviour","location_type":"Force","location":{"latitude":"51.446577","street":{"id":940343,"name":"On or near Laleham Road"},"longitude":"-0.012738"},"context":"","outcome_status":null,"persistent_id":"","id":74275512,"location_subtype":"","month":"2019-05"},{"category":"anti-social-behaviour","location_type":"Force","location":{"latitude":"51.446577","street":{"id":940343,"name":"On or near Laleham Road"},"longitude":"-0.012738"},"context":"","outcome_status":null,"persistent_id":"","id":74275513,"location_subtype":"","month":"2019-05"},{"category":"anti-social-behaviour","location_type":"Force","location":{"latitude":"51.446577","street":{"id":940343,"name":"On or near Laleham Road"},"longitude":"-0.012738"},"context":"","outcome_status":null,"persistent_id":"","id":74275514,"location_subtype":"","month":"2019-05"},{"category":"anti-social-behaviour","location_type":"Force","location":{"latitude":"51.456682","street":{"id":923971,"name":"On or near Longbridge Way"},"longitude":"-0.012616"},"context":"","outcome_status":null,"persistent_id":"","id":74275515,"location_subtype":"","month":"2019-05"},{"category":"anti-social-behaviour","location_type":"Force","location":{"latitude":"51.456682","street":{"id":923971,"name":"On or near Longbridge Way"},"longitude":"-0.012616"},"context":"","outcome_status":null,"persistent_id":"","id":74275516,"location_subtype":"","month":"2019-05"},{"category":"anti-social-behaviour","location_type":"Force","location":{"latitude":"51.449569","street":{"id":940356,"name":"On or near Davenport Road"},"longitude":"-0.012608"},"context":"","outcome_status":null,"persistent_id":"","id":74275517,"location_subtype":"","month":"2019-05"},{"category":"anti-social-behaviour","location_type":"Force","location":{"latitude":"51.443059","street":{"id":940341,"name":"On or near Sangley Road"},"longitude":"-0.014229"},"context":"","outcome_status":null,"persistent_id":"","id":74275532,"location_subtype":"","month":"2019-05"},{"category":"anti-social-behaviour","location_type":"Force","location":{"latitude":"51.433195","street":{"id":936839,"name":"On or near Woodham Road"},"longitude":"-0.013262"},"context":"","outcome_status":null,"persistent_id":"","id":74275534,"location_subtype":"","month":"2019-05"},{"category":"anti-social-behaviour","location_type":"Force","location":{"latitude":"51.450961","street":{"id":941943,"name":"On or near Aldworth Grove"},"longitude":"-0.014592"},"context":"","outcome_status":null,"persistent_id":"","id":74275535,"location_subtype":"","month":"2019-05"},{"category":"anti-social-behaviour","location_type":"Force","location":{"latitude":"51.450961","street":{"id":941943,"name":"On or near Aldworth Grove"},"longitude":"-0.014592"},"context":"","outcome_status":null,"persistent_id":"","id":74275536,"location_subtype":"","month":"2019-05"},{"category":"anti-social-behaviour","location_type":"Force","location":{"latitude":"51.450961","street":{"id":941943,"name":"On or near Aldworth Grove"},"longitude":"-0.014592"},"context":"","outcome_status":null,"persistent_id":"","id":74275537,"location_subtype":"","month":"2019-05"},{"category":"anti-social-behaviour","location_type":"Force","location":{"latitude":"51.438560","street":{"id":940433,"name":"On or near Arran Road"},"longitude":"-0.015130"},"context":"","outcome_status":null,"persistent_id":"","id":74275538,"location_subtype":"","month":"2019-05"},{"category":"anti-social-behaviour","location_type":"Force","location":{"latitude":"51.450961","street":{"id":941967,"name":"On or near Roxley Road"},"longitude":"-0.016218"},"context":"","outcome_status":null,"persistent_id":"","id":74275539,"location_subtype":"","month":"2019-05"},{"category":"anti-social-behaviour","location_type":"Force","location":{"latitude":"51.450961","street":{"id":941967,"name":"On or near Roxley Road"},"longitude":"-0.016218"},"context":"","outcome_status":null,"persistent_id":"","id":74275540,"location_subtype":"","month":"2019-05"},{"category":"anti-social-behaviour","location_type":"Force","location":{"latitude":"51.440640","street":{"id":940415,"name":"On or near Bargery Road"},"longitude":"-0.015860"},"context":"","outcome_status":null,"persistent_id":"","id":74275541,"location_subtype":"","month":"2019-05"},{"category":"anti-social-behaviour","location_type":"Force","location":{"latitude":"51.433272","street":{"id":936818,"name":"On or near Bellingham Road"},"longitude":"-0.017258"},"context":"","outcome_status":null,"persistent_id":"","id":74275542,"location_subtype":"","month":"2019-05"},{"category":"anti-social-behaviour","location_type":"Force","location":{"latitude":"51.433272","street":{"id":936818,"name":"On or near Bellingham Road"},"longitude":"-0.017258"},"context":"","outcome_status":null,"persistent_id":"","id":74275543,"location_subtype":"","month":"2019-05"},{"category":"anti-social-behaviour","location_type":"Force","location":{"latitude":"51.433272","street":{"id":936818,"name":"On or near Bellingham Road"},"longitude":"-0.017258"},"context":"","outcome_status":null,"persistent_id":"","id":74275544,"location_subtype":"","month":"2019-05"},{"category":"anti-social-behaviour","location_type":"Force","location":{"latitude":"51.433272","street":{"id":936818,"name":"On or near Bellingham Road"},"longitude":"-0.017258"},"context":"","outcome_status":null,"persistent_id":"","id":74275545,"location_subtype":"","month":"2019-05"},{"category":"anti-social-behaviour","location_type":"Force","location":{"latitude":"51.433272","street":{"id":936818,"name":"On or near Bellingham Road"},"longitude":"-0.017258"},"context":"","outcome_status":null,"persistent_id":"","id":74275546,"location_subtype":"","month":"2019-05"},{"category":"anti-social-behaviour","location_type":"Force","location":{"latitude":"51.433272","street":{"id":936818,"name":"On or near Bellingham Road"},"longitude":"-0.017258"},"context":"","outcome_status":null,"persistent_id":"","id":74275549,"location_subtype":"","month":"2019-05"},{"category":"anti-social-behaviour","location_type":"Force","location":{"latitude":"51.457082","street":{"id":941863,"name":"On or near Church Grove"},"longitude":"-0.017075"},"context":"","outcome_status":null,"persistent_id":"","id":74276606,"location_subtype":"","month":"2019-05"},{"category":"anti-social-behaviour","location_type":"Force","location":{"latitude":"51.434264","street":{"id":936816,"name":"On or near Franthorne Way"},"longitude":"-0.019546"},"context":"","outcome_status":null,"persistent_id":"","id":74276612,"location_subtype":"","month":"2019-05"},{"category":"anti-social-behaviour","location_type":"Force","location":{"latitude":"51.453646","street":{"id":941975,"name":"On or near Hospital"},"longitude":"-0.017023"},"context":"","outcome_status":null,"persistent_id":"","id":74276614,"location_subtype":"","month":"2019-05"},{"category":"anti-social-behaviour","location_type":"Force","location":{"latitude":"51.447109","street":{"id":940393,"name":"On or near Rushey Green"},"longitude":"-0.018673"},"context":"","outcome_status":null,"persistent_id":"","id":74276616,"location_subtype":"","month":"2019-05"},{"category":"anti-social-behaviour","location_type":"Force","location":{"latitude":"51.447109","street":{"id":940393,"name":"On or near Rushey Green"},"longitude":"-0.018673"},"context":"","outcome_status":null,"persistent_id":"","id":74276617,"location_subtype":"","month":"2019-05"},{"category":"anti-social-behaviour","location_type":"Force","location":{"latitude":"51.447109","street":{"id":940393,"name":"On or near Rushey Green"},"longitude":"-0.018673"},"context":"","outcome_status":null,"persistent_id":"","id":74276618,"location_subtype":"","month":"2019-05"},{"category":"anti-social-behaviour","location_type":"Force","location":{"latitude":"51.454257","street":{"id":941968,"name":"On or near Malyons Road"},"longitude":"-0.021271"},"context":"","outcome_status":null,"persistent_id":"","id":74276619,"location_subtype":"","month":"2019-05"},{"category":"anti-social-behaviour","location_type":"Force","location":{"latitude":"51.454257","street":{"id":941968,"name":"On or near Malyons Road"},"longitude":"-0.021271"},"context":"","outcome_status":null,"persistent_id":"","id":74276620,"location_subtype":"","month":"2019-05"},{"category":"anti-social-behaviour","location_type":"Force","location":{"latitude":"51.454257","street":{"id":941968,"name":"On or near Malyons Road"},"longitude":"-0.021271"},"context":"","outcome_status":null,"persistent_id":"","id":74276621,"location_subtype":"","month":"2019-05"},{"category":"anti-social-behaviour","location_type":"Force","location":{"latitude":"51.454257","street":{"id":941968,"name":"On or near Malyons Road"},"longitude":"-0.021271"},"context":"","outcome_status":null,"persistent_id":"","id":74276622,"location_subtype":"","month":"2019-05"},{"category":"bicycle-theft","location_type":"Force","location":{"latitude":"51.450961","street":{"id":941967,"name":"On or near Roxley Road"},"longitude":"-0.016218"},"context":"","outcome_status":{"category":"Status update unavailable","date":"2019-09"},"persistent_id":"9fbf877bcc444ddc74b9e416d8beb8ba671f2e68c26a6cc715057822a1e0b695","id":74349918,"location_subtype":"","month":"2019-05"},{"category":"bicycle-theft","location_type":"Force","location":{"latitude":"51.448632","street":{"id":940351,"name":"On or near Sycamore Grove"},"longitude":"-0.011973"},"context":"","outcome_status":{"category":"Status update unavailable","date":"2019-09"},"persistent_id":"61781f99dd7d4639a143c83fedcf1f56d47b57516e223726fc4822acfb2608b2","id":74315066,"location_subtype":"","month":"2019-05"},{"category":"bicycle-theft","location_type":"Force","location":{"latitude":"51.453054","street":{"id":942088,"name":"On or near Bartram Road"},"longitude":"-0.039617"},"context":"","outcome_status":{"category":"Status update unavailable","date":"2019-09"},"persistent_id":"bfeb1ce38ae64891996b1f826fc603a27bab13627536bfa0520ce3d7308e784d","id":74329821,"location_subtype":"","month":"2019-05"},{"category":"bicycle-theft","location_type":"Force","location":{"latitude":"51.445850","street":{"id":940388,"name":"On or near Supermarket"},"longitude":"-0.021318"},"context":"","outcome_status":{"category":"Status update unavailable","date":"2019-09"},"persistent_id":"0a17f5440c9eec1d612ab01de63d10428c9c90b9d4696d319d50739c1417316b","id":74335891,"location_subtype":"","month":"2019-05"},{"category":"bicycle-theft","location_type":"Force","location":{"latitude":"51.453832","street":{"id":942075,"name":"On or near Brockley Grove"},"longitude":"-0.035597"},"context":"","outcome_status":{"category":"Status update unavailable","date":"2019-09"},"persistent_id":"390233a4268f63603dcceedd3a5f1111a9c71114baeb41054e121bc89e6dd43c","id":74300059,"location_subtype":"","month":"2019-05"},{"category":"bicycle-theft","location_type":"BTP","location":{"latitude":"51.445000","street":{"id":1487904,"name":"Catford (station)"},"longitude":"-0.026161"},"context":"","outcome_status":{"category":"Status update unavailable","date":"2019-09"},"persistent_id":"","id":88717922,"location_subtype":"STATION","month":"2019-05"},{"category":"bicycle-theft","location_type":"Force","location":{"latitude":"51.443568","street":{"id":940259,"name":"On or near Steucers Lane"},"longitude":"-0.038570"},"context":"","outcome_status":{"category":"Status update unavailable","date":"2019-09"},"persistent_id":"29ae39414e1609e8f79108e70ed198311ed685a8b31b5805970b5646012bc616","id":74306264,"location_subtype":"","month":"2019-05"},{"category":"bicycle-theft","location_type":"Force","location":{"latitude":"51.446575","street":{"id":940220,"name":"On or near Nelgarde Road"},"longitude":"-0.023287"},"context":"","outcome_status":{"category":"Status update unavailable","date":"2019-09"},"persistent_id":"031a9d4309405952630154ceebd979b619316525973d8454707837243b6159ab","id":74325128,"location_subtype":"","month":"2019-05"},{"category":"bicycle-theft","location_type":"Force","location":{"latitude":"51.444087","street":{"id":940378,"name":"On or near Sangley Road"},"longitude":"-0.019207"},"context":"","outcome_status":{"category":"Court result unavailable","date":"2019-11"},"persistent_id":"c2bdc0071fda6afc0c0dff409d8fa913f00cb5c920087fe123226c540aba9566","id":74308826,"location_subtype":"","month":"2019-05"},{"category":"bicycle-theft","location_type":"BTP","location":{"latitude":"51.445000","street":{"id":1488069,"name":"Catford Bridge (station)"},"longitude":"-0.025007"},"context":"","outcome_status":{"category":"Status update unavailable","date":"2019-09"},"persistent_id":"","id":88719136,"location_subtype":"STATION","month":"2019-05"},{"category":"bicycle-theft","location_type":"Force","location":{"latitude":"51.449650","street":{"id":940246,"name":"On or near Brightling Road"},"longitude":"-0.031272"},"context":"","outcome_status":{"category":"Status update unavailable","date":"2019-09"},"persistent_id":"6dde3759dc597a432e2e3b5b8dd7bb9f16cb0b17fe6fe9e0781388d845986ccb","id":74345822,"location_subtype":"","month":"2019-05"},{"category":"bicycle-theft","location_type":"Force","location":{"latitude":"51.450564","street":{"id":940247,"name":"On or near Bexhill Road"},"longitude":"-0.032153"},"context":"","outcome_status":{"category":"Status update unavailable","date":"2019-09"},"persistent_id":"5a8e5cd0367079517d7fa69f8f9b4fa5d258f479f27d3b5297aa1dd14cd90f6d","id":74297646,"location_subtype":"","month":"2019-05"},{"category":"bicycle-theft","location_type":"Force","location":{"latitude":"51.451865","street":{"id":941951,"name":"On or near Radford Road"},"longitude":"-0.008522"},"context":"","outcome_status":{"category":"Status update unavailable","date":"2019-09"},"persistent_id":"dd8bc81a95aecb3495e02f571e9dab4b4c88ad20533432845cf88841be4e94cf","id":74362514,"location_subtype":"","month":"2019-05"},{"category":"bicycle-theft","location_type":"Force","location":{"latitude":"51.442068","street":{"id":940337,"name":"On or near Supermarket"},"longitude":"-0.010416"},"context":"","outcome_status":{"category":"Status update unavailable","date":"2019-09"},"persistent_id":"cac888566d05952e84721e637e7ff02b39439050500d3740d97b164f366605d9","id":74295580,"location_subtype":"","month":"2019-05"},{"category":"bicycle-theft","location_type":"Force","location":{"latitude":"51.448985","street":{"id":940371,"name":"On or near Desvignes Drive"},"longitude":"-0.003121"},"context":"","outcome_status":{"category":"Status update unavailable","date":"2019-09"},"persistent_id":"0142e9b37534a5d02f77c73bfcb968b61de5d8198a38eb586dcdeca5ff8109e6","id":74349917,"location_subtype":"","month":"2019-05"},{"category":"bicycle-theft","location_type":"Force","location":{"latitude":"51.447415","street":{"id":940395,"name":"On or near Morena Street"},"longitude":"-0.020286"},"context":"","outcome_status":{"category":"Status update unavailable","date":"2019-09"},"persistent_id":"6c366b2d2d2f77c72bc63e9cdd3e1b94dd95f0c60d4f39fc9bcc26e37757a896","id":74362114,"location_subtype":"","month":"2019-05"},{"category":"bicycle-theft","location_type":"Force","location":{"latitude":"51.443389","street":{"id":940216,"name":"On or near Ravensbourne Road"},"longitude":"-0.034879"},"context":"","outcome_status":{"category":"Status update unavailable","date":"2019-09"},"persistent_id":"196831db459e575c20976aa37e913ac78a44ae17c67ce48e5cf53cf5a691f92f","id":74370831,"location_subtype":"","month":"2019-05"},{"category":"burglary","location_type":"Force","location":{"latitude":"51.445979","street":{"id":940342,"name":"On or near Melbourne Mews"},"longitude":"-0.013527"},"context":"","outcome_status":{"category":"Status update unavailable","date":"2019-09"},"persistent_id":"c80332677304e4ab72b19204e530d0c6813ef994ea3c222165b5f279952a1ff5","id":74308018,"location_subtype":"","month":"2019-05"},{"category":"burglary","location_type":"Force","location":{"latitude":"51.456682","street":{"id":923971,"name":"On or near Longbridge Way"},"longitude":"-0.012616"},"context":"","outcome_status":{"category":"Status update unavailable","date":"2019-09"},"persistent_id":"97cb3ac369a235e55b6b4c7042ad90b8ad0a6d1553fa057b8b255fccc18b0d72","id":74329508,"location_subtype":"","month":"2019-05"},{"category":"burglary","location_type":"Force","location":{"latitude":"51.454164","street":{"id":941954,"name":"On or near Merbury Close"},"longitude":"-0.007803"},"context":"","outcome_status":{"category":"Status update unavailable","date":"2019-09"},"persistent_id":"1604eb7a07217344cd4c37875c2b72ab75208c53b8f37a84fe88222a3b3d1f88","id":74334069,"location_subtype":"","month":"2019-05"},{"category":"burglary","location_type":"Force","location":{"latitude":"51.445273","street":{"id":940336,"name":"On or near Petrol Station"},"longitude":"-0.007456"},"context":"","outcome_status":{"category":"Status update unavailable","date":"2019-09"},"persistent_id":"86077623fccdf97b529f1d7398325ce6690487ccd4c14bc270c45c346acd84db","id":74295957,"location_subtype":"","month":"2019-05"},{"category":"burglary","location_type":"Force","location":{"latitude":"51.439800","street":{"id":940294,"name":"On or near Loxton Road"},"longitude":"-0.043998"},"context":"","outcome_status":{"category":"Status update unavailable","date":"2019-09"},"persistent_id":"5184e63664afda47b0f0d8dfe43aeb151fffe4f62296abd21811c04032bb9ebb","id":74332691,"location_subtype":"","month":"2019-05"},{"category":"burglary","location_type":"Force","location":{"latitude":"51.454360","street":{"id":942064,"name":"On or near Marnock Road"},"longitude":"-0.035416"},"context":"","outcome_status":{"category":"Status update unavailable","date":"2019-09"},"persistent_id":"5e93fddc50200e54055db36051ba7310283cbf1ba839a826eef37571c6f350ba","id":74332810,"location_subtype":"","month":"2019-05"},{"category":"burglary","location_type":"Force","location":{"latitude":"51.445872","street":{"id":940228,"name":"On or near Casslee Road"},"longitude":"-0.032298"},"context":"","outcome_status":{"category":"Status update unavailable","date":"2019-09"},"persistent_id":"bb183eaf43384ef474594998258793004a1c94aaa082e16aaed49d459435d9d5","id":74332846,"location_subtype":"","month":"2019-05"},{"category":"burglary","location_type":"Force","location":{"latitude":"51.433898","street":{"id":936958,"name":"On or near Athelney Street"},"longitude":"-0.023978"},"context":"","outcome_status":{"category":"Status update unavailable","date":"2019-09"},"persistent_id":"192cd041978478a9b898cf1a64c2ad0aa72fe73650a22c9629996795b05070f5","id":74297052,"location_subtype":"","month":"2019-05"},{"category":"burglary","location_type":"Force","location":{"latitude":"51.454360","street":{"id":942064,"name":"On or near Marnock Road"},"longitude":"-0.035416"},"context":"","outcome_status":{"category":"Status update unavailable","date":"2019-09"},"persistent_id":"02f648dc3a11de832006e4dd64fca4fac0d7782dca47a7e9578045b8141b4ed8","id":74291507,"location_subtype":"","month":"2019-05"},{"category":"burglary","location_type":"Force","location":{"latitude":"51.445549","street":{"id":940376,"name":"On or near Parking Area"},"longitude":"-0.022151"},"context":"","outcome_status":{"category":"Status update unavailable","date":"2019-09"},"persistent_id":"cda76c088b2004a9924e0ab01cb8a1cb5efea16036eeb4c1b2a21c902b0194f0","id":74313310,"location_subtype":"","month":"2019-05"},{"category":"burglary","location_type":"Force","location":{"latitude":"51.433898","street":{"id":936958,"name":"On or near Athelney Street"},"longitude":"-0.023978"},"context":"","outcome_status":{"category":"Status update unavailable","date":"2019-09"},"persistent_id":"f463aa8697eb383216eaa8788bd8287c85c32f445ed377c15df07a7d3c3c0bba","id":74361288,"location_subtype":"","month":"2019-05"},{"category":"burglary","location_type":"Force","location":{"latitude":"51.454164","street":{"id":941954,"name":"On or near Merbury Close"},"longitude":"-0.007803"},"context":"","outcome_status":{"category":"Court result unavailable","date":"2019-11"},"persistent_id":"dc274e5baa4daf5a24580dc88afec948c8bd68006f4265cb17e7723ca8a69456","id":74350189,"location_subtype":"","month":"2019-05"},{"category":"burglary","location_type":"Force","location":{"latitude":"51.444393","street":{"id":940374,"name":"On or near Parking Area"},"longitude":"-0.021842"},"context":"","outcome_status":{"category":"Status update unavailable","date":"2019-09"},"persistent_id":"aca14b1c4d0a9250b667978fa6e6ad6941bf90914021d8da96902af410c90b5b","id":74296077,"location_subtype":"","month":"2019-05"},{"category":"burglary","location_type":"Force","location":{"latitude":"51.432087","street":{"id":936812,"name":"On or near Orford Road"},"longitude":"-0.017885"},"context":"","outcome_status":{"category":"Status update unavailable","date":"2019-09"},"persistent_id":"a8845bead1b75a627b5b3798238669f263a920340786d944362dd27d636a952a","id":74361815,"location_subtype":"","month":"2019-05"},{"category":"burglary","location_type":"Force","location":{"latitude":"51.457474","street":{"id":942035,"name":"On or near Ladywell Close"},"longitude":"-0.025940"},"context":"","outcome_status":{"category":"Status update unavailable","date":"2019-09"},"persistent_id":"4c85a47a3bb7b2fee628b4cb369399512110c8b01de8130f52854ca47aad17fd","id":74296688,"location_subtype":"","month":"2019-05"},{"category":"burglary","location_type":"Force","location":{"latitude":"51.445368","street":{"id":940235,"name":"On or near Adenmore Road"},"longitude":"-0.025268"},"context":"","outcome_status":{"category":"Status update unavailable","date":"2019-09"},"persistent_id":"c67ac9f3f2fa6a97d6db9ca0d64203075375794e307a8ae7da50351741e3ea99","id":74359686,"location_subtype":"","month":"2019-05"},{"category":"burglary","location_type":"Force","location":{"latitude":"51.453646","street":{"id":941975,"name":"On or near Hospital"},"longitude":"-0.017023"},"context":"","outcome_status":{"category":"Status update unavailable","date":"2019-09"},"persistent_id":"3f0c7aca449e3c83d182a0da75a06fc51acaf54b97534d6c40d870acd4bdc8b8","id":74358934,"location_subtype":"","month":"2019-05"},{"category":"burglary","location_type":"Force","location":{"latitude":"51.450535","street":{"id":940353,"name":"On or near George Lane"},"longitude":"-0.011257"},"context":"","outcome_status":{"category":"Status update unavailable","date":"2019-09"},"persistent_id":"ebc2cf022e9778f2f9cd1fa6e19be40ce47056cddf249581e1b0141f3875b896","id":74290175,"location_subtype":"","month":"2019-05"},{"category":"burglary","location_type":"Force","location":{"latitude":"51.444242","street":{"id":940206,"name":"On or near Pedestrian Subway"},"longitude":"-0.025187"},"context":"","outcome_status":{"category":"Status update unavailable","date":"2019-09"},"persistent_id":"434953d26469cd5bfa4233ccc90a0e0845256f70ec8856845cc1d47e8aa5ba90","id":74371543,"location_subtype":"","month":"2019-05"},{"category":"burglary","location_type":"Force","location":{"latitude":"51.450961","street":{"id":941943,"name":"On or near Aldworth Grove"},"longitude":"-0.014592"},"context":"","outcome_status":{"category":"Status update unavailable","date":"2019-09"},"persistent_id":"8840ffe18fd4d2eaa2b967791f0223e0849b3b1ed09ef955a2a6ef51778d4f2d","id":74302877,"location_subtype":"","month":"2019-05"},{"category":"burglary","location_type":"Force","location":{"latitude":"51.447838","street":{"id":940248,"name":"On or near Bankhurst Road"},"longitude":"-0.032069"},"context":"","outcome_status":{"category":"Status update unavailable","date":"2019-09"},"persistent_id":"5e3a8e8cb23578528711417a684a3d8d5338d581fb77b6c3f0b105e032ad32a5","id":74291508,"location_subtype":"","month":"2019-05"},{"category":"burglary","location_type":"Force","location":{"latitude":"51.436306","street":{"id":936948,"name":"On or near Ghent Street"},"longitude":"-0.024407"},"context":"","outcome_status":{"category":"Status update unavailable","date":"2019-09"},"persistent_id":"81fb4c211cc04ef51dd465e5373281f7dc2050a186a28e9d51be5a584674af08","id":74350280,"location_subtype":"","month":"2019-05"},{"category":"burglary","location_type":"Force","location":{"latitude":"51.432504","street":{"id":936823,"name":"On or near Supermarket"},"longitude":"-0.021291"},"context":"","outcome_status":{"category":"Status update unavailable","date":"2019-09"},"persistent_id":"ad6ea1daba03cee3e84b2733069692182cb7b3527a6bdb6207a6d31111bcf4c0","id":74291661,"location_subtype":"","month":"2019-05"},{"category":"burglary","location_type":"Force","location":{"latitude":"51.443239","street":{"id":940213,"name":"On or near Stanstead Road"},"longitude":"-0.027029"},"context":"","outcome_status":{"category":"Status update unavailable","date":"2019-09"},"persistent_id":"f285a6924ba7179187420f23ae2170775d8425b8db7f8f0000a42ab17da32166","id":74291853,"location_subtype":"","month":"2019-05"},{"category":"burglary","location_type":"Force","location":{"latitude":"51.454257","street":{"id":941968,"name":"On or near Malyons Road"},"longitude":"-0.021271"},"context":"","outcome_status":{"category":"Status update unavailable","date":"2019-09"},"persistent_id":"5683047485cfcae756eb0b74dcc21fbd43fea31b47b5f6d2779822ce20ddeefb","id":74307148,"location_subtype":"","month":"2019-05"},{"category":"burglary","location_type":"Force","location":{"latitude":"51.438423","street":{"id":940301,"name":"On or near Pool Court"},"longitude":"-0.025150"},"context":"","outcome_status":{"category":"Court result unavailable","date":"2020-04"},"persistent_id":"ae7e9f5e2b89f7f55fafc19e43420a2dded24580159a45547085fc0b4f320e10","id":74307331,"location_subtype":"","month":"2019-05"},{"category":"burglary","location_type":"Force","location":{"latitude":"51.453780","street":{"id":942074,"name":"On or near Chudleigh Road"},"longitude":"-0.027121"},"context":"","outcome_status":{"category":"Status update unavailable","date":"2019-09"},"persistent_id":"b6cb521b0fbdd5983875c34dbc417b503561400503a6b731457c9e7cf161cbf9","id":74322376,"location_subtype":"","month":"2019-05"},{"category":"burglary","location_type":"Force","location":{"latitude":"51.456015","street":{"id":941888,"name":"On or near Campshill Place"},"longitude":"-0.010400"},"context":"","outcome_status":{"category":"Status update unavailable","date":"2019-09"},"persistent_id":"7c9c805682275628470148e4b90520adfdadb9d0d66434bfc5f3c5dc8384db86","id":74289976,"location_subtype":"","month":"2019-05"},{"category":"burglary","location_type":"Force","location":{"latitude":"51.445497","street":{"id":940348,"name":"On or near Brownhill Road"},"longitude":"-0.014282"},"context":"","outcome_status":{"category":"Status update unavailable","date":"2019-09"},"persistent_id":"52bd5afd35fe1f1af048db460034557a3da8ea2a187d3dc575d37693f38193d7","id":74308676,"location_subtype":"","month":"2019-05"},{"category":"burglary","location_type":"Force","location":{"latitude":"51.445497","street":{"id":940348,"name":"On or near Brownhill Road"},"longitude":"-0.014282"},"context":"","outcome_status":{"category":"Status update unavailable","date":"2019-09"},"persistent_id":"52bd5afd35fe1f1af048db460034557a3da8ea2a187d3dc575d37693f38193d7","id":74308677,"location_subtype":"","month":"2019-05"},{"category":"burglary","location_type":"Force","location":{"latitude":"51.432504","street":{"id":936823,"name":"On or near Supermarket"},"longitude":"-0.021291"},"context":"","outcome_status":{"category":"Status update unavailable","date":"2019-09"},"persistent_id":"dab2bb754199caaf005618b85bd5dda4f3a5c11e0b915eade71b3be36883e391","id":74355006,"location_subtype":"","month":"2019-05"},{"category":"burglary","location_type":"Force","location":{"latitude":"51.441403","street":{"id":940411,"name":"On or near Bromley Road"},"longitude":"-0.020546"},"context":"","outcome_status":{"category":"Status update unavailable","date":"2019-09"},"persistent_id":"11a8a30f2a56a5150677a39445220572a25e47e6d540c1e63504293f1dca5a61","id":74320277,"location_subtype":"","month":"2019-05"},{"category":"burglary","location_type":"Force","location":{"latitude":"51.446276","street":{"id":940103,"name":"On or near Garthorne Road"},"longitude":"-0.046772"},"context":"","outcome_status":{"category":"Status update unavailable","date":"2019-09"},"persistent_id":"8f508b130cbc148be4ad3dc9a0959ae88772c7757a8899e26a345a535ff04969","id":74339172,"location_subtype":"","month":"2019-05"},{"category":"burglary","location_type":"Force","location":{"latitude":"51.435052","street":{"id":936841,"name":"On or near Daneby Road"},"longitude":"-0.013512"},"context":"","outcome_status":{"category":"Status update unavailable","date":"2019-09"},"persistent_id":"b88cd12679b79939aa2f5108e53758974c51fa078db1dd0fd2c19a3eaef44d7b","id":74339070,"location_subtype":"","month":"2019-05"},{"category":"burglary","location_type":"Force","location":{"latitude":"51.455497","street":{"id":941851,"name":"On or near Legge Street"},"longitude":"-0.014841"},"context":"","outcome_status":{"category":"Status update unavailable","date":"2019-09"},"persistent_id":"8ed81358c9569a84187c08c3e7803ae4dfba9f884cb4ae3c84d5f314ba87e930","id":74338430,"location_subtype":"","month":"2019-05"},{"category":"burglary","location_type":"Force","location":{"latitude":"51.437377","street":{"id":937070,"name":"On or near Shipman Road"},"longitude":"-0.044821"},"context":"","outcome_status":{"category":"Status update unavailable","date":"2019-09"},"persistent_id":"81ac4648bc860430d5939bb611757e0eec5701b253ffb414e422dbe2b8acf2c7","id":74312844,"location_subtype":"","month":"2019-05"},{"category":"burglary","location_type":"Force","location":{"latitude":"51.441257","street":{"id":940318,"name":"On or near Beechfield Road"},"longitude":"-0.030553"},"context":"","outcome_status":{"category":"Status update unavailable","date":"2019-09"},"persistent_id":"562e31a29681decc6868fdf8ced7d946c9a03506b83e0f8c27f579898649fcff","id":74313384,"location_subtype":"","month":"2019-05"},{"category":"burglary","location_type":"Force","location":{"latitude":"51.450777","street":{"id":940241,"name":"On or near Salehurst Road"},"longitude":"-0.033065"},"context":"","outcome_status":{"category":"Status update unavailable","date":"2019-09"},"persistent_id":"96d077771a9e098c86894982d2e481435067090424ae633e944ba3b76b63076e","id":74313480,"location_subtype":"","month":"2019-05"},{"category":"burglary","location_type":"Force","location":{"latitude":"51.446837","street":{"id":940375,"name":"On or near Parking Area"},"longitude":"-0.021722"},"context":"","outcome_status":{"category":"Status update unavailable","date":"2019-09"},"persistent_id":"e62e4578ba9f3c8f6f3a81fc2e95d6575962810470992dff3977d45996e81322","id":74325818,"location_subtype":"","month":"2019-05"},{"category":"burglary","location_type":"Force","location":{"latitude":"51.449650","street":{"id":940246,"name":"On or near Brightling Road"},"longitude":"-0.031272"},"context":"","outcome_status":{"category":"Status update unavailable","date":"2019-09"},"persistent_id":"fa8b5fe0a10e0384187b6b704dc7e272ca655056b38c189577dcbef86770761e","id":74341212,"location_subtype":"","month":"2019-05"},{"category":"burglary","location_type":"Force","location":{"latitude":"51.442191","street":{"id":940383,"name":"On or near Canadian Avenue"},"longitude":"-0.022455"},"context":"","outcome_status":{"category":"Status update unavailable","date":"2019-09"},"persistent_id":"df6000a19a9f35478cdc9a6c24f088788671f6163df718ea71a37a3cf9bc8ca8","id":74306448,"location_subtype":"","month":"2019-05"},{"category":"burglary","location_type":"Force","location":{"latitude":"51.453646","street":{"id":941975,"name":"On or near Hospital"},"longitude":"-0.017023"},"context":"","outcome_status":{"category":"Status update unavailable","date":"2019-09"},"persistent_id":"a9285e2e1ca047963daeee3f66c77b4861b6dde7b9166a48d6f12fea8c8d17d0","id":74343275,"location_subtype":"","month":"2019-05"},{"category":"burglary","location_type":"Force","location":{"latitude":"51.457474","street":{"id":942035,"name":"On or near Ladywell Close"},"longitude":"-0.025940"},"context":"","outcome_status":{"category":"Status update unavailable","date":"2019-09"},"persistent_id":"ceabe7c261623cb2a4a2cb9c773cbd2847907bfa0d5a0c0962d1da8e73882e87","id":74331285,"location_subtype":"","month":"2019-05"},{"category":"burglary","location_type":"Force","location":{"latitude":"51.450961","street":{"id":941943,"name":"On or near Aldworth Grove"},"longitude":"-0.014592"},"context":"","outcome_status":{"category":"Status update unavailable","date":"2019-09"},"persistent_id":"048c7728dfd2669b714a8fd375ea7addcc6a189d21d3ed5d7ab6b8171b887140","id":74337077,"location_subtype":"","month":"2019-05"},{"category":"burglary","location_type":"Force","location":{"latitude":"51.443616","street":{"id":940324,"name":"On or near St Fillans Road"},"longitude":"-0.009442"},"context":"","outcome_status":{"category":"Status update unavailable","date":"2019-09"},"persistent_id":"c627a1afc95507c48c7bda509197407b789cc5fbbb1d419f894c541b7e863570","id":74336613,"location_subtype":"","month":"2019-05"},{"category":"burglary","location_type":"Force","location":{"latitude":"51.453646","street":{"id":941975,"name":"On or near Hospital"},"longitude":"-0.017023"},"context":"","outcome_status":{"category":"Status update unavailable","date":"2019-09"},"persistent_id":"5aa97373cfc8020c1a0668b4d938143ea403e5e09c297f373f88f597149145aa","id":74336607,"location_subtype":"","month":"2019-05"},{"category":"burglary","location_type":"Force","location":{"latitude":"51.447838","street":{"id":940248,"name":"On or near Bankhurst Road"},"longitude":"-0.032069"},"context":"","outcome_status":{"category":"Status update unavailable","date":"2019-09"},"persistent_id":"17cd528cd507908d2009c76d8d305b191b3622c0e8466439d38a52c7f71e4093","id":74318747,"location_subtype":"","month":"2019-05"},{"category":"burglary","location_type":"Force","location":{"latitude":"51.442133","street":{"id":940338,"name":"On or near Supermarket"},"longitude":"-0.010543"},"context":"","outcome_status":{"category":"Status update unavailable","date":"2019-09"},"persistent_id":"3aeb9124dda911bc6fc227110ac599b8215286ada962dcf1a3a5ab561732b68e","id":74335707,"location_subtype":"","month":"2019-05"},{"category":"burglary","location_type":"Force","location":{"latitude":"51.446359","street":{"id":940328,"name":"On or near Mountfield Close"},"longitude":"-0.006775"},"context":"","outcome_status":{"category":"Status update unavailable","date":"2019-09"},"persistent_id":"ff39d0ce1cce5ab851aa8d0df7723019c0830b68b643d8b6b9b2c180408dfc55","id":74328526,"location_subtype":"","month":"2019-05"},{"category":"burglary","location_type":"Force","location":{"latitude":"51.450961","street":{"id":941967,"name":"On or near Roxley Road"},"longitude":"-0.016218"},"context":"","outcome_status":{"category":"Status update unavailable","date":"2019-09"},"persistent_id":"07c1902865b8dabe15ce4b24a4e8ea91700fcfdaec915e01c0fb4611b67295da","id":74328385,"location_subtype":"","month":"2019-05"},{"category":"criminal-damage-arson","location_type":"Force","location":{"latitude":"51.440842","street":{"id":940315,"name":"On or near Carholme Road"},"longitude":"-0.034759"},"context":"","outcome_status":{"category":"Status update unavailable","date":"2019-09"},"persistent_id":"b205a4ff09d66b7d5264bd214a9a183001c62484a49c831eb93da9185a09d0fb","id":74322956,"location_subtype":"","month":"2019-05"},{"category":"criminal-damage-arson","location_type":"Force","location":{"latitude":"51.439885","street":{"id":940310,"name":"On or near Fordmill Road"},"longitude":"-0.023288"},"context":"","outcome_status":{"category":"Status update unavailable","date":"2019-09"},"persistent_id":"915a7d325b8814fd0ac9980429d45fed3acd820630c2e0fa49965a94036fde6e","id":74371618,"location_subtype":"","month":"2019-05"},{"category":"criminal-damage-arson","location_type":"Force","location":{"latitude":"51.440842","street":{"id":940315,"name":"On or near Carholme Road"},"longitude":"-0.034759"},"context":"","outcome_status":{"category":"Status update unavailable","date":"2019-09"},"persistent_id":"513be2844b9783e26fa25c6f63f41645a28883dd56d647603a2189cf19023ac0","id":74339777,"location_subtype":"","month":"2019-05"},{"category":"criminal-damage-arson","location_type":"Force","location":{"latitude":"51.432768","street":{"id":936957,"name":"On or near Broadmead"},"longitude":"-0.024157"},"context":"","outcome_status":{"category":"Court result unavailable","date":"2020-06"},"persistent_id":"840f4406d475e95c643f5a9e40f48a8ddfcfa1b7bf9bb0b099d51dc942598688","id":74301269,"location_subtype":"","month":"2019-05"},{"category":"criminal-damage-arson","location_type":"Force","location":{"latitude":"51.450961","street":{"id":941967,"name":"On or near Roxley Road"},"longitude":"-0.016218"},"context":"","outcome_status":{"category":"Court result unavailable","date":"2019-11"},"persistent_id":"d2f0e68e1e8d4f32f088b898354b5b8c5cf91fc1630b8ca1a60e10f210bfe648","id":74337491,"location_subtype":"","month":"2019-05"},{"category":"criminal-damage-arson","location_type":"Force","location":{"latitude":"51.432504","street":{"id":936823,"name":"On or near Supermarket"},"longitude":"-0.021291"},"context":"","outcome_status":{"category":"Status update unavailable","date":"2019-09"},"persistent_id":"4d082056f2ab06d80d15b67fd6d60acaddfbfb4294333aca30c7942ad0421ec4","id":74299294,"location_subtype":"","month":"2019-05"},{"category":"criminal-damage-arson","location_type":"Force","location":{"latitude":"51.430967","street":{"id":936817,"name":"On or near Brookehowse Road"},"longitude":"-0.021371"},"context":"","outcome_status":{"category":"Status update unavailable","date":"2019-09"},"persistent_id":"cf247502c10fa837d84b2445f4d7c00f5369b29d8eed22a4d121338938a69385","id":74299309,"location_subtype":"","month":"2019-05"},{"category":"criminal-damage-arson","location_type":"Force","location":{"latitude":"51.445273","street":{"id":940336,"name":"On or near Petrol Station"},"longitude":"-0.007456"},"context":"","outcome_status":{"category":"Status update unavailable","date":"2019-09"},"persistent_id":"53edeea9e1f41329c0e8601f03380a396e8f8b09c8ab88691ce2c9682cceee2f","id":74360638,"location_subtype":"","month":"2019-05"},{"category":"criminal-damage-arson","location_type":"Force","location":{"latitude":"51.451631","street":{"id":941972,"name":"On or near Albacore Crescent"},"longitude":"-0.019672"},"context":"","outcome_status":{"category":"Status update unavailable","date":"2019-09"},"persistent_id":"bddbd09750dfb328c6ee3bb69045dbf20492768c2f35e36f3c81b41b2cfd8616","id":74322830,"location_subtype":"","month":"2019-05"},{"category":"criminal-damage-arson","location_type":"Force","location":{"latitude":"51.447045","street":{"id":940225,"name":"On or near Chilthorne Close"},"longitude":"-0.030333"},"context":"","outcome_status":{"category":"Status update unavailable","date":"2019-09"},"persistent_id":"68847b75ed4d6d2e248d0adadcd4ad90cb93b90ebfaf5a17cf377402c6f7d077","id":74354538,"location_subtype":"","month":"2019-05"},{"category":"criminal-damage-arson","location_type":"Force","location":{"latitude":"51.434632","street":{"id":936835,"name":"On or near Bellingham Road"},"longitude":"-0.010984"},"context":"","outcome_status":{"category":"Status update unavailable","date":"2019-09"},"persistent_id":"5922d494ba39d1b8c37e7c882fb13f195a92d157780c5d5d06afafb7576da531","id":74322172,"location_subtype":"","month":"2019-05"},{"category":"criminal-damage-arson","location_type":"Force","location":{"latitude":"51.440842","street":{"id":940315,"name":"On or near Carholme Road"},"longitude":"-0.034759"},"context":"","outcome_status":{"category":"Status update unavailable","date":"2019-09"},"persistent_id":"594a16202982db6159f3e46f444b9580ff72df5660b460e94a36709e562880bf","id":74316441,"location_subtype":"","month":"2019-05"},{"category":"criminal-damage-arson","location_type":"Force","location":{"latitude":"51.432768","street":{"id":936957,"name":"On or near Broadmead"},"longitude":"-0.024157"},"context":"","outcome_status":{"category":"Status update unavailable","date":"2019-09"},"persistent_id":"840f4406d475e95c643f5a9e40f48a8ddfcfa1b7bf9bb0b099d51dc942598688","id":74301268,"location_subtype":"","month":"2019-05"},{"category":"criminal-damage-arson","location_type":"Force","location":{"latitude":"51.433195","street":{"id":936898,"name":"On or near Lescombe Road"},"longitude":"-0.038324"},"context":"","outcome_status":{"category":"Status update unavailable","date":"2019-09"},"persistent_id":"c5ae50528051b22d1eea2b84bf2c34e46a2e75d986efc6a2023700d2899b8193","id":74319577,"location_subtype":"","month":"2019-05"},{"category":"criminal-damage-arson","location_type":"Force","location":{"latitude":"51.452791","street":{"id":942072,"name":"On or near Dressington Avenue"},"longitude":"-0.025552"},"context":"","outcome_status":{"category":"Status update unavailable","date":"2019-09"},"persistent_id":"545217f87d411c83c288351365b02b4ac0d50c53a54faf7cdb433f60421e8b63","id":74327824,"location_subtype":"","month":"2019-05"},{"category":"criminal-damage-arson","location_type":"Force","location":{"latitude":"51.454164","street":{"id":941954,"name":"On or near Merbury Close"},"longitude":"-0.007803"},"context":"","outcome_status":{"category":"Status update unavailable","date":"2019-09"},"persistent_id":"2dcb62e88877519329b388e8e814a46aeecf4da4d3398a5758f704a1a725d728","id":74361103,"location_subtype":"","month":"2019-05"},{"category":"criminal-damage-arson","location_type":"Force","location":{"latitude":"51.446359","street":{"id":940328,"name":"On or near Mountfield Close"},"longitude":"-0.006775"},"context":"","outcome_status":{"category":"Status update unavailable","date":"2019-09"},"persistent_id":"1fcd95dd0faf8311b4612b26a5a50bbb00a4277f7c351b01ecd4925f10acfb8f","id":74329310,"location_subtype":"","month":"2019-05"},{"category":"criminal-damage-arson","location_type":"Force","location":{"latitude":"51.437449","street":{"id":936903,"name":"On or near Woolstone Road"},"longitude":"-0.038386"},"context":"","outcome_status":{"category":"Status update unavailable","date":"2019-09"},"persistent_id":"0f9dde3e3778305c372a98d90ee30d5d8ab15e89e9afc85ad8b9e2e9f6a1cfc8","id":74319231,"location_subtype":"","month":"2019-05"},{"category":"criminal-damage-arson","location_type":"Force","location":{"latitude":"51.445549","street":{"id":940376,"name":"On or near Parking Area"},"longitude":"-0.022151"},"context":"","outcome_status":{"category":"Status update unavailable","date":"2019-09"},"persistent_id":"313c980290ff42a9097918550eaceaae4530bbd6da6339620af39d2ff988de5e","id":74291149,"location_subtype":"","month":"2019-05"},{"category":"criminal-damage-arson","location_type":"Force","location":{"latitude":"51.456015","street":{"id":941888,"name":"On or near Campshill Place"},"longitude":"-0.010400"},"context":"","outcome_status":{"category":"Status update unavailable","date":"2019-09"},"persistent_id":"117a6c376b8d371c860b8d44ba1d830fcfc3e29b92a32a16e0e934ff4fd88c7c","id":74327924,"location_subtype":"","month":"2019-05"},{"category":"criminal-damage-arson","location_type":"Force","location":{"latitude":"51.453646","street":{"id":941975,"name":"On or near Hospital"},"longitude":"-0.017023"},"context":"","outcome_status":{"category":"Status update unavailable","date":"2019-09"},"persistent_id":"ace16635d1919992e71f15a4b6b27ac4978d23c5f555ad1951573d64400bc385","id":74306179,"location_subtype":"","month":"2019-05"},{"category":"criminal-damage-arson","location_type":"Force","location":{"latitude":"51.446837","street":{"id":940375,"name":"On or near Parking Area"},"longitude":"-0.021722"},"context":"","outcome_status":{"category":"Status update unavailable","date":"2019-09"},"persistent_id":"3174c36d4274c19fcaa6da15685afaa3ac9b4c65b3b510878a7c887e78543c88","id":74353236,"location_subtype":"","month":"2019-05"},{"category":"criminal-damage-arson","location_type":"Force","location":{"latitude":"51.447109","street":{"id":940393,"name":"On or near Rushey Green"},"longitude":"-0.018673"},"context":"","outcome_status":{"category":"Status update unavailable","date":"2019-09"},"persistent_id":"3daa2ce3b5522a7a2a1bf2353af1878eaa10b9087c0d1aede6af21c2ae3f6ed0","id":74347764,"location_subtype":"","month":"2019-05"},{"category":"criminal-damage-arson","location_type":"Force","location":{"latitude":"51.453646","street":{"id":941975,"name":"On or near Hospital"},"longitude":"-0.017023"},"context":"","outcome_status":{"category":"Status update unavailable","date":"2019-09"},"persistent_id":"f8855ad80ebc95ea854b27bf368813ad1be7f8a68c62e00173253e0ffdbe570f","id":74349517,"location_subtype":"","month":"2019-05"},{"category":"criminal-damage-arson","location_type":"Force","location":{"latitude":"51.439779","street":{"id":940409,"name":"On or near Canadian Avenue"},"longitude":"-0.020228"},"context":"","outcome_status":{"category":"Status update unavailable","date":"2019-09"},"persistent_id":"bc882f12865c2fd098c6231643d28611f1805342dcfe5df431242be92b55e499","id":74292983,"location_subtype":"","month":"2019-05"},{"category":"criminal-damage-arson","location_type":"Force","location":{"latitude":"51.445256","street":{"id":940252,"name":"On or near Owens Way"},"longitude":"-0.037922"},"context":"","outcome_status":{"category":"Status update unavailable","date":"2019-09"},"persistent_id":"9251bdd56328ccc466e4c94dcf8255ecaef2b28ee740e06f19ce0adf074a90bc","id":74349846,"location_subtype":"","month":"2019-05"},{"category":"criminal-damage-arson","location_type":"Force","location":{"latitude":"51.447865","street":{"id":940129,"name":"On or near Gabriel Street"},"longitude":"-0.043883"},"context":"","outcome_status":{"category":"Status update unavailable","date":"2019-09"},"persistent_id":"4d6f7f156abd9620667a1419edb031e926b25e7b5d83360fb12d26dffef62ba0","id":74291921,"location_subtype":"","month":"2019-05"},{"category":"criminal-damage-arson","location_type":"Force","location":{"latitude":"51.439378","street":{"id":940292,"name":"On or near Vancouver Road"},"longitude":"-0.037541"},"context":"","outcome_status":{"category":"Status update unavailable","date":"2019-09"},"persistent_id":"da25d3614f1fc89964eef2c04878d6c74f857e37c25ad7efe6683e097805e0bd","id":74368310,"location_subtype":"","month":"2019-05"},{"category":"criminal-damage-arson","location_type":"Force","location":{"latitude":"51.445273","street":{"id":940336,"name":"On or near Petrol Station"},"longitude":"-0.007456"},"context":"","outcome_status":{"category":"Status update unavailable","date":"2019-09"},"persistent_id":"c024a6f64961cfad1dd7da80748b7c987aa23e6415a1e317e0f5a171e5933558","id":74313431,"location_subtype":"","month":"2019-05"},{"category":"criminal-damage-arson","location_type":"Force","location":{"latitude":"51.443742","street":{"id":940345,"name":"On or near Engleheart Road"},"longitude":"-0.014214"},"context":"","outcome_status":{"category":"Status update unavailable","date":"2019-09"},"persistent_id":"5c16696e994d3eddcbb0435f1e645c4f28a06dd8a0857026eb0da9cc869ab66c","id":74315119,"location_subtype":"","month":"2019-05"},{"category":"criminal-damage-arson","location_type":"Force","location":{"latitude":"51.432768","street":{"id":936957,"name":"On or near Broadmead"},"longitude":"-0.024157"},"context":"","outcome_status":{"category":"Status update unavailable","date":"2019-09"},"persistent_id":"840f4406d475e95c643f5a9e40f48a8ddfcfa1b7bf9bb0b099d51dc942598688","id":74297015,"location_subtype":"","month":"2019-05"},{"category":"criminal-damage-arson","location_type":"Force","location":{"latitude":"51.442044","street":{"id":940230,"name":"On or near Blythe Vale"},"longitude":"-0.033527"},"context":"","outcome_status":{"category":"Status update unavailable","date":"2019-09"},"persistent_id":"d6f06e2ab9b357a8afdd63dab0e8df7f8f887bb013713a8f42075ce174dd8665","id":74339404,"location_subtype":"","month":"2019-05"},{"category":"criminal-damage-arson","location_type":"Force","location":{"latitude":"51.450064","street":{"id":940396,"name":"On or near Medusa Road"},"longitude":"-0.020057"},"context":"","outcome_status":{"category":"Status update unavailable","date":"2019-09"},"persistent_id":"5d2feb6c3aa3d7f8fb918f9f49f4e5cbc29f08dd33e215e57f3afbbf3503f9d6","id":74291573,"location_subtype":"","month":"2019-05"},{"category":"criminal-damage-arson","location_type":"Force","location":{"latitude":"51.453646","street":{"id":941975,"name":"On or near Hospital"},"longitude":"-0.017023"},"context":"","outcome_status":{"category":"Status update unavailable","date":"2019-09"},"persistent_id":"ab3d5debdac80d18141e880b9d7959b7f5eaaa77986261bb9f1392c9a2e864ff","id":74350738,"location_subtype":"","month":"2019-05"},{"category":"criminal-damage-arson","location_type":"Force","location":{"latitude":"51.450141","street":{"id":940278,"name":"On or near Tatnell Road"},"longitude":"-0.042333"},"context":"","outcome_status":{"category":"Status update unavailable","date":"2019-09"},"persistent_id":"44cb3054aa3f6811d17a0ef20940ddf8bd3a299439d525f91bc25f84745a02d1","id":74371071,"location_subtype":"","month":"2019-05"},{"category":"criminal-damage-arson","location_type":"Force","location":{"latitude":"51.443044","street":{"id":940092,"name":"On or near Wastdale Road"},"longitude":"-0.045989"},"context":"","outcome_status":{"category":"Status update unavailable","date":"2019-09"},"persistent_id":"67174f4279828e448c924ca95e95f414d75d4b281467378676d5a819b08778ab","id":74299839,"location_subtype":"","month":"2019-05"},{"category":"criminal-damage-arson","location_type":"Force","location":{"latitude":"51.451805","street":{"id":941957,"name":"On or near Lanier Road"},"longitude":"-0.007675"},"context":"","outcome_status":{"category":"Status update unavailable","date":"2019-09"},"persistent_id":"c06e8463b9df3cf835593f2dd775c403b400a3bc2f3778d22c43bbd211ecaca0","id":74291222,"location_subtype":"","month":"2019-05"},{"category":"criminal-damage-arson","location_type":"Force","location":{"latitude":"51.439925","street":{"id":940296,"name":"On or near Hurstbourne Road"},"longitude":"-0.038553"},"context":"","outcome_status":{"category":"Status update unavailable","date":"2019-09"},"persistent_id":"28d4a10261a67be1be08f46dbd27b5f6649fcc7a0349ab3fba20a96ad77d92d9","id":74366995,"location_subtype":"","month":"2019-05"},{"category":"criminal-damage-arson","location_type":"Force","location":{"latitude":"51.454288","street":{"id":942083,"name":"On or near Eddystone Road"},"longitude":"-0.039190"},"context":"","outcome_status":{"category":"Status update unavailable","date":"2019-09"},"persistent_id":"e0c446b2604bca1472f025abfd6db07c5ce7116d6dcfe7d2e0c599fbc5287003","id":74302267,"location_subtype":"","month":"2019-05"},{"category":"criminal-damage-arson","location_type":"Force","location":{"latitude":"51.442191","street":{"id":940383,"name":"On or near Canadian Avenue"},"longitude":"-0.022455"},"context":"","outcome_status":{"category":"Investigation complete; no suspect identified","date":"2020-06"},"persistent_id":"743c54c8034af4be4819d06d268de4777cba9a6ff4da044edf3e2c9a347d7870","id":74301884,"location_subtype":"","month":"2019-05"},{"category":"criminal-damage-arson","location_type":"Force","location":{"latitude":"51.439057","street":{"id":940406,"name":"On or near Sambruck Mews"},"longitude":"-0.018461"},"context":"","outcome_status":{"category":"Status update unavailable","date":"2019-09"},"persistent_id":"c4db7fd8eaee17e26bd3356685a499a0c064fbf8deb8a0bc24d7397ae19e813b","id":74359403,"location_subtype":"","month":"2019-05"},{"category":"criminal-damage-arson","location_type":"Force","location":{"latitude":"51.444873","street":{"id":940384,"name":"On or near Bowness Road"},"longitude":"-0.016194"},"context":"","outcome_status":{"category":"Status update unavailable","date":"2019-09"},"persistent_id":"b3bf2cab448065b6b41b5e8829b66ec71d20fa9bd4501936fcd77bd3b5294068","id":74302163,"location_subtype":"","month":"2019-05"},{"category":"criminal-damage-arson","location_type":"BTP","location":{"latitude":"51.433045","street":{"id":1489584,"name":"Bellingham (station)"},"longitude":"-0.019282"},"context":"","outcome_status":{"category":"Status update unavailable","date":"2019-09"},"persistent_id":"","id":88717920,"location_subtype":"STATION","month":"2019-05"},{"category":"criminal-damage-arson","location_type":"Force","location":{"latitude":"51.442333","street":{"id":940381,"name":"On or near Culverley Road"},"longitude":"-0.015426"},"context":"","outcome_status":{"category":"Status update unavailable","date":"2019-09"},"persistent_id":"6d8004f9c45e1c9d48c8db33d4167453dfc04402cdbf87001a9d749610430e15","id":74351760,"location_subtype":"","month":"2019-05"},{"category":"drugs","location_type":"Force","location":{"latitude":"51.430967","street":{"id":936817,"name":"On or near Brookehowse Road"},"longitude":"-0.021371"},"context":"","outcome_status":{"category":"Court result unavailable","date":"2020-06"},"persistent_id":"0def9c58b338496276a0c259dd6f2779a7289fac82225ba0a8e2a57a6a0d6d3d","id":74355541,"location_subtype":"","month":"2019-05"},{"category":"drugs","location_type":"Force","location":{"latitude":"51.458473","street":{"id":942057,"name":"On or near Adelaide Avenue"},"longitude":"-0.027610"},"context":"","outcome_status":{"category":"Local resolution","date":"2019-06"},"persistent_id":"18fc00cebbea311376c94b7e3a3b144b57e4648ff82f30b79e0c49b70ea71a1f","id":74334906,"location_subtype":"","month":"2019-05"},{"category":"drugs","location_type":"Force","location":{"latitude":"51.451288","street":{"id":941969,"name":"On or near Lewisham High Street"},"longitude":"-0.016909"},"context":"","outcome_status":{"category":"Court result unavailable","date":"2020-01"},"persistent_id":"88c222911402bb958c8c3c808431453c408dcfacb63cb9451f1590279b32b9bb","id":74337298,"location_subtype":"","month":"2019-05"},{"category":"drugs","location_type":"Force","location":{"latitude":"51.457692","street":{"id":941838,"name":"On or near Whitburn Road"},"longitude":"-0.014890"},"context":"","outcome_status":{"category":"Local resolution","date":"2019-06"},"persistent_id":"4a66231d442b5e46ee0b79343d866253d031dab67f600f9dcf268c13c9cd2896","id":74337297,"location_subtype":"","month":"2019-05"},{"category":"drugs","location_type":"Force","location":{"latitude":"51.437987","street":{"id":940410,"name":"On or near Bromley Road"},"longitude":"-0.019011"},"context":"","outcome_status":{"category":"Offender given penalty notice","date":"2019-06"},"persistent_id":"0bca4e7a711ead19ae16e57e39b15043211c68366447f55f8da0e883fe2bf3f1","id":74336227,"location_subtype":"","month":"2019-05"},{"category":"drugs","location_type":"Force","location":{"latitude":"51.453646","street":{"id":941975,"name":"On or near Hospital"},"longitude":"-0.017023"},"context":"","outcome_status":{"category":"Investigation complete; no suspect identified","date":"2020-03"},"persistent_id":"8585fcdf26df9d99de89f5e60647712577e8efb69ed7c7760f920a0101298cf8","id":74338866,"location_subtype":"","month":"2019-05"},{"category":"drugs","location_type":"Force","location":{"latitude":"51.441403","street":{"id":940411,"name":"On or near Bromley Road"},"longitude":"-0.020546"},"context":"","outcome_status":{"category":"Court result unavailable","date":"2020-03"},"persistent_id":"a8d05e026d2766a96129d50211e016f64c5b73dbf3ce3cfbb15e59ce5b1c0bc6","id":74358578,"location_subtype":"","month":"2019-05"},{"category":"drugs","location_type":"Force","location":{"latitude":"51.445549","street":{"id":940376,"name":"On or near Parking Area"},"longitude":"-0.022151"},"context":"","outcome_status":{"category":"Local resolution","date":"2019-05"},"persistent_id":"62dd7b379d85d25dd3dcb14763fc49112ab7b7f5ab790e5c848bca15275ebf5b","id":74297940,"location_subtype":"","month":"2019-05"},{"category":"drugs","location_type":"Force","location":{"latitude":"51.432504","street":{"id":936823,"name":"On or near Supermarket"},"longitude":"-0.021291"},"context":"","outcome_status":{"category":"Local resolution","date":"2019-05"},"persistent_id":"fb74e8dd334c902a0d5f58d0843c1e3bbdf0a165f5f1a0d016bf92e8164f5a7a","id":74351881,"location_subtype":"","month":"2019-05"},{"category":"drugs","location_type":"Force","location":{"latitude":"51.444533","street":{"id":940386,"name":"On or near Supermarket"},"longitude":"-0.018986"},"context":"","outcome_status":{"category":"Court result unavailable","date":"2019-11"},"persistent_id":"35ee617296603951717b5bf732e255c598a89773badca1adbcabdab55fba554f","id":74370294,"location_subtype":"","month":"2019-05"},{"category":"drugs","location_type":"Force","location":{"latitude":"51.444087","street":{"id":940378,"name":"On or near Sangley Road"},"longitude":"-0.019207"},"context":"","outcome_status":{"category":"Local resolution","date":"2019-05"},"persistent_id":"4d503d4dcc259cabc22c2864baa4c498855b31c22728af95418dc5c573954b3b","id":74340583,"location_subtype":"","month":"2019-05"},{"category":"drugs","location_type":"Force","location":{"latitude":"51.455055","street":{"id":942028,"name":"On or near Peppermead Square"},"longitude":"-0.022719"},"context":"","outcome_status":{"category":"Local resolution","date":"2019-05"},"persistent_id":"69f878db34b9ba2b227eba72c6b7ea8da7ff337241ebc14ff40406c6962fd8c9","id":74290991,"location_subtype":"","month":"2019-05"},{"category":"drugs","location_type":"Force","location":{"latitude":"51.447476","street":{"id":940397,"name":"On or near Marryfields Way"},"longitude":"-0.017520"},"context":"","outcome_status":{"category":"Offender given penalty notice","date":"2019-05"},"persistent_id":"ecebae0604dd371d2120880f82ae49cefce232b20aaf245cc975464b0e9eea86","id":74363441,"location_subtype":"","month":"2019-05"},{"category":"drugs","location_type":"Force","location":{"latitude":"51.451153","street":{"id":941948,"name":"On or near Theodore Road"},"longitude":"-0.007358"},"context":"","outcome_status":{"category":"Local resolution","date":"2019-05"},"persistent_id":"63568a1bfe8e62a2986a171d1f8808008713b0d6d99454ef223032ad4b6b835e","id":74296613,"location_subtype":"","month":"2019-05"},{"category":"drugs","location_type":"Force","location":{"latitude":"51.447394","street":{"id":940398,"name":"On or near Honley Road"},"longitude":"-0.015308"},"context":"","outcome_status":{"category":"Local resolution","date":"2019-05"},"persistent_id":"7fa29c4b125709669289db35d2eb007a764369b657f71696a17d49647c5d08ad","id":74322147,"location_subtype":"","month":"2019-05"},{"category":"drugs","location_type":"Force","location":{"latitude":"51.432087","street":{"id":936812,"name":"On or near Orford Road"},"longitude":"-0.017885"},"context":"","outcome_status":{"category":"Local resolution","date":"2019-05"},"persistent_id":"e79575eb7b0114517802a5f31f11db92bd76be50f415477ba12f7c3ed46b5d3f","id":74317172,"location_subtype":"","month":"2019-05"},{"category":"drugs","location_type":"Force","location":{"latitude":"51.447588","street":{"id":940243,"name":"On or near Iona Close"},"longitude":"-0.028439"},"context":"","outcome_status":{"category":"Status update unavailable","date":"2019-09"},"persistent_id":"bb5ad3cd5b300e2a74e1ff921a97121df195be7ba308d986f705f66ff101f221","id":74307572,"location_subtype":"","month":"2019-05"},{"category":"drugs","location_type":"Force","location":{"latitude":"51.439699","street":{"id":940312,"name":"On or near Creeland Grove"},"longitude":"-0.030966"},"context":"","outcome_status":{"category":"Court result unavailable","date":"2019-11"},"persistent_id":"fc083be2c99bbdfb621d348de19dae149a3c3b9e8e883f9ef1a7424cdf948cff","id":74350475,"location_subtype":"","month":"2019-05"},{"category":"drugs","location_type":"Force","location":{"latitude":"51.447476","street":{"id":940397,"name":"On or near Marryfields Way"},"longitude":"-0.017520"},"context":"","outcome_status":{"category":"Local resolution","date":"2019-05"},"persistent_id":"13cf3fec518ff3f955703ca5c0326641e9ec59b7a600267e0997167c565cc990","id":74351665,"location_subtype":"","month":"2019-05"},{"category":"drugs","location_type":"Force","location":{"latitude":"51.442556","street":{"id":940214,"name":"On or near Stanstead Road"},"longitude":"-0.030282"},"context":"","outcome_status":{"category":"Status update unavailable","date":"2019-09"},"persistent_id":"16ad4dc2eec1bd60ca37e6bc090e54531a47b587e1aa4e9baadba46b879e0570","id":74291437,"location_subtype":"","month":"2019-05"},{"category":"drugs","location_type":"Force","location":{"latitude":"51.452625","street":{"id":941949,"name":"On or near St Swithun's Road"},"longitude":"-0.006171"},"context":"","outcome_status":{"category":"Court result unavailable","date":"2019-11"},"persistent_id":"633c1beda740ee9cd3ff9315de64938ddaaf70f2e7fd408646ddd976b0721b96","id":74308360,"location_subtype":"","month":"2019-05"},{"category":"drugs","location_type":"Force","location":{"latitude":"51.451206","street":{"id":941940,"name":"On or near Mount Pleasant Road"},"longitude":"-0.012624"},"context":"","outcome_status":{"category":"Local resolution","date":"2019-06"},"persistent_id":"c6b7c02d0f80d1692201c6f8010b19590f8cd53532cc65ba7fdd6dd466b2b210","id":74291337,"location_subtype":"","month":"2019-05"},{"category":"drugs","location_type":"Force","location":{"latitude":"51.455055","street":{"id":942028,"name":"On or near Peppermead Square"},"longitude":"-0.022719"},"context":"","outcome_status":{"category":"Court result unavailable","date":"2020-01"},"persistent_id":"b6fba1a8a1c795577df57c53a91ae17915d4cab1410d4deb43295a0a7466aede","id":74295123,"location_subtype":"","month":"2019-05"},{"category":"drugs","location_type":"Force","location":{"latitude":"51.432977","street":{"id":936811,"name":"On or near Randlesdown Road"},"longitude":"-0.018422"},"context":"","outcome_status":{"category":"Local resolution","date":"2019-06"},"persistent_id":"5cf549b83850d51589f8419f8a379d03a9673808b2ab6a6fce3b05952e8c5e8e","id":74336446,"location_subtype":"","month":"2019-05"},{"category":"drugs","location_type":"Force","location":{"latitude":"51.434423","street":{"id":936952,"name":"On or near Clowders Road"},"longitude":"-0.033782"},"context":"","outcome_status":{"category":"Local resolution","date":"2019-05"},"persistent_id":"3c083e00ebee6794a6e79ef64be64b33b15769a45d12beb66d3a868f836adad5","id":74312438,"location_subtype":"","month":"2019-05"},{"category":"drugs","location_type":"Force","location":{"latitude":"51.444087","street":{"id":940378,"name":"On or near Sangley Road"},"longitude":"-0.019207"},"context":"","outcome_status":{"category":"Status update unavailable","date":"2019-09"},"persistent_id":"6226d90b766d456fd2628c14121705245f3f7d36927d09ecc3eb1c4ca5f4fb49","id":74337021,"location_subtype":"","month":"2019-05"},{"category":"drugs","location_type":"Force","location":{"latitude":"51.455497","street":{"id":941851,"name":"On or near Legge Street"},"longitude":"-0.014841"},"context":"","outcome_status":{"category":"Local resolution","date":"2019-05"},"persistent_id":"b55c0efd2d199341c19777fc4334e5c30d4e85103d102cd486379e4eb142d470","id":74290952,"location_subtype":"","month":"2019-05"},{"category":"drugs","location_type":"Force","location":{"latitude":"51.436067","street":{"id":936946,"name":"On or near Helvetia Street"},"longitude":"-0.035294"},"context":"","outcome_status":{"category":"Local resolution","date":"2019-08"},"persistent_id":"66b52392b969eb2d949d510a85dc0f452adf0e5e8705352df4768fa03237b024","id":74291468,"location_subtype":"","month":"2019-05"},{"category":"drugs","location_type":"Force","location":{"latitude":"51.444533","street":{"id":940386,"name":"On or near Supermarket"},"longitude":"-0.018986"},"context":"","outcome_status":{"category":"Local resolution","date":"2019-06"},"persistent_id":"7e29367c12d5e78d3c24d3bc4eb111bef3e08a15c2128de4fc48e8f8dbd67738","id":74363435,"location_subtype":"","month":"2019-05"},{"category":"other-theft","location_type":"Force","location":{"latitude":"51.444087","street":{"id":940378,"name":"On or near Sangley Road"},"longitude":"-0.019207"},"context":"","outcome_status":{"category":"Status update unavailable","date":"2019-09"},"persistent_id":"6cbd9ad32056f7e147d60218e94c44b49594816b3ab51774e678ed34cb4ab9d6","id":74305280,"location_subtype":"","month":"2019-05"},{"category":"other-theft","location_type":"Force","location":{"latitude":"51.441403","street":{"id":940411,"name":"On or near Bromley Road"},"longitude":"-0.020546"},"context":"","outcome_status":{"category":"Status update unavailable","date":"2019-09"},"persistent_id":"43539f917d4704452884e93982f92c38ca64b0b6523cdabbad29c8f5c55b06c5","id":74340960,"location_subtype":"","month":"2019-05"},{"category":"other-theft","location_type":"Force","location":{"latitude":"51.446557","street":{"id":940379,"name":"On or near Ringstead Road"},"longitude":"-0.015848"},"context":"","outcome_status":{"category":"Status update unavailable","date":"2019-09"},"persistent_id":"72696d3631093949509678e193d0b9cb7e957ce72a91a30b4ba3ed9f3006daf2","id":74354075,"location_subtype":"","month":"2019-05"},