[{"category":"anti-social-behaviour","location_type":"Force","location":{"latitude":"51.692370","street":{"id":791160,"name":"On or near Theobald's Grove"},"longitude":"-0.034575"},"context":"","outcome_status":null,"persistent_id":"","id":75225259,"location_subtype":"","month":"2019-05"},{"category":"anti-social-behaviour","location_type":"Force","location":{"latitude":"51.714750","street":{"id":792415,"name":"On or near Cheshunt Wash"},"longitude":"-0.029652"},"context":"","outcome_status":null,"persistent_id":"","id":75227771,"location_subtype":"","month":"2019-05"},{"category":"anti-social-behaviour","location_type":"Force","location":{"latitude":"51.700921","street":{"id":791117,"name":"On or near Sports\/recreation Area"},"longitude":"-0.030774"},"context":"","outcome_status":null,"persistent_id":"","id":75227617,"location_subtype":"","month":"2019-05"},{"category":"anti-social-behaviour","location_type":"Force","location":{"latitude":"51.703404","street":{"id":792372,"name":"On or near Parking Area"},"longitude":"-0.023387"},"context":"","outcome_status":null,"persistent_id":"","id":75227119,"location_subtype":"","month":"2019-05"},{"category":"anti-social-behaviour","location_type":"Force","location":{"latitude":"51.700659","street":{"id":791181,"name":"On or near Farm Close"},"longitude":"-0.043072"},"context":"","outcome_status":null,"persistent_id":"","id":75226965,"location_subtype":"","month":"2019-05"},{"category":"anti-social-behaviour","location_type":"Force","location":{"latitude":"51.709261","street":{"id":792265,"name":"On or near Kilsmore Lane"},"longitude":"-0.038561"},"context":"","outcome_status":null,"persistent_id":"","id":75226929,"location_subtype":"","month":"2019-05"},{"category":"anti-social-behaviour","location_type":"Force","location":{"latitude":"51.706197","street":{"id":792251,"name":"On or near Rainer Close"},"longitude":"-0.039258"},"context":"","outcome_status":null,"persistent_id":"","id":75226841,"location_subtype":"","month":"2019-05"},{"category":"anti-social-behaviour","location_type":"Force","location":{"latitude":"51.709585","street":{"id":792254,"name":"On or near Pettys Close"},"longitude":"-0.038562"},"context":"","outcome_status":null,"persistent_id":"","id":75228679,"location_subtype":"","month":"2019-05"},{"category":"anti-social-behaviour","location_type":"Force","location":{"latitude":"51.700970","street":{"id":791167,"name":"On or near Lynton Parade"},"longitude":"-0.034245"},"context":"","outcome_status":null,"persistent_id":"","id":75228617,"location_subtype":"","month":"2019-05"},{"category":"anti-social-behaviour","location_type":"Force","location":{"latitude":"51.705828","street":{"id":792284,"name":"On or near Gew's Corner"},"longitude":"-0.033861"},"context":"","outcome_status":null,"persistent_id":"","id":75228534,"location_subtype":"","month":"2019-05"},{"category":"anti-social-behaviour","location_type":"Force","location":{"latitude":"51.702233","street":{"id":792239,"name":"On or near Turner's Hill"},"longitude":"-0.034495"},"context":"","outcome_status":null,"persistent_id":"","id":75226827,"location_subtype":"","month":"2019-05"},{"category":"anti-social-behaviour","location_type":"Force","location":{"latitude":"51.701569","street":{"id":791206,"name":"On or near Albury Grove Road"},"longitude":"-0.036173"},"context":"","outcome_status":null,"persistent_id":"","id":75226763,"location_subtype":"","month":"2019-05"},{"category":"anti-social-behaviour","location_type":"Force","location":{"latitude":"51.702233","street":{"id":792239,"name":"On or near Turner's Hill"},"longitude":"-0.034495"},"context":"","outcome_status":null,"persistent_id":"","id":75226737,"location_subtype":"","month":"2019-05"},{"category":"anti-social-behaviour","location_type":"Force","location":{"latitude":"51.700659","street":{"id":791181,"name":"On or near Farm Close"},"longitude":"-0.043072"},"context":"","outcome_status":null,"persistent_id":"","id":75226726,"location_subtype":"","month":"2019-05"},{"category":"anti-social-behaviour","location_type":"Force","location":{"latitude":"51.697804","street":{"id":791170,"name":"On or near Laburnum Close"},"longitude":"-0.035309"},"context":"","outcome_status":null,"persistent_id":"","id":75226663,"location_subtype":"","month":"2019-05"},{"category":"anti-social-behaviour","location_type":"Force","location":{"latitude":"51.700659","street":{"id":791181,"name":"On or near Farm Close"},"longitude":"-0.043072"},"context":"","outcome_status":null,"persistent_id":"","id":75227347,"location_subtype":"","month":"2019-05"},{"category":"anti-social-behaviour","location_type":"Force","location":{"latitude":"51.707121","street":{"id":792269,"name":"On or near High Street"},"longitude":"-0.036931"},"context":"","outcome_status":null,"persistent_id":"","id":75226212,"location_subtype":"","month":"2019-05"},{"category":"anti-social-behaviour","location_type":"Force","location":{"latitude":"51.702457","street":{"id":792381,"name":"On or near Shalcross Drive"},"longitude":"-0.025353"},"context":"","outcome_status":null,"persistent_id":"","id":75226049,"location_subtype":"","month":"2019-05"},{"category":"anti-social-behaviour","location_type":"Force","location":{"latitude":"51.702233","street":{"id":792239,"name":"On or near Turner's Hill"},"longitude":"-0.034495"},"context":"","outcome_status":null,"persistent_id":"","id":75226003,"location_subtype":"","month":"2019-05"},{"category":"anti-social-behaviour","location_type":"Force","location":{"latitude":"51.703404","street":{"id":792372,"name":"On or near Parking Area"},"longitude":"-0.023387"},"context":"","outcome_status":null,"persistent_id":"","id":75225256,"location_subtype":"","month":"2019-05"},{"category":"anti-social-behaviour","location_type":"Force","location":{"latitude":"51.701856","street":{"id":791207,"name":"On or near Supermarket"},"longitude":"-0.033990"},"context":"","outcome_status":null,"persistent_id":"","id":75225000,"location_subtype":"","month":"2019-05"},{"category":"anti-social-behaviour","location_type":"Force","location":{"latitude":"51.691025","street":{"id":791169,"name":"On or near Lambton Avenue"},"longitude":"-0.035385"},"context":"","outcome_status":null,"persistent_id":"","id":75224989,"location_subtype":"","month":"2019-05"},{"category":"anti-social-behaviour","location_type":"Force","location":{"latitude":"51.708530","street":{"id":792294,"name":"On or near Cottage Gardens"},"longitude":"-0.039490"},"context":"","outcome_status":null,"persistent_id":"","id":75226359,"location_subtype":"","month":"2019-05"},{"category":"anti-social-behaviour","location_type":"Force","location":{"latitude":"51.710412","street":{"id":792262,"name":"On or near Lawrance Gardens"},"longitude":"-0.033156"},"context":"","outcome_status":null,"persistent_id":"","id":75226307,"location_subtype":"","month":"2019-05"},{"category":"anti-social-behaviour","location_type":"Force","location":{"latitude":"51.696162","street":{"id":791110,"name":"On or near Dairyglen Avenue"},"longitude":"-0.032804"},"context":"","outcome_status":null,"persistent_id":"","id":75224141,"location_subtype":"","month":"2019-05"},{"category":"anti-social-behaviour","location_type":"Force","location":{"latitude":"51.708157","street":{"id":792378,"name":"On or near Fieldings Road"},"longitude":"-0.024222"},"context":"","outcome_status":null,"persistent_id":"","id":75223983,"location_subtype":"","month":"2019-05"},{"category":"anti-social-behaviour","location_type":"Force","location":{"latitude":"51.702620","street":{"id":792297,"name":"On or near College Road"},"longitude":"-0.043132"},"context":"","outcome_status":null,"persistent_id":"","id":75223928,"location_subtype":"","month":"2019-05"},{"category":"anti-social-behaviour","location_type":"Force","location":{"latitude":"51.700659","street":{"id":791181,"name":"On or near Farm Close"},"longitude":"-0.043072"},"context":"","outcome_status":null,"persistent_id":"","id":75225563,"location_subtype":"","month":"2019-05"},{"category":"anti-social-behaviour","location_type":"Force","location":{"latitude":"51.706527","street":{"id":792309,"name":"On or near Cambridge Close"},"longitude":"-0.041791"},"context":"","outcome_status":null,"persistent_id":"","id":74282430,"location_subtype":"","month":"2019-05"},{"category":"anti-social-behaviour","location_type":"Force","location":{"latitude":"51.700970","street":{"id":791167,"name":"On or near Lynton Parade"},"longitude":"-0.034245"},"context":"","outcome_status":null,"persistent_id":"","id":75229859,"location_subtype":"","month":"2019-05"},{"category":"anti-social-behaviour","location_type":"Force","location":{"latitude":"51.700921","street":{"id":791117,"name":"On or near Sports\/recreation Area"},"longitude":"-0.030774"},"context":"","outcome_status":null,"persistent_id":"","id":75229803,"location_subtype":"","month":"2019-05"},{"category":"anti-social-behaviour","location_type":"Force","location":{"latitude":"51.692370","street":{"id":791160,"name":"On or near Theobald's Grove"},"longitude":"-0.034575"},"context":"","outcome_status":null,"persistent_id":"","id":75229731,"location_subtype":"","month":"2019-05"},{"category":"anti-social-behaviour","location_type":"Force","location":{"latitude":"51.699684","street":{"id":791126,"name":"On or near Darcy Close"},"longitude":"-0.026197"},"context":"","outcome_status":null,"persistent_id":"","id":75229612,"location_subtype":"","month":"2019-05"},{"category":"anti-social-behaviour","location_type":"Force","location":{"latitude":"51.710412","street":{"id":792262,"name":"On or near Lawrance Gardens"},"longitude":"-0.033156"},"context":"","outcome_status":null,"persistent_id":"","id":75229311,"location_subtype":"","month":"2019-05"},{"category":"anti-social-behaviour","location_type":"Force","location":{"latitude":"51.708530","street":{"id":792294,"name":"On or near Cottage Gardens"},"longitude":"-0.039490"},"context":"","outcome_status":null,"persistent_id":"","id":75229252,"location_subtype":"","month":"2019-05"},{"category":"anti-social-behaviour","location_type":"Force","location":{"latitude":"51.702796","street":{"id":792385,"name":"On or near Windmill Lane"},"longitude":"-0.028363"},"context":"","outcome_status":null,"persistent_id":"","id":75229111,"location_subtype":"","month":"2019-05"},{"category":"anti-social-behaviour","location_type":"Force","location":{"latitude":"51.714028","street":{"id":792278,"name":"On or near Great Cambridge Road"},"longitude":"-0.035923"},"context":"","outcome_status":null,"persistent_id":"","id":75228974,"location_subtype":"","month":"2019-05"},{"category":"anti-social-behaviour","location_type":"Force","location":{"latitude":"51.709384","street":{"id":792261,"name":"On or near Leyland Close"},"longitude":"-0.041089"},"context":"","outcome_status":null,"persistent_id":"","id":75228824,"location_subtype":"","month":"2019-05"},{"category":"anti-social-behaviour","location_type":"Force","location":{"latitude":"51.713558","street":{"id":792288,"name":"On or near Drakes Close"},"longitude":"-0.035234"},"context":"","outcome_status":null,"persistent_id":"","id":75228783,"location_subtype":"","month":"2019-05"},{"category":"anti-social-behaviour","location_type":"Force","location":{"latitude":"51.701856","street":{"id":791207,"name":"On or near Supermarket"},"longitude":"-0.033990"},"context":"","outcome_status":null,"persistent_id":"","id":75228117,"location_subtype":"","month":"2019-05"},{"category":"bicycle-theft","location_type":"Force","location":{"latitude":"51.708370","street":{"id":792322,"name":"On or near Supermarket"},"longitude":"-0.037456"},"context":"","outcome_status":{"category":"Investigation complete; no suspect identified","date":"2019-06"},"persistent_id":"470d3b9927375edea38061eebbdcefc24f99159e9f6b0ad60a335e1a29c22b09","id":75205262,"location_subtype":"","month":"2019-05"},{"category":"bicycle-theft","location_type":"Force","location":{"latitude":"51.703404","street":{"id":792372,"name":"On or near Parking Area"},"longitude":"-0.023387"},"context":"","outcome_status":{"category":"Status update unavailable","date":"2019-09"},"persistent_id":"ffd95a78ba3c02e9a37b6252bd298e0fa24b9f46dacf464c3f7f4c3727e67743","id":75208391,"location_subtype":"","month":"2019-05"},{"category":"bicycle-theft","location_type":"Force","location":{"latitude":"51.702457","street":{"id":792381,"name":"On or near Shalcross Drive"},"longitude":"-0.025353"},"context":"","outcome_status":{"category":"Investigation complete; no suspect identified","date":"2019-06"},"persistent_id":"227cfbda9ab690fbfdfc8f674771a7477959b06dd5d6af5cadd6e34f74aa00bd","id":75209862,"location_subtype":"","month":"2019-05"},{"category":"bicycle-theft","location_type":"Force","location":{"latitude":"51.703404","street":{"id":792372,"name":"On or near Parking Area"},"longitude":"-0.023387"},"context":"","outcome_status":{"category":"Status update unavailable","date":"2019-09"},"persistent_id":"5843b3fdc256b8a8884d7012e7c17b24a967e2a2f562012dd49fe1efd65ebfca","id":75217324,"location_subtype":"","month":"2019-05"},{"category":"burglary","location_type":"Force","location":{"latitude":"51.696590","street":{"id":791094,"name":"On or near Shortmead Drive"},"longitude":"-0.029371"},"context":"","outcome_status":{"category":"Investigation complete; no suspect identified","date":"2019-07"},"persistent_id":"999da44b74727f8f6f672fc27b3b690482c4ea685712c0095c65e3cb7d17ce34","id":75203633,"location_subtype":"","month":"2019-05"},{"category":"burglary","location_type":"Force","location":{"latitude":"51.698671","street":{"id":791102,"name":"On or near Holme Close"},"longitude":"-0.030669"},"context":"","outcome_status":{"category":"Investigation complete; no suspect identified","date":"2019-06"},"persistent_id":"e5e19a49e356dbfd6c3c5c1b628124a978dd76182a3b27006f3ed15119542c0c","id":75221221,"location_subtype":"","month":"2019-05"},{"category":"burglary","location_type":"Force","location":{"latitude":"51.705579","street":{"id":792418,"name":"On or near Bullwell Crescent"},"longitude":"-0.030760"},"context":"","outcome_status":{"category":"Investigation complete; no suspect identified","date":"2019-08"},"persistent_id":"c17fe098285f6e59c724174d98219cbe967ef34ef9fe76ceeaac796aa0b371eb","id":75205244,"location_subtype":"","month":"2019-05"},{"category":"burglary","location_type":"Force","location":{"latitude":"51.708776","street":{"id":792371,"name":"On or near Parking Area"},"longitude":"-0.035383"},"context":"","outcome_status":{"category":"Investigation complete; no suspect identified","date":"2019-06"},"persistent_id":"54d9cbaec366cee3f17be719e4a079fe9dec2c05ba07dc31c1521ca2b9bb5115","id":75216386,"location_subtype":"","month":"2019-05"},{"category":"burglary","location_type":"Force","location":{"latitude":"51.697804","street":{"id":791170,"name":"On or near Laburnum Close"},"longitude":"-0.035309"},"context":"","outcome_status":{"category":"Investigation complete; no suspect identified","date":"2019-05"},"persistent_id":"b936340f322deaf53e572d7a9fdd2f17d911b8bcbed757db9ce51478a43e6d3a","id":75214118,"location_subtype":"","month":"2019-05"},{"category":"burglary","location_type":"Force","location":{"latitude":"51.697109","street":{"id":791115,"name":"On or near Acton Close"},"longitude":"-0.031895"},"context":"","outcome_status":{"category":"Investigation complete; no suspect identified","date":"2019-06"},"persistent_id":"3017d6dcdd7ea27a0f0831deef113ede06689e2612cebe30cdec5965de9db5bd","id":75219408,"location_subtype":"","month":"2019-05"},{"category":"burglary","location_type":"Force","location":{"latitude":"51.702620","street":{"id":792297,"name":"On or near College Road"},"longitude":"-0.043132"},"context":"","outcome_status":{"category":"Status update unavailable","date":"2019-09"},"persistent_id":"313ee664b31f47bc49050e2b40875e628b19dc17ae27fd9cd1ac65f542a2e8e5","id":75201489,"location_subtype":"","month":"2019-05"},{"category":"burglary","location_type":"Force","location":{"latitude":"51.702457","street":{"id":792381,"name":"On or near Shalcross Drive"},"longitude":"-0.025353"},"context":"","outcome_status":{"category":"Status update unavailable","date":"2019-09"},"persistent_id":"546ae93f5df5a1cd9d488c258e5a4747b6cb91481fb8841a2a3cd37a74897a36","id":75201497,"location_subtype":"","month":"2019-05"},{"category":"burglary","location_type":"Force","location":{"latitude":"51.690480","street":{"id":791118,"name":"On or near Supermarket"},"longitude":"-0.033398"},"context":"","outcome_status":{"category":"Status update unavailable","date":"2019-09"},"persistent_id":"cd020a4609846fba70477c32685c7ddcb7bda129b2df3873c3397e024b5db88b","id":74313463,"location_subtype":"","month":"2019-05"},{"category":"criminal-damage-arson","location_type":"Force","location":{"latitude":"51.699684","street":{"id":791126,"name":"On or near Darcy Close"},"longitude":"-0.026197"},"context":"","outcome_status":{"category":"Status update unavailable","date":"2019-09"},"persistent_id":"0677513dbf61184382fd7d65703e09dfa0b2f21d207a1bd4ebb5dcbbc4f8b792","id":75217587,"location_subtype":"","month":"2019-05"},{"category":"criminal-damage-arson","location_type":"Force","location":{"latitude":"51.708157","street":{"id":792378,"name":"On or near Fieldings Road"},"longitude":"-0.024222"},"context":"","outcome_status":{"category":"Unable to prosecute suspect","date":"2019-06"},"persistent_id":"18795a34882d699a6d27722a1d9f54c8e7826e5a22f64d33345be52d4f1c1333","id":75203387,"location_subtype":"","month":"2019-05"},{"category":"criminal-damage-arson","location_type":"Force","location":{"latitude":"51.693669","street":{"id":791107,"name":"On or near Felstead Road"},"longitude":"-0.027313"},"context":"","outcome_status":{"category":"Offender given a caution","date":"2019-05"},"persistent_id":"f19a7bcaa14884db2df1807c7cfbf1b4f5ac6acc824c302172dcab97d87ddfd0","id":75212462,"location_subtype":"","month":"2019-05"},{"category":"criminal-damage-arson","location_type":"Force","location":{"latitude":"51.702924","street":{"id":792281,"name":"On or near Great Cambridge Road"},"longitude":"-0.043032"},"context":"","outcome_status":{"category":"Court result unavailable","date":"2019-11"},"persistent_id":"87cb4aff305cb2746bae0ee4790455c96fcc688a01ebe8fb4b11c6a1664434c1","id":75212212,"location_subtype":"","month":"2019-05"},{"category":"criminal-damage-arson","location_type":"Force","location":{"latitude":"51.693309","street":{"id":791159,"name":"On or near Theobald's Lane"},"longitude":"-0.039671"},"context":"","outcome_status":{"category":"Investigation complete; no suspect identified","date":"2019-05"},"persistent_id":"3604e7285e82bc32e04b019c176e53e77a33876cbf92f40da799273b69f76683","id":75211793,"location_subtype":"","month":"2019-05"},{"category":"criminal-damage-arson","location_type":"Force","location":{"latitude":"51.708426","street":{"id":792270,"name":"On or near High Street"},"longitude":"-0.037020"},"context":"","outcome_status":{"category":"Investigation complete; no suspect identified","date":"2019-05"},"persistent_id":"02fdaf770d071bae3cbbce17d9aa87b27af7df3076568e08faf11328efde6095","id":75211765,"location_subtype":"","month":"2019-05"},{"category":"criminal-damage-arson","location_type":"Force","location":{"latitude":"51.691857","street":{"id":791087,"name":"On or near Trinity Lane"},"longitude":"-0.030300"},"context":"","outcome_status":{"category":"Investigation complete; no suspect identified","date":"2019-05"},"persistent_id":"b251dec0009f0bc017fa5e79f4a0a89e4a44de9b53176c029d228015bf6d48dd","id":75214877,"location_subtype":"","month":"2019-05"},{"category":"criminal-damage-arson","location_type":"Force","location":{"latitude":"51.695104","street":{"id":791185,"name":"On or near Crossbrook Street"},"longitude":"-0.034601"},"context":"","outcome_status":{"category":"Unable to prosecute suspect","date":"2019-05"},"persistent_id":"ca44232660623bc16ca7828eb73c2efcc3a8c33ad1c3ab574b2409c13f4e9b22","id":75208361,"location_subtype":"","month":"2019-05"},{"category":"criminal-damage-arson","location_type":"Force","location":{"latitude":"51.691025","street":{"id":791169,"name":"On or near Lambton Avenue"},"longitude":"-0.035385"},"context":"","outcome_status":{"category":"Unable to prosecute suspect","date":"2019-06"},"persistent_id":"944f90aee0d269958dd6773424a0190ba68496d51286b85ec4813ce0f56a29e6","id":75222369,"location_subtype":"","month":"2019-05"},{"category":"criminal-damage-arson","location_type":"Force","location":{"latitude":"51.708997","street":{"id":787877,"name":"On or near The Mead"},"longitude":"-0.044276"},"context":"","outcome_status":{"category":"Court result unavailable","date":"2019-11"},"persistent_id":"e4cd522391e805a707d9c4ee7214bee98cbbaf2d754f0482a7679ac35c34aa8a","id":75199616,"location_subtype":"","month":"2019-05"},{"category":"criminal-damage-arson","location_type":"Force","location":{"latitude":"51.703564","street":{"id":792395,"name":"On or near Norwood Road"},"longitude":"-0.031296"},"context":"","outcome_status":{"category":"Investigation complete; no suspect identified","date":"2019-05"},"persistent_id":"ff815c6a8baffc682865c7e2ce03a639073908816aed952b19383f59bf2a17bc","id":75206565,"location_subtype":"","month":"2019-05"},{"category":"criminal-damage-arson","location_type":"Force","location":{"latitude":"51.702457","street":{"id":792381,"name":"On or near Shalcross Drive"},"longitude":"-0.025353"},"context":"","outcome_status":{"category":"Unable to prosecute suspect","date":"2019-11"},"persistent_id":"df416031afc1dad7284ec2a3c5b5196dc9c87877e6d7b85f47c70233133a20d5","id":75222129,"location_subtype":"","month":"2019-05"},{"category":"criminal-damage-arson","location_type":"Force","location":{"latitude":"51.714021","street":{"id":792386,"name":"On or near Wavell Close"},"longitude":"-0.026384"},"context":"","outcome_status":{"category":"Investigation complete; no suspect identified","date":"2019-05"},"persistent_id":"26b894cab1efc1e66fdc8d87ef271c66a9c20dc66a9ee24bcb62d354e6f8a617","id":75204305,"location_subtype":"","month":"2019-05"},{"category":"criminal-damage-arson","location_type":"Force","location":{"latitude":"51.702457","street":{"id":792381,"name":"On or near Shalcross Drive"},"longitude":"-0.025353"},"context":"","outcome_status":{"category":"Unable to prosecute suspect","date":"2019-08"},"persistent_id":"9bc3a203f747cb8915f3767d19d7d2c203dbc1a240b6ae697a2d8292bed3e0eb","id":75207523,"location_subtype":"","month":"2019-05"},{"category":"drugs","location_type":"Force","location":{"latitude":"51.711049","street":{"id":792268,"name":"On or near High Street"},"longitude":"-0.034185"},"context":"","outcome_status":{"category":"Court result unavailable","date":"2019-11"},"persistent_id":"ae918312b8812957bdad4e61b25b548bf987ee36a97335795f05c71d396727ab","id":75202547,"location_subtype":"","month":"2019-05"},{"category":"drugs","location_type":"Force","location":{"latitude":"51.693990","street":{"id":791098,"name":"On or near Northfield Road"},"longitude":"-0.029339"},"context":"","outcome_status":{"category":"Awaiting court outcome","date":"2020-09"},"persistent_id":"47485718ef7044a86712e51b7acbd5049459cdf54644f47ce9cc1b2d5f76829c","id":75215047,"location_subtype":"","month":"2019-05"},{"category":"drugs","location_type":"Force","location":{"latitude":"51.710063","street":{"id":792233,"name":"On or near Woolpack Court"},"longitude":"-0.035993"},"context":"","outcome_status":{"category":"Court result unavailable","date":"2020-04"},"persistent_id":"3e36dd80371c509b544250d6d2ac2e6c8673bff9a87accbd9c4fac9c5fcfa47e","id":75205251,"location_subtype":"","month":"2019-05"},{"category":"drugs","location_type":"Force","location":{"latitude":"51.702233","street":{"id":792239,"name":"On or near Turner's Hill"},"longitude":"-0.034495"},"context":"","outcome_status":{"category":"Status update unavailable","date":"2019-09"},"persistent_id":"4344de9b00f0c5343f25db52f5cb868f90e2550b171a97796092ae434e7efd80","id":75213674,"location_subtype":"","month":"2019-05"},{"category":"drugs","location_type":"Force","location":{"latitude":"51.710412","street":{"id":792262,"name":"On or near Lawrance Gardens"},"longitude":"-0.033156"},"context":"","outcome_status":{"category":"Court result unavailable","date":"2019-12"},"persistent_id":"5bf2f3080885e635c9b432ac08128b74f81f12936e45efd37f4ad61b2a5a55fa","id":75202275,"location_subtype":"","month":"2019-05"},{"category":"drugs","location_type":"Force","location":{"latitude":"51.716198","street":{"id":792478,"name":"On or near Mortimer Gate"},"longitude":"-0.023755"},"context":"","outcome_status":{"category":"Offender given a drugs possession warning","date":"2019-07"},"persistent_id":"4019cc62541fe6eb1ee0b78f5d08679b2acfbb8b9088b927d41a055203a5bca3","id":75206776,"location_subtype":"","month":"2019-05"},{"category":"drugs","location_type":"Force","location":{"latitude":"51.695104","street":{"id":791185,"name":"On or near Crossbrook Street"},"longitude":"-0.034601"},"context":"","outcome_status":{"category":"Offender given a drugs possession warning","date":"2019-05"},"persistent_id":"d7011a5ad4f4b05da34ddeb2a157a56a23e0771a33203ae63b957c86c2ee8cb0","id":75208498,"location_subtype":"","month":"2019-05"},{"category":"drugs","location_type":"Force","location":{"latitude":"51.692370","street":{"id":791160,"name":"On or near Theobald's Grove"},"longitude":"-0.034575"},"context":"","outcome_status":{"category":"Offender given penalty notice","date":"2019-05"},"persistent_id":"922630d6f45c3bd642745968c211bf8095f3197ebbb6d3de60d9636e8c7a2bf3","id":75208932,"location_subtype":"","month":"2019-05"},{"category":"drugs","location_type":"Force","location":{"latitude":"51.708157","street":{"id":792378,"name":"On or near Fieldings Road"},"longitude":"-0.024222"},"context":"","outcome_status":{"category":"Offender given a drugs possession warning","date":"2019-05"},"persistent_id":"49b813e43ced39f36a03018e5f54343b2e1bee8dfd0caa3f0df72a244854b9af","id":75199759,"location_subtype":"","month":"2019-05"},{"category":"drugs","location_type":"Force","location":{"latitude":"51.699343","street":{"id":791155,"name":"On or near Parking Area"},"longitude":"-0.033231"},"context":"","outcome_status":{"category":"Offender given a drugs possession warning","date":"2019-05"},"persistent_id":"6514e18c458704cc5fa33539bbbaaca828864504731fa04df6480b5481b50241","id":75201437,"location_subtype":"","month":"2019-05"},{"category":"other-theft","location_type":"Force","location":{"latitude":"51.703787","street":{"id":792319,"name":"On or near Petrol Station"},"longitude":"-0.033848"},"context":"","outcome_status":{"category":"Investigation complete; no suspect identified","date":"2019-06"},"persistent_id":"2721cf67b136bf1bbefb073f96a9cb37b5884ab245e0bf6fe7f7bd5be302e0ac","id":75202643,"location_subtype":"","month":"2019-05"},{"category":"other-theft","location_type":"Force","location":{"latitude":"51.690480","street":{"id":791118,"name":"On or near Supermarket"},"longitude":"-0.033398"},"context":"","outcome_status":{"category":"Court result unavailable","date":"2020-01"},"persistent_id":"57ea6f54359bba9bf824df16e2af78bd80912ac68421852d3c102a0024bf4ad9","id":75214667,"location_subtype":"","month":"2019-05"},{"category":"other-theft","location_type":"Force","location":{"latitude":"51.710155","street":{"id":792229,"name":"On or near Petrol Station"},"longitude":"-0.040375"},"context":"","outcome_status":{"category":"Investigation complete; no suspect identified","date":"2019-05"},"persistent_id":"fd08ad990f951e05a57d2cf8873c5aab1a8274142cdb21c2e1f46c32a0eb1475","id":75205430,"location_subtype":"","month":"2019-05"},{"category":"other-theft","location_type":"Force","location":{"latitude":"51.707121","street":{"id":792269,"name":"On or near High Street"},"longitude":"-0.036931"},"context":"","outcome_status":{"category":"Investigation complete; no suspect identified","date":"2019-05"},"persistent_id":"13f3f6ad6dd1e31c8c5e43271b406e4262fa63b5e75d06c7049a7084e5a0b03d","id":75204769,"location_subtype":"","month":"2019-05"},{"category":"other-theft","location_type":"Force","location":{"latitude":"51.703820","street":{"id":792248,"name":"On or near Sandon Road"},"longitude":"-0.041213"},"context":"","outcome_status":{"category":"Unable to prosecute suspect","date":"2019-05"},"persistent_id":"02cd3bacb26f40372af553e0a589d4c264ced9edb6722eae18af41eaecebaeaf","id":75213345,"location_subtype":"","month":"2019-05"},{"category":"other-theft","location_type":"Force","location":{"latitude":"51.703787","street":{"id":792319,"name":"On or near Petrol Station"},"longitude":"-0.033848"},"context":"","outcome_status":{"category":"Status update unavailable","date":"2019-09"},"persistent_id":"fb9a0c803ccacdf3dfba0c0dba9ccbd735d23d8040a01d12b6b5f1a75d0082d2","id":75203723,"location_subtype":"","month":"2019-05"},{"category":"other-theft","location_type":"Force","location":{"latitude":"51.710155","street":{"id":792229,"name":"On or near Petrol Station"},"longitude":"-0.040375"},"context":"","outcome_status":{"category":"Investigation complete; no suspect identified","date":"2019-06"},"persistent_id":"36298b22856698f6cd0bf54c2f105cd8d0598145ebc6edbe3cb8f82e302dfc18","id":75213278,"location_subtype":"","month":"2019-05"},{"category":"other-theft","location_type":"Force","location":{"latitude":"51.708370","street":{"id":792322,"name":"On or near Supermarket"},"longitude":"-0.037456"},"context":"","outcome_status":{"category":"Investigation complete; no suspect identified","date":"2019-06"},"persistent_id":"910e0f99b3444b8ac4e8c9a93ff247a37cd09ef00a30316aa29ce150bc4a02a8","id":75206127,"location_subtype":"","month":"2019-05"},{"category":"other-theft","location_type":"Force","location":{"latitude":"51.705229","street":{"id":792302,"name":"On or near Clarendon Parade"},"longitude":"-0.034567"},"context":"","outcome_status":{"category":"Investigation complete; no suspect identified","date":"2019-06"},"persistent_id":"e0109d5293111fd0272510a305c3f9da2abbbd106335353897440c597a323912","id":75219298,"location_subtype":"","month":"2019-05"},{"category":"other-theft","location_type":"Force","location":{"latitude":"51.705579","street":{"id":792418,"name":"On or near Bullwell Crescent"},"longitude":"-0.030760"},"context":"","outcome_status":{"category":"Investigation complete; no suspect identified","date":"2019-06"},"persistent_id":"596ca425447abaf180b94b88fb7a259feadd08121c2e9201a30d0390385a2a36","id":75218738,"location_subtype":"","month":"2019-05"},{"category":"other-theft","location_type":"Force","location":{"latitude":"51.711049","street":{"id":792268,"name":"On or near High Street"},"longitude":"-0.034185"},"context":"","outcome_status":{"category":"Investigation complete; no suspect identified","date":"2019-05"},"persistent_id":"c3fe1b5efdfd9e3be6b0bee7b7dfbd59c277d8289b3ad63df15f1108931de66e","id":75210633,"location_subtype":"","month":"2019-05"},{"category":"other-theft","location_type":"Force","location":{"latitude":"51.703404","street":{"id":792372,"name":"On or near Parking Area"},"longitude":"-0.023387"},"context":"","outcome_status":{"category":"Investigation complete; no suspect identified","date":"2019-05"},"persistent_id":"fe82279bb5a7522abe5558d47590d3ab5eeedfaa58219066fd0eff65b3290ead","id":75213555,"location_subtype":"","month":"2019-05"},{"category":"other-theft","location_type":"Force","location":{"latitude":"51.712169","street":{"id":792404,"name":"On or near Kennedy Close"},"longitude":"-0.032298"},"context":"","outcome_status":{"category":"Investigation complete; no suspect identified","date":"2019-05"},"persistent_id":"30f020224a850b41d7471e0b47bcdad6bd9698c2feab10a47abad81a21e073a6","id":75208017,"location_subtype":"","month":"2019-05"},{"category":"possession-of-weapons","location_type":"BTP","location":{"latitude":"51.703048","street":{"id":1490292,"name":"Cheshunt (station)"},"longitude":"-0.023986"},"context":"","outcome_status":{"category":"Status update unavailable","date":"2019-09"},"persistent_id":"","id":88718750,"location_subtype":"STATION","month":"2019-05"},{"category":"possession-of-weapons","location_type":"Force","location":{"latitude":"51.702233","street":{"id":792239,"name":"On or near Turner's Hill"},"longitude":"-0.034495"},"context":"","outcome_status":{"category":"Court result unavailable","date":"2020-04"},"persistent_id":"0637f7af3f6f39cf2c1d90d273e1b8c2ee5b1a5b0a5d99ba45cbbe18c02a9e0c","id":75213658,"location_subtype":"","month":"2019-05"},{"category":"possession-of-weapons","location_type":"Force","location":{"latitude":"51.714755","street":{"id":792408,"name":"On or near Endeavour Road"},"longitude":"-0.031027"},"context":"","outcome_status":{"category":"Court result unavailable","date":"2019-11"},"persistent_id":"4e4cdabda174032eaa1ffb70fea13d3227e119dd525e6d9fcfec6070375c7695","id":75204158,"location_subtype":"","month":"2019-05"},{"category":"public-order","location_type":"Force","location":{"latitude":"51.712632","street":{"id":792291,"name":"On or near Davison Close"},"longitude":"-0.034710"},"context":"","outcome_status":{"category":"Court result unavailable","date":"2019-11"},"persistent_id":"1ae94c70e21310602531a48d2e310ca1a76338429854bc64586b06987339daf0","id":75220883,"location_subtype":"","month":"2019-05"},{"category":"public-order","location_type":"Force","location":{"latitude":"51.692370","street":{"id":791160,"name":"On or near Theobald's Grove"},"longitude":"-0.034575"},"context":"","outcome_status":{"category":"Court result unavailable","date":"2019-11"},"persistent_id":"4a082d192bb0fd5e33bcba76c49e1a1c6512e48dc50ed019b1ebdb4d66c5f02d","id":75212244,"location_subtype":"","month":"2019-05"},{"category":"public-order","location_type":"Force","location":{"latitude":"51.708370","street":{"id":792322,"name":"On or near Supermarket"},"longitude":"-0.037456"},"context":"","outcome_status":{"category":"Investigation complete; no suspect identified","date":"2019-07"},"persistent_id":"328da290e51ca82eab50128f4a1e8f2690403ee9c33a5f7ccec0006b6c9380f8","id":75210278,"location_subtype":"","month":"2019-05"},{"category":"public-order","location_type":"Force","location":{"latitude":"51.702233","street":{"id":792239,"name":"On or near Turner's Hill"},"longitude":"-0.034495"},"context":"","outcome_status":{"category":"Investigation complete; no suspect identified","date":"2019-07"},"persistent_id":"88788781babb0f943786b6d89f49d26c54e367dc8c6bf10f4feabf0e8aa88bea","id":75206889,"location_subtype":"","month":"2019-05"},{"category":"public-order","location_type":"Force","location":{"latitude":"51.701569","street":{"id":791206,"name":"On or near Albury Grove Road"},"longitude":"-0.036173"},"context":"","outcome_status":{"category":"Investigation complete; no suspect identified","date":"2019-06"},"persistent_id":"7d49c508475ea6a6bfb8dabf7dc3badf2c67c20c9d2f58aee388d23cee803ddb","id":75217492,"location_subtype":"","month":"2019-05"},{"category":"public-order","location_type":"Force","location":{"latitude":"51.690637","street":{"id":791175,"name":"On or near Hedworth Avenue"},"longitude":"-0.035793"},"context":"","outcome_status":{"category":"Investigation complete; no suspect identified","date":"2019-06"},"persistent_id":"0b8ad342569b14f07c58173893f3aaf02bd3bda13c77e4671e939a3e9b74d588","id":75222956,"location_subtype":"","month":"2019-05"},{"category":"public-order","location_type":"Force","location":{"latitude":"51.692370","street":{"id":791160,"name":"On or near Theobald's Grove"},"longitude":"-0.034575"},"context":"","outcome_status":{"category":"Investigation complete; no suspect identified","date":"2019-06"},"persistent_id":"ed202ba61c8e91d060446997607961eae8a2dad89c049c7949c51c92b97f5a96","id":75222299,"location_subtype":"","month":"2019-05"},{"category":"public-order","location_type":"Force","location":{"latitude":"51.710412","street":{"id":792262,"name":"On or near Lawrance Gardens"},"longitude":"-0.033156"},"context":"","outcome_status":{"category":"Unable to prosecute suspect","date":"2019-05"},"persistent_id":"6132c4838a1f5a6117026472154dbb88db2f3c5ec2e58615c841fbbb6823f2a9","id":75220953,"location_subtype":"","month":"2019-05"},{"category":"public-order","location_type":"Force","location":{"latitude":"51.702785","street":{"id":792236,"name":"On or near Westbury"},"longitude":"-0.034717"},"context":"","outcome_status":{"category":"Court result unavailable","date":"2019-11"},"persistent_id":"4d54c9fa620d17ab21324af35eaabccfb823b60f8c454e9acf5e1e0b2ccb186e","id":75213140,"location_subtype":"","month":"2019-05"},{"category":"public-order","location_type":"Force","location":{"latitude":"51.702233","street":{"id":792239,"name":"On or near Turner's Hill"},"longitude":"-0.034495"},"context":"","outcome_status":{"category":"Unable to prosecute suspect","date":"2019-11"},"persistent_id":"4620221064ba08354cbce09e59035e08263819f83c2f7a076571e9a6dc18d5c5","id":75216112,"location_subtype":"","month":"2019-05"},{"category":"public-order","location_type":"BTP","location":{"latitude":"51.703048","street":{"id":1490292,"name":"Cheshunt (station)"},"longitude":"-0.023986"},"context":"","outcome_status":{"category":"Status update unavailable","date":"2019-09"},"persistent_id":"","id":88718749,"location_subtype":"STATION","month":"2019-05"},{"category":"public-order","location_type":"Force","location":{"latitude":"51.702233","street":{"id":792239,"name":"On or near Turner's Hill"},"longitude":"-0.034495"},"context":"","outcome_status":{"category":"Unable to prosecute suspect","date":"2019-07"},"persistent_id":"c4bc5d09b217a31b708c0e06e3bc7bc4dce10d8c94c92172f841dd410abb94a2","id":75217596,"location_subtype":"","month":"2019-05"},{"category":"public-order","location_type":"BTP","location":{"latitude":"51.692000","street":{"id":1486592,"name":"Theobalds Grove (station)"},"longitude":"-0.035542"},"context":"","outcome_status":{"category":"Status update unavailable","date":"2019-09"},"persistent_id":"","id":88717297,"location_subtype":"STATION","month":"2019-05"},{"category":"public-order","location_type":"Force","location":{"latitude":"51.712632","street":{"id":792291,"name":"On or near Davison Close"},"longitude":"-0.034710"},"context":"","outcome_status":{"category":"Unable to prosecute suspect","date":"2019-05"},"persistent_id":"b60f34fe87f9dd4af2f237805df3a5d00e3034139e5ebf3a5002570af4def380","id":75214207,"location_subtype":"","month":"2019-05"},{"category":"public-order","location_type":"Force","location":{"latitude":"51.702785","street":{"id":792236,"name":"On or near Westbury"},"longitude":"-0.034717"},"context":"","outcome_status":{"category":"Unable to prosecute suspect","date":"2019-05"},"persistent_id":"8cd570a024b79b46ca983d424dcf5eaf82756441dab89091989708022f5aaf5b","id":75214076,"location_subtype":"","month":"2019-05"},{"category":"public-order","location_type":"Force","location":{"latitude":"51.702233","street":{"id":792239,"name":"On or near Turner's Hill"},"longitude":"-0.034495"},"context":"","outcome_status":{"category":"Unable to prosecute suspect","date":"2019-05"},"persistent_id":"ac5e5fae1497107a4816fb4890221dcb062b866bb6ae0f8f3cfee70ad744a887","id":75208434,"location_subtype":"","month":"2019-05"},{"category":"robbery","location_type":"Force","location":{"latitude":"51.708997","street":{"id":787877,"name":"On or near The Mead"},"longitude":"-0.044276"},"context":"","outcome_status":{"category":"Unable to prosecute suspect","date":"2019-05"},"persistent_id":"df5e4db8d4efa6c0f364389001d45d4ea314050c242b947d4073be3bf57f1974","id":75209789,"location_subtype":"","month":"2019-05"},{"category":"robbery","location_type":"Force","location":{"latitude":"51.713309","street":{"id":792398,"name":"On or near Montgomery Drive"},"longitude":"-0.027356"},"context":"","outcome_status":{"category":"Unable to prosecute suspect","date":"2019-09"},"persistent_id":"ce9b184c75ddd8829da5e4a3521621477293b955dbbe3b1bb8520c543bd7f0b1","id":75218261,"location_subtype":"","month":"2019-05"},{"category":"robbery","location_type":"Force","location":{"latitude":"51.703069","street":{"id":792285,"name":"On or near Foster Close"},"longitude":"-0.032881"},"context":"","outcome_status":{"category":"Unable to prosecute suspect","date":"2019-07"},"persistent_id":"6bbe191d78ad71eeef93728ec45e34836a803a86acac899007f261ef0f4d87ea","id":75211500,"location_subtype":"","month":"2019-05"},{"category":"robbery","location_type":"Force","location":{"latitude":"51.712877","street":{"id":792292,"name":"On or near Craigs Walk"},"longitude":"-0.035394"},"context":"","outcome_status":{"category":"Investigation complete; no suspect identified","date":"2019-06"},"persistent_id":"d71e34469fc17c0819b9d04a759e51cf97d35694ae8dc172cc294a5f331fed9b","id":75206173,"location_subtype":"","month":"2019-05"},{"category":"shoplifting","location_type":"Force","location":{"latitude":"51.710155","street":{"id":792229,"name":"On or near Petrol Station"},"longitude":"-0.040375"},"context":"","outcome_status":{"category":"Status update unavailable","date":"2019-09"},"persistent_id":"56f2fb8b7dd76dac02aee18c94a2e641f636c144b7167e0696ee7e4caecea103","id":75213284,"location_subtype":"","month":"2019-05"},{"category":"shoplifting","location_type":"Force","location":{"latitude":"51.710155","street":{"id":792229,"name":"On or near Petrol Station"},"longitude":"-0.040375"},"context":"","outcome_status":{"category":"Investigation complete; no suspect identified","date":"2019-06"},"persistent_id":"92d50aa5e981dd8e2b41afe647640ef7fb10a5e24ef60e5bde2203057a25184d","id":75218546,"location_subtype":"","month":"2019-05"},{"category":"shoplifting","location_type":"Force","location":{"latitude":"51.710063","street":{"id":792233,"name":"On or near Woolpack Court"},"longitude":"-0.035993"},"context":"","outcome_status":{"category":"Investigation complete; no suspect identified","date":"2019-10"},"persistent_id":"5cbe62b643457d2523ee7aaacfb37946c2983c38cad76d6cec151de7c3029baa","id":75219143,"location_subtype":"","month":"2019-05"},{"category":"shoplifting","location_type":"Force","location":{"latitude":"51.710155","street":{"id":792229,"name":"On or near Petrol Station"},"longitude":"-0.040375"},"context":"","outcome_status":{"category":"Court result unavailable","date":"2020-01"},"persistent_id":"b09595626193f5956724e8917a5ff8d2c2cd775a32dc651091c6f699e358bdb2","id":75216826,"location_subtype":"","month":"2019-05"},{"category":"shoplifting","location_type":"Force","location":{"latitude":"51.710155","street":{"id":792229,"name":"On or near Petrol Station"},"longitude":"-0.040375"},"context":"","outcome_status":{"category":"Formal action is not in the public interest","date":"2019-10"},"persistent_id":"60067314033198539da61bcc191774663eb550d49631df8177d9b12a64b297cf","id":75216814,"location_subtype":"","month":"2019-05"},{"category":"shoplifting","location_type":"Force","location":{"latitude":"51.690480","street":{"id":791118,"name":"On or near Supermarket"},"longitude":"-0.033398"},"context":"","outcome_status":{"category":"Investigation complete; no suspect identified","date":"2019-06"},"persistent_id":"84152fdd907ee4a00f12d692e09cd474a53212e234541f1cac3c0348985cc704","id":75221740,"location_subtype":"","month":"2019-05"},{"category":"shoplifting","location_type":"Force","location":{"latitude":"51.710155","street":{"id":792229,"name":"On or near Petrol Station"},"longitude":"-0.040375"},"context":"","outcome_status":{"category":"Investigation complete; no suspect identified","date":"2019-07"},"persistent_id":"3f0ab05d92875e1ca37a823c10849f756af01b08012f947d60e23cde9d48b37a","id":75215254,"location_subtype":"","month":"2019-05"},{"category":"shoplifting","location_type":"Force","location":{"latitude":"51.710063","street":{"id":792233,"name":"On or near Woolpack Court"},"longitude":"-0.035993"},"context":"","outcome_status":{"category":"Investigation complete; no suspect identified","date":"2019-07"},"persistent_id":"30d6dae7224212de32255695b7f805cdd058eb032fed04c70185772552e3d8c1","id":75213404,"location_subtype":"","month":"2019-05"},{"category":"shoplifting","location_type":"Force","location":{"latitude":"51.710155","street":{"id":792229,"name":"On or near Petrol Station"},"longitude":"-0.040375"},"context":"","outcome_status":{"category":"Investigation complete; no suspect identified","date":"2019-06"},"persistent_id":"53aedb4b1c1ba3d11eda35fea1fe124a55d98578ea2eb8c56528072b5005be97","id":75213293,"location_subtype":"","month":"2019-05"},{"category":"shoplifting","location_type":"Force","location":{"latitude":"51.710063","street":{"id":792233,"name":"On or near Woolpack Court"},"longitude":"-0.035993"},"context":"","outcome_status":{"category":"Investigation complete; no suspect identified","date":"2019-06"},"persistent_id":"457d4352f3141672905fd85da5f6dfde156f6dd755b29135bd900700bb76f7b8","id":75213186,"location_subtype":"","month":"2019-05"},{"category":"shoplifting","location_type":"Force","location":{"latitude":"51.710155","street":{"id":792229,"name":"On or near Petrol Station"},"longitude":"-0.040375"},"context":"","outcome_status":{"category":"Court result unavailable","date":"2020-01"},"persistent_id":"d3da8b0618209c754d19547e8de908e3c70978aee814ef72fabbf35687d4c91f","id":75210081,"location_subtype":"","month":"2019-05"},{"category":"shoplifting","location_type":"Force","location":{"latitude":"51.710155","street":{"id":792229,"name":"On or near Petrol Station"},"longitude":"-0.040375"},"context":"","outcome_status":{"category":"Unable to prosecute suspect","date":"2019-09"},"persistent_id":"55b11ac48d4e5e517c811ab4ea02af9ebd551532bbc73cd5eac11e1546d5b52c","id":75210059,"location_subtype":"","month":"2019-05"},{"category":"shoplifting","location_type":"Force","location":{"latitude":"51.690480","street":{"id":791118,"name":"On or near Supermarket"},"longitude":"-0.033398"},"context":"","outcome_status":{"category":"Court result unavailable","date":"2019-12"},"persistent_id":"83874eecb4f6a9c32855e6ed984dfa9e165b8cc4d665973aab8a52fbdeb08f96","id":75221918,"location_subtype":"","month":"2019-05"},{"category":"shoplifting","location_type":"Force","location":{"latitude":"51.710063","street":{"id":792233,"name":"On or near Woolpack Court"},"longitude":"-0.035993"},"context":"","outcome_status":{"category":"Investigation complete; no suspect identified","date":"2019-06"},"persistent_id":"544fc379d9e2a576ff802cabfbf11fb3aef2f9ab70293a470df6e250fd9e2568","id":75207699,"location_subtype":"","month":"2019-05"},{"category":"shoplifting","location_type":"Force","location":{"latitude":"51.702233","street":{"id":792239,"name":"On or near Turner's Hill"},"longitude":"-0.034495"},"context":"","outcome_status":{"category":"Investigation complete; no suspect identified","date":"2019-06"},"persistent_id":"2d2fde34e43abde39814aad80db70706b21c541dff5cd8be19cf385d7af75b4d","id":75205810,"location_subtype":"","month":"2019-05"},{"category":"shoplifting","location_type":"Force","location":{"latitude":"51.710155","street":{"id":792229,"name":"On or near Petrol Station"},"longitude":"-0.040375"},"context":"","outcome_status":{"category":"Status update unavailable","date":"2019-09"},"persistent_id":"99eeb006e30f3076bcdf3c7956ec576fea8d8bee2109b171634d492cda5c7d9c","id":75207251,"location_subtype":"","month":"2019-05"},{"category":"shoplifting","location_type":"Force","location":{"latitude":"51.710155","street":{"id":792229,"name":"On or near Petrol Station"},"longitude":"-0.040375"},"context":"","outcome_status":{"category":"Unable to prosecute suspect","date":"2019-06"},"persistent_id":"8898c9b2ee3b30d678b0b6f6471415554a1c225ab91e959b44e819861e658c97","id":75207248,"location_subtype":"","month":"2019-05"},{"category":"shoplifting","location_type":"Force","location":{"latitude":"51.690480","street":{"id":791118,"name":"On or near Supermarket"},"longitude":"-0.033398"},"context":"","outcome_status":{"category":"Court result unavailable","date":"2019-12"},"persistent_id":"b114e6293f21773ced48e95a430bc5db6a10f638560f789869c0a0623d582725","id":75221737,"location_subtype":"","month":"2019-05"},{"category":"shoplifting","location_type":"Force","location":{"latitude":"51.710063","street":{"id":792233,"name":"On or near Woolpack Court"},"longitude":"-0.035993"},"context":"","outcome_status":{"category":"Investigation complete; no suspect identified","date":"2019-06"},"persistent_id":"d41163cc063fd232e33266ccb7073c0ce973ce12ade36953feafdb879d61fdf8","id":75219129,"location_subtype":"","month":"2019-05"},{"category":"shoplifting","location_type":"Force","location":{"latitude":"51.710155","street":{"id":792229,"name":"On or near Petrol Station"},"longitude":"-0.040375"},"context":"","outcome_status":{"category":"Investigation complete; no suspect identified","date":"2019-07"},"persistent_id":"984224b680cf3ef1fa9c7524780a3d47acf0fb5b5994bc44fb081e63b564895a","id":75210386,"location_subtype":"","month":"2019-05"},{"category":"shoplifting","location_type":"Force","location":{"latitude":"51.690480","street":{"id":791118,"name":"On or near Supermarket"},"longitude":"-0.033398"},"context":"","outcome_status":{"category":"Action to be taken by another organisation","date":"2019-07"},"persistent_id":"98e64911a276e35989559d1e0d8c803be8d5dfbd9df9895c10baf375f40e618a","id":75215408,"location_subtype":"","month":"2019-05"},{"category":"shoplifting","location_type":"Force","location":{"latitude":"51.710155","street":{"id":792229,"name":"On or near Petrol Station"},"longitude":"-0.040375"},"context":"","outcome_status":{"category":"Investigation complete; no suspect identified","date":"2019-05"},"persistent_id":"ed0e1c165275528b38b90d0e9ed07f5094986f6361c0f708755f11aa964ef89a","id":75207702,"location_subtype":"","month":"2019-05"},{"category":"shoplifting","location_type":"Force","location":{"latitude":"51.710155","street":{"id":792229,"name":"On or near Petrol Station"},"longitude":"-0.040375"},"context":"","outcome_status":{"category":"Investigation complete; no suspect identified","date":"2019-06"},"persistent_id":"a8974087815936a61799262e33556b7a5e86e8e367c6ddcc31339be600e0941e","id":75222809,"location_subtype":"","month":"2019-05"},{"category":"shoplifting","location_type":"Force","location":{"latitude":"51.701659","street":{"id":791201,"name":"On or near Turner's Hill"},"longitude":"-0.034606"},"context":"","outcome_status":{"category":"Investigation complete; no suspect identified","date":"2019-05"},"persistent_id":"148c25df42f9c16341b47c0e5df9b4b2bc4b2ab790aeb059c0cc1ba40cc07d6c","id":75199130,"location_subtype":"","month":"2019-05"},{"category":"shoplifting","location_type":"Force","location":{"latitude":"51.710155","street":{"id":792229,"name":"On or near Petrol Station"},"longitude":"-0.040375"},"context":"","outcome_status":{"category":"Investigation complete; no suspect identified","date":"2019-05"},"persistent_id":"ad92d9d4211ebe4dbfc204509580f96cf9aada84b9f796a2faa1cc66570e0e3b","id":75201253,"location_subtype":"","month":"2019-05"},{"category":"theft-from-the-person","location_type":"Force","location":{"latitude":"51.707900","street":{"id":792384,"name":"On or near Winton Drive"},"longitude":"-0.030312"},"context":"","outcome_status":{"category":"Unable to prosecute suspect","date":"2019-05"},"persistent_id":"31b64834f653ad0aff4fc3d2aa012d2a840ef1cde380085c437e078fd4b2c046","id":75205523,"location_subtype":"","month":"2019-05"},{"category":"theft-from-the-person","location_type":"Force","location":{"latitude":"51.708426","street":{"id":792270,"name":"On or near High Street"},"longitude":"-0.037020"},"context":"","outcome_status":{"category":"Investigation complete; no suspect identified","date":"2019-06"},"persistent_id":"0441ad21bab4498e01b45f4bedbd892b8bd448528ee2914ab966ce3bef7d84bf","id":75217773,"location_subtype":"","month":"2019-05"},{"category":"theft-from-the-person","location_type":"Force","location":{"latitude":"51.712169","street":{"id":792404,"name":"On or near Kennedy Close"},"longitude":"-0.032298"},"context":"","outcome_status":{"category":"Investigation complete; no suspect identified","date":"2019-05"},"persistent_id":"082ec27d187555165b8e5bb93166dae4d3d9cb93b0dd81faef82413cc9f5a98f","id":75202789,"location_subtype":"","month":"2019-05"},{"category":"theft-from-the-person","location_type":"Force","location":{"latitude":"51.701569","street":{"id":791206,"name":"On or near Albury Grove Road"},"longitude":"-0.036173"},"context":"","outcome_status":{"category":"Status update unavailable","date":"2019-09"},"persistent_id":"12abb7ec9b0858d1d21c014ad411908f404f55be1424a0fe9cc7f9ef174bd2cd","id":75202153,"location_subtype":"","month":"2019-05"},{"category":"theft-from-the-person","location_type":"Force","location":{"latitude":"51.699343","street":{"id":791155,"name":"On or near Parking Area"},"longitude":"-0.033231"},"context":"","outcome_status":{"category":"Investigation complete; no suspect identified","date":"2019-07"},"persistent_id":"ef18c11a26b9e635a53751d410dd563445192c1cf8af5dab43dba863680c2390","id":75213306,"location_subtype":"","month":"2019-05"},{"category":"theft-from-the-person","location_type":"Force","location":{"latitude":"51.713608","street":{"id":792313,"name":"On or near Brookfield Lane East"},"longitude":"-0.033943"},"context":"","outcome_status":{"category":"Unable to prosecute suspect","date":"2019-06"},"persistent_id":"1a044b58610864291517a8203b63497f9f646aeb4f068c0855255015011fdf8f","id":75205150,"location_subtype":"","month":"2019-05"},{"category":"vehicle-crime","location_type":"Force","location":{"latitude":"51.697804","street":{"id":791170,"name":"On or near Laburnum Close"},"longitude":"-0.035309"},"context":"","outcome_status":{"category":"Unable to prosecute suspect","date":"2019-06"},"persistent_id":"1dcf5d8adaf19940ef7275d924b73c0f7bfb27259697fa20c520aa5e28b5fa1c","id":75222018,"location_subtype":"","month":"2019-05"},{"category":"vehicle-crime","location_type":"Force","location":{"latitude":"51.706120","street":{"id":677885,"name":"On or near Park\/open Space"},"longitude":"-0.004207"},"context":"","outcome_status":{"category":"Investigation complete; no suspect identified","date":"2019-05"},"persistent_id":"8fb90cd31145136f28e1bb1627b4cf82b45db13c4e2877b80c989a82a29a895f","id":74237177,"location_subtype":"","month":"2019-05"},{"category":"vehicle-crime","location_type":"Force","location":{"latitude":"51.705579","street":{"id":792382,"name":"On or near Delamare Road"},"longitude":"-0.025405"},"context":"","outcome_status":{"category":"Investigation complete; no suspect identified","date":"2019-05"},"persistent_id":"907a57d763daaba9ef3337b3cc5fc25951e5631a8c3c6c6407ca7d8045a7e678","id":75211820,"location_subtype":"","month":"2019-05"},{"category":"vehicle-crime","location_type":"Force","location":{"latitude":"51.712644","street":{"id":792393,"name":"On or near Oldfield Close"},"longitude":"-0.028977"},"context":"","outcome_status":{"category":"Investigation complete; no suspect identified","date":"2019-06"},"persistent_id":"c968a5599460a475e38c151dfa38064f335d7e95b563cd1d732dce04f71bc507","id":75219468,"location_subtype":"","month":"2019-05"},{"category":"vehicle-crime","location_type":"Force","location":{"latitude":"51.692370","street":{"id":791160,"name":"On or near Theobald's Grove"},"longitude":"-0.034575"},"context":"","outcome_status":{"category":"Investigation complete; no suspect identified","date":"2019-06"},"persistent_id":"9e6266aacaf6bea8ca5d23c142c2898be3b1b5037de7917a40954f2887f36ea4","id":75218111,"location_subtype":"","month":"2019-05"},{"category":"vehicle-crime","location_type":"Force","location":{"latitude":"51.689960","street":{"id":791108,"name":"On or near Edinburgh Crescent"},"longitude":"-0.031351"},"context":"","outcome_status":{"category":"Investigation complete; no suspect identified","date":"2019-05"},"persistent_id":"e9b398aceaddcf1230de886890f419064809b077386dc06d3a208760a341c5ad","id":75201661,"location_subtype":"","month":"2019-05"},{"category":"vehicle-crime","location_type":"Force","location":{"latitude":"51.702457","street":{"id":792381,"name":"On or near Shalcross Drive"},"longitude":"-0.025353"},"context":"","outcome_status":{"category":"Investigation complete; no suspect identified","date":"2019-05"},"persistent_id":"20a3cf34020ff08deaa02ae619217a6d6564b85ac3a5e0c6299383b1b5b25095","id":75214583,"location_subtype":"","month":"2019-05"},{"category":"vehicle-crime","location_type":"Force","location":{"latitude":"51.691312","street":{"id":791166,"name":"On or near Monarch's Way"},"longitude":"-0.034230"},"context":"","outcome_status":{"category":"Investigation complete; no suspect identified","date":"2019-05"},"persistent_id":"b145840caae5c305e738da84da2160cf04084a7894fa74a7a0af51404a677e41","id":75214661,"location_subtype":"","month":"2019-05"},{"category":"vehicle-crime","location_type":"Force","location":{"latitude":"51.708426","street":{"id":792270,"name":"On or near High Street"},"longitude":"-0.037020"},"context":"","outcome_status":{"category":"Investigation complete; no suspect identified","date":"2019-05"},"persistent_id":"e7ab190917ebb6733179bee9198968fc352157538de24d09c53e6d2ab2c45085","id":75210133,"location_subtype":"","month":"2019-05"},{"category":"violent-crime","location_type":"Force","location":{"latitude":"51.702457","street":{"id":792381,"name":"On or near Shalcross Drive"},"longitude":"-0.025353"},"context":"","outcome_status":{"category":"Unable to prosecute suspect","date":"2019-11"},"persistent_id":"15c95bed28cab8cb66e415d9f419432ac420fa0ca8e3eec7378794e3a19f6534","id":75220043,"location_subtype":"","month":"2019-05"},{"category":"violent-crime","location_type":"Force","location":{"latitude":"51.703353","street":{"id":792323,"name":"On or near Police Station"},"longitude":"-0.034808"},"context":"","outcome_status":{"category":"Unable to prosecute suspect","date":"2019-11"},"persistent_id":"30fe8c6446112651da5aea40758fa54fa97fd3a833dff5e8704671011242735a","id":75213281,"location_subtype":"","month":"2019-05"},{"category":"violent-crime","location_type":"Force","location":{"latitude":"51.692762","street":{"id":791093,"name":"On or near Southfield Road"},"longitude":"-0.029016"},"context":"","outcome_status":{"category":"Unable to prosecute suspect","date":"2019-06"},"persistent_id":"b6899aaa9dba07e7d03ff797f5039b43fb89849594d23138ed20bba178a8e4d1","id":75220792,"location_subtype":"","month":"2019-05"},{"category":"violent-crime","location_type":"Force","location":{"latitude":"51.713918","street":{"id":792405,"name":"On or near High Street"},"longitude":"-0.030977"},"context":"","outcome_status":{"category":"Unable to prosecute suspect","date":"2020-01"},"persistent_id":"6ac78fca97c13a8a7295936a633f62c2025df74d90362ef13b509a77360c953a","id":75210980,"location_subtype":"","month":"2019-05"},{"category":"violent-crime","location_type":"Force","location":{"latitude":"51.700846","street":{"id":791091,"name":"On or near Steward Close"},"longitude":"-0.028491"},"context":"","outcome_status":{"category":"Court result unavailable","date":"2020-04"},"persistent_id":"40e4d5108593939e612fda360dbffa3670a8c734c753e162b18f80896538d46e","id":75205520,"location_subtype":"","month":"2019-05"},{"category":"violent-crime","location_type":"Force","location":{"latitude":"51.708157","street":{"id":792378,"name":"On or near Fieldings Road"},"longitude":"-0.024222"},"context":"","outcome_status":{"category":"Unable to prosecute suspect","date":"2019-05"},"persistent_id":"76972a3effd62f321d4510cc32fa1bc8f136b5bddb240c2e3bdea98c1edd7ded","id":75207328,"location_subtype":"","month":"2019-05"},{"category":"violent-crime","location_type":"Force","location":{"latitude":"51.710751","street":{"id":792238,"name":"On or near Warwick Drive"},"longitude":"-0.036760"},"context":"","outcome_status":{"category":"Unable to prosecute suspect","date":"2019-05"},"persistent_id":"7d3576c9dabc275de2ef03002e7c3c94b0d3159bf053e01e4787bb7410f4d7ac","id":75207585,"location_subtype":"","month":"2019-05"},{"category":"violent-crime","location_type":"Force","location":{"latitude":"51.690213","street":{"id":791111,"name":"On or near Cornwall Close"},"longitude":"-0.031427"},"context":"","outcome_status":{"category":"Status update unavailable","date":"2019-09"},"persistent_id":"22ef8ea5b91697df630a73a674905175c9ca48233917584610ffeb80a0fe453e","id":75218944,"location_subtype":"","month":"2019-05"},{"category":"violent-crime","location_type":"Force","location":{"latitude":"51.702785","street":{"id":792236,"name":"On or near Westbury"},"longitude":"-0.034717"},"context":"","outcome_status":{"category":"Court result unavailable","date":"2020-04"},"persistent_id":"27ee8816a931150b24b3da3d556cfc95bdf33d3c652dccf9dd7d4509c23a209d","id":75212881,"location_subtype":"","month":"2019-05"},{"category":"violent-crime","location_type":"Force","location":{"latitude":"51.707458","street":{"id":792289,"name":"On or near Dewhurst Road"},"longitude":"-0.044776"},"context":"","outcome_status":{"category":"Unable to prosecute suspect","date":"2019-05"},"persistent_id":"6be90a9e1cf8f9665c9176039e16d262c44807ac5c3e235d6ab3ab8029b9d2c9","id":75201841,"location_subtype":"","month":"2019-05"},{"category":"violent-crime","location_type":"Force","location":{"latitude":"51.690697","street":{"id":791116,"name":"On or near Sports\/recreation Area"},"longitude":"-0.031348"},"context":"","outcome_status":{"category":"Unable to prosecute suspect","date":"2019-05"},"persistent_id":"68cabfa940203da2c1e89039c934d69d3b3ea1b20e5934152aca193bb912e4b7","id":75208525,"location_subtype":"","month":"2019-05"},{"category":"violent-crime","location_type":"Force","location":{"latitude":"51.709142","street":{"id":792232,"name":"On or near Wycliffe Close"},"longitude":"-0.035223"},"context":"","outcome_status":{"category":"Unable to prosecute suspect","date":"2019-05"},"persistent_id":"c2dbb53ecf96ac34c0229db3151b226a4d677b3557151cfaf228e5fe5519a99d","id":75202245,"location_subtype":"","month":"2019-05"},{"category":"violent-crime","location_type":"Force","location":{"latitude":"51.710184","street":{"id":792421,"name":"On or near Audwick Close"},"longitude":"-0.032427"},"context":"","outcome_status":{"category":"Unable to prosecute suspect","date":"2019-05"},"persistent_id":"cfd4b8951d4d1d0fc05b475320c0dbf0b8dc811588d11cb08627ca3538d6b50f","id":75209273,"location_subtype":"","month":"2019-05"},{"category":"violent-crime","location_type":"Force","location":{"latitude":"51.713073","street":{"id":792274,"name":"On or near Hamburgh Court"},"longitude":"-0.038005"},"context":"","outcome_status":{"category":"Unable to prosecute suspect","date":"2019-07"},"persistent_id":"9ea4dd8cfb1fc48eb33595bcee29bf4aff65a87c3dbebbb55060930a5b5ba8a2","id":75213353,"location_subtype":"","month":"2019-05"},{"category":"violent-crime","location_type":"Force","location":{"latitude":"51.689432","street":{"id":791099,"name":"On or near North Road"},"longitude":"-0.028828"},"context":"","outcome_status":{"category":"Unable to prosecute suspect","date":"2019-06"},"persistent_id":"5b321474f8887fcf10d26a06c58a21eb345732be2d6a29e05229aad8ea7e1225","id":75213948,"location_subtype":"","month":"2019-05"},{"category":"violent-crime","location_type":"Force","location":{"latitude":"51.713073","street":{"id":792274,"name":"On or near Hamburgh Court"},"longitude":"-0.038005"},"context":"","outcome_status":{"category":"Unable to prosecute suspect","date":"2019-05"},"persistent_id":"d90a9c826f9b6598230eeff790014e10339c5b3a79b94d182d19c55682baf9fc","id":75211676,"location_subtype":"","month":"2019-05"},{"category":"violent-crime","location_type":"Force","location":{"latitude":"51.690480","street":{"id":791118,"name":"On or near Supermarket"},"longitude":"-0.033398"},"context":"","outcome_status":{"category":"Local resolution","date":"2019-07"},"persistent_id":"e1525934a9ad8f53e5d1fc24beef79e94efc47f4fd7d9ae54604a3e3cbab5c90","id":75213986,"location_subtype":"","month":"2019-05"},{"category":"violent-crime","location_type":"Force","location":{"latitude":"51.710751","street":{"id":792238,"name":"On or near Warwick Drive"},"longitude":"-0.036760"},"context":"","outcome_status":{"category":"Status update unavailable","date":"2019-09"},"persistent_id":"cb0be2959638b195dbf596bbb78c025687c93a01fd3c2799824cfc61efb042c4","id":75217569,"location_subtype":"","month":"2019-05"},{"category":"violent-crime","location_type":"Force","location":{"latitude":"51.700659","street":{"id":791181,"name":"On or near Farm Close"},"longitude":"-0.043072"},"context":"","outcome_status":{"category":"Unable to prosecute suspect","date":"2019-06"},"persistent_id":"1ddec3cfc9888d307fe6a989ec0ef3dd2504931b4cd4cda78734dcce69c611bf","id":75218137,"location_subtype":"","month":"2019-05"},{"category":"violent-crime","location_type":"Force","location":{"latitude":"51.710751","street":{"id":792238,"name":"On or near Warwick Drive"},"longitude":"-0.036760"},"context":"","outcome_status":{"category":"Status update unavailable","date":"2019-09"},"persistent_id":"c4c95664ff73fb27efbb3332ab52b97a861ea4d673c591e4ec75387641c53197","id":75217572,"location_subtype":"","month":"2019-05"},{"category":"violent-crime","location_type":"Force","location":{"latitude":"51.710412","street":{"id":792262,"name":"On or near Lawrance Gardens"},"longitude":"-0.033156"},"context":"","outcome_status":{"category":"Local resolution","date":"2019-06"},"persistent_id":"1c37541a8737faeada19bce8b667a6cf344b462c5dbbf3dc735980ac6758267a","id":75206944,"location_subtype":"","month":"2019-05"},{"category":"violent-crime","location_type":"Force","location":{"latitude":"51.710751","street":{"id":792238,"name":"On or near Warwick Drive"},"longitude":"-0.036760"},"context":"","outcome_status":{"category":"Status update unavailable","date":"2019-09"},"persistent_id":"f456b185c0ae82e67f2bc57ea8e76a298e7c288e2415817e118039c8dbaea00e","id":75217581,"location_subtype":"","month":"2019-05"},{"category":"violent-crime","location_type":"Force","location":{"latitude":"51.716267","street":{"id":792432,"name":"On or near Hillview Gardens"},"longitude":"-0.031107"},"context":"","outcome_status":{"category":"Unable to prosecute suspect","date":"2019-07"},"persistent_id":"375a1dcf4a2f7585f4c5a371e3a662355d3810f109ca4f266aa7eaf761c90c7e","id":75222599,"location_subtype":"","month":"2019-05"},{"category":"violent-crime","location_type":"Force","location":{"latitude":"51.692370","street":{"id":791160,"name":"On or near Theobald's Grove"},"longitude":"-0.034575"},"context":"","outcome_status":{"category":"Investigation complete; no suspect identified","date":"2019-05"},"persistent_id":"d693dd2dc85090506cbba6494ee54ce9838ad2ece7ea7bd911d96e3c3e1885ff","id":75213400,"location_subtype":"","month":"2019-05"},{"category":"violent-crime","location_type":"Force","location":{"latitude":"51.699343","street":{"id":791155,"name":"On or near Parking Area"},"longitude":"-0.033231"},"context":"","outcome_status":{"category":"Unable to prosecute suspect","date":"2019-07"},"persistent_id":"3586c7539e55a11ea676457af34099ff1396857e3ac67576c031f371969ba307","id":75217637,"location_subtype":"","month":"2019-05"},{"category":"violent-crime","location_type":"Force","location":{"latitude":"51.712093","street":{"id":792290,"name":"On or near Davison Drive"},"longitude":"-0.035269"},"context":"","outcome_status":{"category":"Unable to prosecute suspect","date":"2019-05"},"persistent_id":"7b0d46c67fe501ae7ee3482889376c35983158f8c44bc01c4486ced352321dcb","id":75216187,"location_subtype":"","month":"2019-05"},{"category":"violent-crime","location_type":"Force","location":{"latitude":"51.691312","street":{"id":791166,"name":"On or near Monarch's Way"},"longitude":"-0.034230"},"context":"","outcome_status":{"category":"Unable to prosecute suspect","date":"2019-05"},"persistent_id":"906118bdfc1d77975f6dff07880f1bc4f7cf9865a7adedeffaa50b3eaefba6c2","id":75219097,"location_subtype":"","month":"2019-05"},{"category":"violent-crime","location_type":"Force","location":{"latitude":"51.708530","street":{"id":792294,"name":"On or near Cottage Gardens"},"longitude":"-0.039490"},"context":"","outcome_status":{"category":"Unable to prosecute suspect","date":"2019-05"},"persistent_id":"93d062f4669bdac2baaff47b1709647263d6e63431391ca57b7ab5296ef6f889","id":75198069,"location_subtype":"","month":"2019-05"},{"category":"violent-crime","location_type":"Force","location":{"latitude":"51.690697","street":{"id":791116,"name":"On or near Sports\/recreation Area"},"longitude":"-0.031348"},"context":"","outcome_status":{"category":"Unable to prosecute suspect","date":"2019-05"},"persistent_id":"39518c25cd321f55da19b682b7917b6653bb30242befc5278eb6a49a8fc156a2","id":75198097,"location_subtype":"","month":"2019-05"},{"category":"violent-crime","location_type":"Force","location":{"latitude":"51.699691","street":{"id":791101,"name":"On or near King Arthur Court"},"longitude":"-0.032000"},"context":"","outcome_status":{"category":"Unable to prosecute suspect","date":"2019-05"},"persistent_id":"aca344f62b66f92449b474c504a0d95258d77ab8d11462ad7c55d0581a34050b","id":75199009,"location_subtype":"","month":"2019-05"},{"category":"violent-crime","location_type":"Force","location":{"latitude":"51.702457","street":{"id":792381,"name":"On or near Shalcross Drive"},"longitude":"-0.025353"},"context":"","outcome_status":{"category":"Unable to prosecute suspect","date":"2019-07"},"persistent_id":"45af33a2ccb91f9263cd1c667ff0d27e03ff73cc72d2784af5159d74a6df2746","id":75218694,"location_subtype":"","month":"2019-05"},{"category":"violent-crime","location_type":"Force","location":{"latitude":"51.690527","street":{"id":791124,"name":"On or near Marsh Close"},"longitude":"-0.026581"},"context":"","outcome_status":{"category":"Unable to prosecute suspect","date":"2019-05"},"persistent_id":"f880ddc51800de52b849af4fa997dfb4c2f6f013ea57e29c9c3cc664261ae925","id":75199154,"location_subtype":"","month":"2019-05"},{"category":"violent-crime","location_type":"Force","location":{"latitude":"51.707121","street":{"id":792269,"name":"On or near High Street"},"longitude":"-0.036931"},"context":"","outcome_status":{"category":"Unable to prosecute suspect","date":"2019-06"},"persistent_id":"d4b440993279a40cf02db894b59759cb5993e9abff55d531c1b642fcbf70d20d","id":75205789,"location_subtype":"","month":"2019-05"},{"category":"violent-crime","location_type":"Force","location":{"latitude":"51.708426","street":{"id":792270,"name":"On or near High Street"},"longitude":"-0.037020"},"context":"","outcome_status":{"category":"Court result unavailable","date":"2020-03"},"persistent_id":"43661154b9ca0537230259ee7b965826d7d9610893402f18ed50f601f4f51702","id":75215454,"location_subtype":"","month":"2019-05"},{"category":"violent-crime","location_type":"Force","location":{"latitude":"51.713073","street":{"id":792274,"name":"On or near Hamburgh Court"},"longitude":"-0.038005"},"context":"","outcome_status":{"category":"Unable to prosecute suspect","date":"2019-06"},"persistent_id":"e17d65f5e69232e828df28daf1962e1380579d8c26647722eb3ec6041e81cba6","id":75211708,"location_subtype":"","month":"2019-05"},{"category":"violent-crime","location_type":"Force","location":{"latitude":"51.702457","street":{"id":792381,"name":"On or near Shalcross Drive"},"longitude":"-0.025353"},"context":"","outcome_status":{"category":"Unable to prosecute suspect","date":"2019-07"},"persistent_id":"2fb62c85c7ccc7cc48478a10f40e48fe119d91ea04f931db0ce4fdc091935a08","id":75218699,"location_subtype":"","month":"2019-05"},{"category":"violent-crime","location_type":"Force","location":{"latitude":"51.689201","street":{"id":791089,"name":"On or near Swanfield Road"},"longitude":"-0.030082"},"context":"","outcome_status":{"category":"Status update unavailable","date":"2019-09"},"persistent_id":"3270b42e6496924f43ff7a2fc4d4eb4e2ab76e91f18b473c76080e539d3d31b2","id":75202505,"location_subtype":"","month":"2019-05"},{"category":"violent-crime","location_type":"Force","location":{"latitude":"51.700795","street":{"id":791123,"name":"On or near Southmead Crescent"},"longitude":"-0.026496"},"context":"","outcome_status":{"category":"Unable to prosecute suspect","date":"2019-05"},"persistent_id":"1926ea645e078f257106f04961ec7c09066f502c16ba2d9e801db3739f433467","id":75201468,"location_subtype":"","month":"2019-05"},{"category":"violent-crime","location_type":"Force","location":{"latitude":"51.704890","street":{"id":792273,"name":"On or near Hanbury Close"},"longitude":"-0.033120"},"context":"","outcome_status":{"category":"Unable to prosecute suspect","date":"2019-07"},"persistent_id":"0b79a21e5d5b5bb88df90908e49b800e051b06cfb96398e619da81c6c5f24679","id":75202216,"location_subtype":"","month":"2019-05"},{"category":"violent-crime","location_type":"Force","location":{"latitude":"51.702457","street":{"id":792381,"name":"On or near Shalcross Drive"},"longitude":"-0.025353"},"context":"","outcome_status":{"category":"Unable to prosecute suspect","date":"2019-06"},"persistent_id":"88e807c23bdcbae9edcd1b8535c547641e6e9956f75ec2b2f048e73761707bcd","id":75211957,"location_subtype":"","month":"2019-05"},{"category":"violent-crime","location_type":"Force","location":{"latitude":"51.699691","street":{"id":791101,"name":"On or near King Arthur Court"},"longitude":"-0.032000"},"context":"","outcome_status":{"category":"Investigation complete; no suspect identified","date":"2019-06"},"persistent_id":"2d84806ee17a595f3e0fa9d53a1eff936e57af0aa48ff957fbe3882aa9a317a6","id":75204989,"location_subtype":"","month":"2019-05"},{"category":"violent-crime","location_type":"Force","location":{"latitude":"51.702457","street":{"id":792381,"name":"On or near Shalcross Drive"},"longitude":"-0.025353"},"context":"","outcome_status":{"category":"Unable to prosecute suspect","date":"2019-07"},"persistent_id":"1f0b2ff34cfe55a9dee7ddd3d166fbceddeb47fcdf5e032efdb1426b63d037b2","id":75219758,"location_subtype":"","month":"2019-05"},{"category":"violent-crime","location_type":"Force","location":{"latitude":"51.699684","street":{"id":791126,"name":"On or near Darcy Close"},"longitude":"-0.026197"},"context":"","outcome_status":{"category":"Unable to prosecute suspect","date":"2019-05"},"persistent_id":"6e21bc8e5b36e4580225c7beaa7926373834589c709313e9a9ec6584abe3b56b","id":75203597,"location_subtype":"","month":"2019-05"},{"category":"violent-crime","location_type":"Force","location":{"latitude":"51.701856","street":{"id":791207,"name":"On or near Supermarket"},"longitude":"-0.033990"},"context":"","outcome_status":{"category":"Investigation complete; no suspect identified","date":"2019-05"},"persistent_id":"b61cec3856158a502dd4badee833c99f9e2b3cf2074e65cdd9aea3c0db628f27","id":75203951,"location_subtype":"","month":"2019-05"},{"category":"violent-crime","location_type":"Force","location":{"latitude":"51.714750","street":{"id":792415,"name":"On or near Cheshunt Wash"},"longitude":"-0.029652"},"context":"","outcome_status":{"category":"Unable to prosecute suspect","date":"2019-07"},"persistent_id":"68f22ba78040540647a4bfcbceca0067bf95d5ca4cdc96181af939827f6f33d8","id":75212257,"location_subtype":"","month":"2019-05"},{"category":"violent-crime","location_type":"Force","location":{"latitude":"51.716380","street":{"id":792434,"name":"On or near Cheshunt Wash"},"longitude":"-0.027671"},"context":"","outcome_status":{"category":"Unable to prosecute suspect","date":"2019-06"},"persistent_id":"6e56d01a52e2d59f53355fba3ef5c8dc6e7588995b2f17fab18ca851a3068f74","id":75207937,"location_subtype":"","month":"2019-05"},{"category":"violent-crime","location_type":"Force","location":{"latitude":"51.711906","street":{"id":792242,"name":"On or near The Colonnade"},"longitude":"-0.033265"},"context":"","outcome_status":{"category":"Unable to prosecute suspect","date":"2019-07"},"persistent_id":"1e88da2afcd12baa1f9754eb3e4040428dcaea8b07eb2069a609cfaabaed7551","id":75210026,"location_subtype":"","month":"2019-05"},{"category":"violent-crime","location_type":"Force","location":{"latitude":"51.699214","street":{"id":791109,"name":"On or near Downfield Road"},"longitude":"-0.029821"},"context":"","outcome_status":{"category":"Investigation complete; no suspect identified","date":"2019-05"},"persistent_id":"23c3ac3ddb61c712fd4152474c9e5fcb917ffd47136c38ca87df3beedc179407","id":75200413,"location_subtype":"","month":"2019-05"},{"category":"violent-crime","location_type":"Force","location":{"latitude":"51.711528","street":{"id":792253,"name":"On or near Pine Close"},"longitude":"-0.039129"},"context":"","outcome_status":{"category":"Investigation complete; no suspect identified","date":"2019-05"},"persistent_id":"20f3f5377a4c0a4c35ede395cb58ae90fce03e950aafc6c736138a8023466c45","id":75200631,"location_subtype":"","month":"2019-05"},{"category":"violent-crime","location_type":"Force","location":{"latitude":"51.705579","street":{"id":792418,"name":"On or near Bullwell Crescent"},"longitude":"-0.030760"},"context":"","outcome_status":{"category":"Status update unavailable","date":"2019-09"},"persistent_id":"26f939dad4874d4f3dfd740472a42b65201baf54d49c4bc1e5cc3361a9159689","id":75205924,"location_subtype":"","month":"2019-05"},{"category":"violent-crime","location_type":"Force","location":{"latitude":"51.708997","street":{"id":787877,"name":"On or near The Mead"},"longitude":"-0.044276"},"context":"","outcome_status":{"category":"Court result unavailable","date":"2019-11"},"persistent_id":"5d2e24513224fc960f1d43abb07ed7bcae1709926bfca7c0e13127b63c2c482a","id":75199631,"location_subtype":"","month":"2019-05"},{"category":"violent-crime","location_type":"Force","location":{"latitude":"51.708426","street":{"id":792270,"name":"On or near High Street"},"longitude":"-0.037020"},"context":"","outcome_status":{"category":"Unable to prosecute suspect","date":"2019-05"},"persistent_id":"7fcc2d7172b5a37135ff12668d93d91e8f008123940633972c707d583a85ebcf","id":75199717,"location_subtype":"","month":"2019-05"},{"category":"violent-crime","location_type":"Force","location":{"latitude":"51.700970","street":{"id":791167,"name":"On or near Lynton Parade"},"longitude":"-0.034245"},"context":"","outcome_status":{"category":"Unable to prosecute suspect","date":"2019-05"},"persistent_id":"e90516f47dcb212bc213d627ad092b8abe43a2d1427a5005fd6d6bb328837de5","id":75200322,"location_subtype":"","month":"2019-05"},{"category":"violent-crime","location_type":"Force","location":{"latitude":"51.708157","street":{"id":792378,"name":"On or near Fieldings Road"},"longitude":"-0.024222"},"context":"","outcome_status":{"category":"Unable to prosecute suspect","date":"2019-06"},"persistent_id":"7198fe0c2415a10561569186f227365db6e6472ea01374ac6ce0a581af768577","id":75208466,"location_subtype":"","month":"2019-05"},{"category":"violent-crime","location_type":"Force","location":{"latitude":"51.702233","street":{"id":792239,"name":"On or near Turner's Hill"},"longitude":"-0.034495"},"context":"","outcome_status":{"category":"Unable to prosecute suspect","date":"2019-05"},"persistent_id":"60fa06e65fafb119388b0eee07536295f965ba2475c64980e1b6708522fa507f","id":75205705,"location_subtype":"","month":"2019-05"},{"category":"violent-crime","location_type":"Force","location":{"latitude":"51.690697","street":{"id":791116,"name":"On or near Sports\/recreation Area"},"longitude":"-0.031348"},"context":"","outcome_status":{"category":"Action to be taken by another organisation","date":"2019-05"},"persistent_id":"2a2ed04d12cdbef6621a0b0f4f9ff8369d4bc8b6bb7beeb715a706e8e374b8df","id":75198092,"location_subtype":"","month":"2019-05"},{"category":"violent-crime","location_type":"Force","location":{"latitude":"51.690480","street":{"id":791118,"name":"On or near Supermarket"},"longitude":"-0.033398"},"context":"","outcome_status":{"category":"Unable to prosecute suspect","date":"2019-05"},"persistent_id":"ea002a20f296f4dc5abed76318df2b7dd07e2ce0b9cb944f7bef9527a19effc1","id":75198817,"location_subtype":"","month":"2019-05"},{"category":"violent-crime","location_type":"Force","location":{"latitude":"51.708449","street":{"id":792305,"name":"On or near Church Lane"},"longitude":"-0.041100"},"context":"","outcome_status":{"category":"Unable to prosecute suspect","date":"2019-07"},"persistent_id":"d4da83b03f9caba3154d9bd0bdf1e9b6af8df3d8eac4d6d0ae88fe8cfa47c8db","id":75199628,"location_subtype":"","month":"2019-05"},{"category":"violent-crime","location_type":"Force","location":{"latitude":"51.714755","street":{"id":792408,"name":"On or near Endeavour Road"},"longitude":"-0.031027"},"context":"","outcome_status":{"category":"Further investigation is not in the public interest","date":"2019-07"},"persistent_id":"fe85a7f3ec6bdb8c4498b3bf856f6bb955b301e7da7997514e99686beab22b57","id":74200162,"location_subtype":"","month":"2019-05"},{"category":"other-crime","location_type":"Force","location":{"latitude":"51.693271","street":{"id":791188,"name":"On or near Burleigh Road"},"longitude":"-0.033624"},"context":"","outcome_status":{"category":"Unable to prosecute suspect","date":"2019-11"},"persistent_id":"ce962893eb72bf41cf693257e4f3c0adf9a86e1ab7c8670bea7e7d4e3318e6d1","id":75215055,"location_subtype":"","month":"2019-05"},{"category":"other-crime","location_type":"Force","location":{"latitude":"51.712093","street":{"id":792290,"name":"On or near Davison Drive"},"longitude":"-0.035269"},"context":"","outcome_status":{"category":"Unable to prosecute suspect","date":"2019-05"},"persistent_id":"ded845fe0a6eaa4690df411ace16ff9837335b149eb5d19d0b1a330c77164f04","id":75208913,"location_subtype":"","month":"2019-05"},{"category":"other-crime","location_type":"Force","location":{"latitude":"51.710063","street":{"id":792233,"name":"On or near Woolpack Court"},"longitude":"-0.035993"},"context":"","outcome_status":{"category":"Investigation complete; no suspect identified","date":"2019-06"},"persistent_id":"a580b4502031f03a6317ccdcf3b9578344d87bd69b0550bcb517bd0161713e5d","id":75202517,"location_subtype":"","month":"2019-05"}]