[{"category":"anti-social-behaviour","location_type":"Force","location":{"latitude":"51.492045","street":{"id":953994,"name":"On or near Longley Street"},"longitude":"-0.068758"},"context":"","outcome_status":null,"persistent_id":"","id":74286889,"location_subtype":"","month":"2019-05"},{"category":"anti-social-behaviour","location_type":"Force","location":{"latitude":"51.490603","street":{"id":948985,"name":"On or near St Helena Road"},"longitude":"-0.047946"},"context":"","outcome_status":null,"persistent_id":"","id":74285864,"location_subtype":"","month":"2019-05"},{"category":"anti-social-behaviour","location_type":"Force","location":{"latitude":"51.498174","street":{"id":953839,"name":"On or near Jamaica Road"},"longitude":"-0.067966"},"context":"","outcome_status":null,"persistent_id":"","id":74286888,"location_subtype":"","month":"2019-05"},{"category":"anti-social-behaviour","location_type":"Force","location":{"latitude":"51.492885","street":{"id":954160,"name":"On or near Rotherhithe Old Road"},"longitude":"-0.047834"},"context":"","outcome_status":null,"persistent_id":"","id":74285862,"location_subtype":"","month":"2019-05"},{"category":"anti-social-behaviour","location_type":"Force","location":{"latitude":"51.512042","street":{"id":955741,"name":"On or near Watney Street"},"longitude":"-0.056671"},"context":"","outcome_status":null,"persistent_id":"","id":74289800,"location_subtype":"","month":"2019-05"},{"category":"anti-social-behaviour","location_type":"Force","location":{"latitude":"51.510713","street":{"id":955783,"name":"On or near Bewley Street"},"longitude":"-0.056209"},"context":"","outcome_status":null,"persistent_id":"","id":74289803,"location_subtype":"","month":"2019-05"},{"category":"anti-social-behaviour","location_type":"Force","location":{"latitude":"51.510713","street":{"id":955783,"name":"On or near Bewley Street"},"longitude":"-0.056209"},"context":"","outcome_status":null,"persistent_id":"","id":74289804,"location_subtype":"","month":"2019-05"},{"category":"anti-social-behaviour","location_type":"Force","location":{"latitude":"51.512042","street":{"id":955741,"name":"On or near Watney Street"},"longitude":"-0.056671"},"context":"","outcome_status":null,"persistent_id":"","id":74289820,"location_subtype":"","month":"2019-05"},{"category":"anti-social-behaviour","location_type":"Force","location":{"latitude":"51.507944","street":{"id":955738,"name":"On or near Parking Area"},"longitude":"-0.057898"},"context":"","outcome_status":null,"persistent_id":"","id":74289834,"location_subtype":"","month":"2019-05"},{"category":"anti-social-behaviour","location_type":"Force","location":{"latitude":"51.506461","street":{"id":955916,"name":"On or near Farthing Fields"},"longitude":"-0.057384"},"context":"","outcome_status":null,"persistent_id":"","id":74289838,"location_subtype":"","month":"2019-05"},{"category":"anti-social-behaviour","location_type":"Force","location":{"latitude":"51.506386","street":{"id":955910,"name":"On or near Raine Street"},"longitude":"-0.057777"},"context":"","outcome_status":null,"persistent_id":"","id":74289855,"location_subtype":"","month":"2019-05"},{"category":"anti-social-behaviour","location_type":"Force","location":{"latitude":"51.506386","street":{"id":955910,"name":"On or near Raine Street"},"longitude":"-0.057777"},"context":"","outcome_status":null,"persistent_id":"","id":74289856,"location_subtype":"","month":"2019-05"},{"category":"anti-social-behaviour","location_type":"Force","location":{"latitude":"51.506386","street":{"id":955910,"name":"On or near Raine Street"},"longitude":"-0.057777"},"context":"","outcome_status":null,"persistent_id":"","id":74289857,"location_subtype":"","month":"2019-05"},{"category":"anti-social-behaviour","location_type":"Force","location":{"latitude":"51.506386","street":{"id":955910,"name":"On or near Raine Street"},"longitude":"-0.057777"},"context":"","outcome_status":null,"persistent_id":"","id":74289858,"location_subtype":"","month":"2019-05"},{"category":"anti-social-behaviour","location_type":"Force","location":{"latitude":"51.505363","street":{"id":955903,"name":"On or near Watts Street"},"longitude":"-0.058973"},"context":"","outcome_status":null,"persistent_id":"","id":74289865,"location_subtype":"","month":"2019-05"},{"category":"anti-social-behaviour","location_type":"Force","location":{"latitude":"51.505363","street":{"id":955903,"name":"On or near Watts Street"},"longitude":"-0.058973"},"context":"","outcome_status":null,"persistent_id":"","id":74289866,"location_subtype":"","month":"2019-05"},{"category":"anti-social-behaviour","location_type":"Force","location":{"latitude":"51.504104","street":{"id":954130,"name":"On or near Green Bank"},"longitude":"-0.059531"},"context":"","outcome_status":null,"persistent_id":"","id":74289869,"location_subtype":"","month":"2019-05"},{"category":"anti-social-behaviour","location_type":"Force","location":{"latitude":"51.506986","street":{"id":955912,"name":"On or near President Drive"},"longitude":"-0.060302"},"context":"","outcome_status":null,"persistent_id":"","id":74289895,"location_subtype":"","month":"2019-05"},{"category":"anti-social-behaviour","location_type":"Force","location":{"latitude":"51.510872","street":{"id":955767,"name":"On or near Hawksmoor Mews"},"longitude":"-0.060382"},"context":"","outcome_status":null,"persistent_id":"","id":74289900,"location_subtype":"","month":"2019-05"},{"category":"anti-social-behaviour","location_type":"Force","location":{"latitude":"51.503648","street":{"id":954133,"name":"On or near Dundee Street"},"longitude":"-0.060227"},"context":"","outcome_status":null,"persistent_id":"","id":74289904,"location_subtype":"","month":"2019-05"},{"category":"anti-social-behaviour","location_type":"Force","location":{"latitude":"51.506796","street":{"id":955904,"name":"On or near Waterman Way"},"longitude":"-0.060771"},"context":"","outcome_status":null,"persistent_id":"","id":74289927,"location_subtype":"","month":"2019-05"},{"category":"anti-social-behaviour","location_type":"Force","location":{"latitude":"51.506796","street":{"id":955904,"name":"On or near Waterman Way"},"longitude":"-0.060771"},"context":"","outcome_status":null,"persistent_id":"","id":74289928,"location_subtype":"","month":"2019-05"},{"category":"anti-social-behaviour","location_type":"Force","location":{"latitude":"51.510306","street":{"id":955773,"name":"On or near Crowder Street"},"longitude":"-0.061501"},"context":"","outcome_status":null,"persistent_id":"","id":74289930,"location_subtype":"","month":"2019-05"},{"category":"anti-social-behaviour","location_type":"Force","location":{"latitude":"51.509027","street":{"id":956017,"name":"On or near Artichoke Hill"},"longitude":"-0.063040"},"context":"","outcome_status":null,"persistent_id":"","id":74289931,"location_subtype":"","month":"2019-05"},{"category":"anti-social-behaviour","location_type":"Force","location":{"latitude":"51.510306","street":{"id":955773,"name":"On or near Crowder Street"},"longitude":"-0.061501"},"context":"","outcome_status":null,"persistent_id":"","id":74289943,"location_subtype":"","month":"2019-05"},{"category":"anti-social-behaviour","location_type":"Force","location":{"latitude":"51.493692","street":{"id":953981,"name":"On or near Yalding Road"},"longitude":"-0.069956"},"context":"","outcome_status":null,"persistent_id":"","id":74286903,"location_subtype":"","month":"2019-05"},{"category":"anti-social-behaviour","location_type":"Force","location":{"latitude":"51.492279","street":{"id":954168,"name":"On or near Hodnet Grove"},"longitude":"-0.049762"},"context":"","outcome_status":null,"persistent_id":"","id":74285869,"location_subtype":"","month":"2019-05"},{"category":"anti-social-behaviour","location_type":"Force","location":{"latitude":"51.497877","street":{"id":953834,"name":"On or near Major Road"},"longitude":"-0.064175"},"context":"","outcome_status":null,"persistent_id":"","id":74286841,"location_subtype":"","month":"2019-05"},{"category":"anti-social-behaviour","location_type":"Force","location":{"latitude":"51.489733","street":{"id":949128,"name":"On or near Welsford Street"},"longitude":"-0.069288"},"context":"","outcome_status":null,"persistent_id":"","id":74286898,"location_subtype":"","month":"2019-05"},{"category":"anti-social-behaviour","location_type":"Force","location":{"latitude":"51.500020","street":{"id":954062,"name":"On or near Needleman Street"},"longitude":"-0.047544"},"context":"","outcome_status":null,"persistent_id":"","id":74285868,"location_subtype":"","month":"2019-05"},{"category":"anti-social-behaviour","location_type":"Force","location":{"latitude":"51.495584","street":{"id":953819,"name":"On or near Webster Road"},"longitude":"-0.064157"},"context":"","outcome_status":null,"persistent_id":"","id":74285986,"location_subtype":"","month":"2019-05"},{"category":"anti-social-behaviour","location_type":"Force","location":{"latitude":"51.493692","street":{"id":953981,"name":"On or near Yalding Road"},"longitude":"-0.069956"},"context":"","outcome_status":null,"persistent_id":"","id":74286902,"location_subtype":"","month":"2019-05"},{"category":"anti-social-behaviour","location_type":"Force","location":{"latitude":"51.492885","street":{"id":954160,"name":"On or near Rotherhithe Old Road"},"longitude":"-0.047834"},"context":"","outcome_status":null,"persistent_id":"","id":74285866,"location_subtype":"","month":"2019-05"},{"category":"anti-social-behaviour","location_type":"Force","location":{"latitude":"51.493735","street":{"id":953982,"name":"On or near Woolstaplers Way"},"longitude":"-0.069811"},"context":"","outcome_status":null,"persistent_id":"","id":74286913,"location_subtype":"","month":"2019-05"},{"category":"anti-social-behaviour","location_type":"Force","location":{"latitude":"51.492885","street":{"id":954160,"name":"On or near Rotherhithe Old Road"},"longitude":"-0.047834"},"context":"","outcome_status":null,"persistent_id":"","id":74285865,"location_subtype":"","month":"2019-05"},{"category":"anti-social-behaviour","location_type":"Force","location":{"latitude":"51.510154","street":{"id":955822,"name":"On or near Redcastle Close"},"longitude":"-0.051780"},"context":"","outcome_status":null,"persistent_id":"","id":74289499,"location_subtype":"","month":"2019-05"},{"category":"anti-social-behaviour","location_type":"Force","location":{"latitude":"51.511489","street":{"id":955752,"name":"On or near Shadwell Gardens"},"longitude":"-0.055268"},"context":"","outcome_status":null,"persistent_id":"","id":74289778,"location_subtype":"","month":"2019-05"},{"category":"anti-social-behaviour","location_type":"Force","location":{"latitude":"51.500403","street":{"id":954079,"name":"On or near Garter Way"},"longitude":"-0.046778"},"context":"","outcome_status":null,"persistent_id":"","id":74285861,"location_subtype":"","month":"2019-05"},{"category":"anti-social-behaviour","location_type":"Force","location":{"latitude":"51.495057","street":{"id":954033,"name":"On or near Supermarket"},"longitude":"-0.046503"},"context":"","outcome_status":null,"persistent_id":"","id":74285860,"location_subtype":"","month":"2019-05"},{"category":"anti-social-behaviour","location_type":"Force","location":{"latitude":"51.504260","street":{"id":955892,"name":"On or near Katherine Close"},"longitude":"-0.047262"},"context":"","outcome_status":null,"persistent_id":"","id":74285863,"location_subtype":"","month":"2019-05"},{"category":"anti-social-behaviour","location_type":"Force","location":{"latitude":"51.491148","street":{"id":954164,"name":"On or near Oldfield Grove"},"longitude":"-0.046655"},"context":"","outcome_status":null,"persistent_id":"","id":74285858,"location_subtype":"","month":"2019-05"},{"category":"anti-social-behaviour","location_type":"Force","location":{"latitude":"51.511489","street":{"id":955752,"name":"On or near Shadwell Gardens"},"longitude":"-0.055268"},"context":"","outcome_status":null,"persistent_id":"","id":74289781,"location_subtype":"","month":"2019-05"},{"category":"anti-social-behaviour","location_type":"Force","location":{"latitude":"51.512042","street":{"id":955741,"name":"On or near Watney Street"},"longitude":"-0.056671"},"context":"","outcome_status":null,"persistent_id":"","id":74289819,"location_subtype":"","month":"2019-05"},{"category":"anti-social-behaviour","location_type":"Force","location":{"latitude":"51.493735","street":{"id":953982,"name":"On or near Woolstaplers Way"},"longitude":"-0.069811"},"context":"","outcome_status":null,"persistent_id":"","id":74286914,"location_subtype":"","month":"2019-05"},{"category":"anti-social-behaviour","location_type":"Force","location":{"latitude":"51.494187","street":{"id":954155,"name":"On or near Theatre\/concert Hall"},"longitude":"-0.062862"},"context":"","outcome_status":null,"persistent_id":"","id":74285985,"location_subtype":"","month":"2019-05"},{"category":"anti-social-behaviour","location_type":"Force","location":{"latitude":"51.492898","street":{"id":954158,"name":"On or near Tawny Way"},"longitude":"-0.046451"},"context":"","outcome_status":null,"persistent_id":"","id":74285857,"location_subtype":"","month":"2019-05"},{"category":"anti-social-behaviour","location_type":"Force","location":{"latitude":"51.492898","street":{"id":954158,"name":"On or near Tawny Way"},"longitude":"-0.046451"},"context":"","outcome_status":null,"persistent_id":"","id":74285856,"location_subtype":"","month":"2019-05"},{"category":"anti-social-behaviour","location_type":"Force","location":{"latitude":"51.506986","street":{"id":955912,"name":"On or near President Drive"},"longitude":"-0.060302"},"context":"","outcome_status":null,"persistent_id":"","id":74289894,"location_subtype":"","month":"2019-05"},{"category":"anti-social-behaviour","location_type":"Force","location":{"latitude":"51.498861","street":{"id":954096,"name":"On or near Canada Street"},"longitude":"-0.045432"},"context":"","outcome_status":null,"persistent_id":"","id":74285855,"location_subtype":"","month":"2019-05"},{"category":"anti-social-behaviour","location_type":"Force","location":{"latitude":"51.490715","street":{"id":949170,"name":"On or near Camilla Road"},"longitude":"-0.063384"},"context":"","outcome_status":null,"persistent_id":"","id":74285981,"location_subtype":"","month":"2019-05"},{"category":"anti-social-behaviour","location_type":"Force","location":{"latitude":"51.491785","street":{"id":954162,"name":"On or near Rotherhithe New Road"},"longitude":"-0.044971"},"context":"","outcome_status":null,"persistent_id":"","id":74285854,"location_subtype":"","month":"2019-05"},{"category":"anti-social-behaviour","location_type":"Force","location":{"latitude":"51.491785","street":{"id":954162,"name":"On or near Rotherhithe New Road"},"longitude":"-0.044971"},"context":"","outcome_status":null,"persistent_id":"","id":74285852,"location_subtype":"","month":"2019-05"},{"category":"anti-social-behaviour","location_type":"Force","location":{"latitude":"51.492070","street":{"id":954008,"name":"On or near Supermarket"},"longitude":"-0.063773"},"context":"","outcome_status":null,"persistent_id":"","id":74285979,"location_subtype":"","month":"2019-05"},{"category":"anti-social-behaviour","location_type":"Force","location":{"latitude":"51.492070","street":{"id":954008,"name":"On or near Supermarket"},"longitude":"-0.063773"},"context":"","outcome_status":null,"persistent_id":"","id":74285978,"location_subtype":"","month":"2019-05"},{"category":"anti-social-behaviour","location_type":"Force","location":{"latitude":"51.500275","street":{"id":954076,"name":"On or near Hardy Close"},"longitude":"-0.044493"},"context":"","outcome_status":null,"persistent_id":"","id":74284994,"location_subtype":"","month":"2019-05"},{"category":"anti-social-behaviour","location_type":"Force","location":{"latitude":"51.506986","street":{"id":955912,"name":"On or near President Drive"},"longitude":"-0.060302"},"context":"","outcome_status":null,"persistent_id":"","id":74289896,"location_subtype":"","month":"2019-05"},{"category":"anti-social-behaviour","location_type":"Force","location":{"latitude":"51.495550","street":{"id":954016,"name":"On or near Parking Area"},"longitude":"-0.044234"},"context":"","outcome_status":null,"persistent_id":"","id":74284993,"location_subtype":"","month":"2019-05"},{"category":"anti-social-behaviour","location_type":"Force","location":{"latitude":"51.506986","street":{"id":955912,"name":"On or near President Drive"},"longitude":"-0.060302"},"context":"","outcome_status":null,"persistent_id":"","id":74289897,"location_subtype":"","month":"2019-05"},{"category":"anti-social-behaviour","location_type":"Force","location":{"latitude":"51.510872","street":{"id":955767,"name":"On or near Hawksmoor Mews"},"longitude":"-0.060382"},"context":"","outcome_status":null,"persistent_id":"","id":74289901,"location_subtype":"","month":"2019-05"},{"category":"anti-social-behaviour","location_type":"Force","location":{"latitude":"51.492263","street":{"id":954157,"name":"On or near Trident Street"},"longitude":"-0.043438"},"context":"","outcome_status":null,"persistent_id":"","id":74284992,"location_subtype":"","month":"2019-05"},{"category":"anti-social-behaviour","location_type":"Force","location":{"latitude":"51.510240","street":{"id":955778,"name":"On or near Cannon Street Road"},"longitude":"-0.060769"},"context":"","outcome_status":null,"persistent_id":"","id":74289905,"location_subtype":"","month":"2019-05"},{"category":"anti-social-behaviour","location_type":"Force","location":{"latitude":"51.491483","street":{"id":954278,"name":"On or near Kempthorne Road"},"longitude":"-0.034958"},"context":"","outcome_status":null,"persistent_id":"","id":74277467,"location_subtype":"","month":"2019-05"},{"category":"anti-social-behaviour","location_type":"Force","location":{"latitude":"51.492263","street":{"id":954157,"name":"On or near Trident Street"},"longitude":"-0.043438"},"context":"","outcome_status":null,"persistent_id":"","id":74284991,"location_subtype":"","month":"2019-05"},{"category":"anti-social-behaviour","location_type":"Force","location":{"latitude":"51.492263","street":{"id":954157,"name":"On or near Trident Street"},"longitude":"-0.043438"},"context":"","outcome_status":null,"persistent_id":"","id":74284990,"location_subtype":"","month":"2019-05"},{"category":"anti-social-behaviour","location_type":"Force","location":{"latitude":"51.510306","street":{"id":955773,"name":"On or near Crowder Street"},"longitude":"-0.061501"},"context":"","outcome_status":null,"persistent_id":"","id":74289942,"location_subtype":"","month":"2019-05"},{"category":"anti-social-behaviour","location_type":"Force","location":{"latitude":"51.506460","street":{"id":956064,"name":"On or near Welland Mews"},"longitude":"-0.063293"},"context":"","outcome_status":null,"persistent_id":"","id":74274085,"location_subtype":"","month":"2019-05"},{"category":"anti-social-behaviour","location_type":"Force","location":{"latitude":"51.494187","street":{"id":954155,"name":"On or near Theatre\/concert Hall"},"longitude":"-0.062862"},"context":"","outcome_status":null,"persistent_id":"","id":74285972,"location_subtype":"","month":"2019-05"},{"category":"anti-social-behaviour","location_type":"Force","location":{"latitude":"51.490173","street":{"id":948946,"name":"On or near Tenda Road"},"longitude":"-0.062701"},"context":"","outcome_status":null,"persistent_id":"","id":74285961,"location_subtype":"","month":"2019-05"},{"category":"anti-social-behaviour","location_type":"Force","location":{"latitude":"51.495281","street":{"id":954113,"name":"On or near Clement's Road"},"longitude":"-0.062715"},"context":"","outcome_status":null,"persistent_id":"","id":74285960,"location_subtype":"","month":"2019-05"},{"category":"anti-social-behaviour","location_type":"Force","location":{"latitude":"51.490519","street":{"id":948953,"name":"On or near Roseberry Street"},"longitude":"-0.061880"},"context":"","outcome_status":null,"persistent_id":"","id":74285958,"location_subtype":"","month":"2019-05"},{"category":"anti-social-behaviour","location_type":"Force","location":{"latitude":"51.497989","street":{"id":954109,"name":"On or near Perryn Road"},"longitude":"-0.062773"},"context":"","outcome_status":null,"persistent_id":"","id":74285957,"location_subtype":"","month":"2019-05"},{"category":"anti-social-behaviour","location_type":"Force","location":{"latitude":"51.505045","street":{"id":956074,"name":"On or near Redmead Lane"},"longitude":"-0.067474"},"context":"","outcome_status":null,"persistent_id":"","id":74274200,"location_subtype":"","month":"2019-05"},{"category":"anti-social-behaviour","location_type":"Force","location":{"latitude":"51.496515","street":{"id":954018,"name":"On or near Surrey Quays Road"},"longitude":"-0.045994"},"context":"","outcome_status":null,"persistent_id":"","id":74284989,"location_subtype":"","month":"2019-05"},{"category":"anti-social-behaviour","location_type":"Force","location":{"latitude":"51.507469","street":{"id":955956,"name":"On or near Thomas More Street"},"longitude":"-0.068308"},"context":"","outcome_status":null,"persistent_id":"","id":74274221,"location_subtype":"","month":"2019-05"},{"category":"anti-social-behaviour","location_type":"Force","location":{"latitude":"51.505045","street":{"id":956074,"name":"On or near Redmead Lane"},"longitude":"-0.067474"},"context":"","outcome_status":null,"persistent_id":"","id":74274228,"location_subtype":"","month":"2019-05"},{"category":"anti-social-behaviour","location_type":"Force","location":{"latitude":"51.496515","street":{"id":954018,"name":"On or near Surrey Quays Road"},"longitude":"-0.045994"},"context":"","outcome_status":null,"persistent_id":"","id":74284988,"location_subtype":"","month":"2019-05"},{"category":"anti-social-behaviour","location_type":"Force","location":{"latitude":"51.496342","street":{"id":953825,"name":"On or near Spa Road"},"longitude":"-0.068159"},"context":"","outcome_status":null,"persistent_id":"","id":74286873,"location_subtype":"","month":"2019-05"},{"category":"anti-social-behaviour","location_type":"Force","location":{"latitude":"51.493035","street":{"id":954165,"name":"On or near Mayflower Close"},"longitude":"-0.043319"},"context":"","outcome_status":null,"persistent_id":"","id":74284987,"location_subtype":"","month":"2019-05"},{"category":"anti-social-behaviour","location_type":"Force","location":{"latitude":"51.492621","street":{"id":954270,"name":"On or near Plough Way"},"longitude":"-0.041161"},"context":"","outcome_status":null,"persistent_id":"","id":74284984,"location_subtype":"","month":"2019-05"},{"category":"anti-social-behaviour","location_type":"Force","location":{"latitude":"51.495281","street":{"id":954113,"name":"On or near Clement's Road"},"longitude":"-0.062715"},"context":"","outcome_status":null,"persistent_id":"","id":74285959,"location_subtype":"","month":"2019-05"},{"category":"anti-social-behaviour","location_type":"Force","location":{"latitude":"51.491862","street":{"id":954273,"name":"On or near Chilton Grove"},"longitude":"-0.040949"},"context":"","outcome_status":null,"persistent_id":"","id":74284986,"location_subtype":"","month":"2019-05"},{"category":"anti-social-behaviour","location_type":"Force","location":{"latitude":"51.492621","street":{"id":954270,"name":"On or near Plough Way"},"longitude":"-0.041161"},"context":"","outcome_status":null,"persistent_id":"","id":74284985,"location_subtype":"","month":"2019-05"},{"category":"anti-social-behaviour","location_type":"Force","location":{"latitude":"51.496187","street":{"id":954110,"name":"On or near Gataker Street"},"longitude":"-0.059867"},"context":"","outcome_status":null,"persistent_id":"","id":74285952,"location_subtype":"","month":"2019-05"},{"category":"anti-social-behaviour","location_type":"Force","location":{"latitude":"51.506174","street":{"id":955735,"name":"On or near Sports\/recreation Area"},"longitude":"-0.040162"},"context":"","outcome_status":null,"persistent_id":"","id":74284983,"location_subtype":"","month":"2019-05"},{"category":"anti-social-behaviour","location_type":"Force","location":{"latitude":"51.492052","street":{"id":953991,"name":"On or near Queen Annes Square"},"longitude":"-0.067577"},"context":"","outcome_status":null,"persistent_id":"","id":74286871,"location_subtype":"","month":"2019-05"},{"category":"anti-social-behaviour","location_type":"Force","location":{"latitude":"51.496187","street":{"id":954110,"name":"On or near Gataker Street"},"longitude":"-0.059867"},"context":"","outcome_status":null,"persistent_id":"","id":74285951,"location_subtype":"","month":"2019-05"},{"category":"anti-social-behaviour","location_type":"Force","location":{"latitude":"51.500886","street":{"id":953875,"name":"On or near Flockton Street"},"longitude":"-0.068284"},"context":"","outcome_status":null,"persistent_id":"","id":74286899,"location_subtype":"","month":"2019-05"},{"category":"anti-social-behaviour","location_type":"Force","location":{"latitude":"51.498215","street":{"id":954095,"name":"On or near Canada Street"},"longitude":"-0.046065"},"context":"","outcome_status":null,"persistent_id":"","id":74285859,"location_subtype":"","month":"2019-05"},{"category":"anti-social-behaviour","location_type":"Force","location":{"latitude":"51.506174","street":{"id":955735,"name":"On or near Sports\/recreation Area"},"longitude":"-0.040162"},"context":"","outcome_status":null,"persistent_id":"","id":74284981,"location_subtype":"","month":"2019-05"},{"category":"anti-social-behaviour","location_type":"Force","location":{"latitude":"51.506174","street":{"id":955735,"name":"On or near Sports\/recreation Area"},"longitude":"-0.040162"},"context":"","outcome_status":null,"persistent_id":"","id":74284982,"location_subtype":"","month":"2019-05"},{"category":"anti-social-behaviour","location_type":"Force","location":{"latitude":"51.486939","street":{"id":948957,"name":"On or near Masters Drive"},"longitude":"-0.060173"},"context":"","outcome_status":null,"persistent_id":"","id":74285950,"location_subtype":"","month":"2019-05"},{"category":"anti-social-behaviour","location_type":"Force","location":{"latitude":"51.499653","street":{"id":954246,"name":"On or near Vincents Close"},"longitude":"-0.038483"},"context":"","outcome_status":null,"persistent_id":"","id":74284979,"location_subtype":"","month":"2019-05"},{"category":"anti-social-behaviour","location_type":"Force","location":{"latitude":"51.496497","street":{"id":954226,"name":"On or near Helsinki Square"},"longitude":"-0.034210"},"context":"","outcome_status":null,"persistent_id":"","id":74284961,"location_subtype":"","month":"2019-05"},{"category":"anti-social-behaviour","location_type":"Force","location":{"latitude":"51.495649","street":{"id":954224,"name":"On or near South Sea Street"},"longitude":"-0.034044"},"context":"","outcome_status":null,"persistent_id":"","id":74284962,"location_subtype":"","month":"2019-05"},{"category":"anti-social-behaviour","location_type":"Force","location":{"latitude":"51.496871","street":{"id":954227,"name":"On or near Gulliver Street"},"longitude":"-0.034482"},"context":"","outcome_status":null,"persistent_id":"","id":74284963,"location_subtype":"","month":"2019-05"},{"category":"anti-social-behaviour","location_type":"Force","location":{"latitude":"51.501169","street":{"id":954235,"name":"On or near Holyoake Court"},"longitude":"-0.034455"},"context":"","outcome_status":null,"persistent_id":"","id":74284964,"location_subtype":"","month":"2019-05"},{"category":"anti-social-behaviour","location_type":"Force","location":{"latitude":"51.504303","street":{"id":955718,"name":"On or near Rotherhithe Street"},"longitude":"-0.034191"},"context":"","outcome_status":null,"persistent_id":"","id":74284965,"location_subtype":"","month":"2019-05"},{"category":"anti-social-behaviour","location_type":"Force","location":{"latitude":"51.502563","street":{"id":954237,"name":"On or near Byfield Close"},"longitude":"-0.035029"},"context":"","outcome_status":null,"persistent_id":"","id":74284966,"location_subtype":"","month":"2019-05"},{"category":"anti-social-behaviour","location_type":"Force","location":{"latitude":"51.500450","street":{"id":954259,"name":"On or near Downtown Road"},"longitude":"-0.036619"},"context":"","outcome_status":null,"persistent_id":"","id":74284968,"location_subtype":"","month":"2019-05"},{"category":"anti-social-behaviour","location_type":"Force","location":{"latitude":"51.494023","street":{"id":954216,"name":"On or near Rope Street"},"longitude":"-0.036275"},"context":"","outcome_status":null,"persistent_id":"","id":74284967,"location_subtype":"","month":"2019-05"},{"category":"anti-social-behaviour","location_type":"Force","location":{"latitude":"51.498446","street":{"id":954252,"name":"On or near Shipwright Road"},"longitude":"-0.037785"},"context":"","outcome_status":null,"persistent_id":"","id":74284969,"location_subtype":"","month":"2019-05"},{"category":"anti-social-behaviour","location_type":"Force","location":{"latitude":"51.503549","street":{"id":954258,"name":"On or near Fir Trees Close"},"longitude":"-0.036946"},"context":"","outcome_status":null,"persistent_id":"","id":74284971,"location_subtype":"","month":"2019-05"},{"category":"anti-social-behaviour","location_type":"Force","location":{"latitude":"51.498446","street":{"id":954252,"name":"On or near Shipwright Road"},"longitude":"-0.037785"},"context":"","outcome_status":null,"persistent_id":"","id":74284970,"location_subtype":"","month":"2019-05"},{"category":"anti-social-behaviour","location_type":"Force","location":{"latitude":"51.503549","street":{"id":954258,"name":"On or near Fir Trees Close"},"longitude":"-0.036946"},"context":"","outcome_status":null,"persistent_id":"","id":74284972,"location_subtype":"","month":"2019-05"},{"category":"anti-social-behaviour","location_type":"Force","location":{"latitude":"51.499540","street":{"id":954251,"name":"On or near Somerford Way"},"longitude":"-0.038127"},"context":"","outcome_status":null,"persistent_id":"","id":74284973,"location_subtype":"","month":"2019-05"},{"category":"anti-social-behaviour","location_type":"Force","location":{"latitude":"51.493232","street":{"id":954268,"name":"On or near Sweden Gate"},"longitude":"-0.038427"},"context":"","outcome_status":null,"persistent_id":"","id":74284974,"location_subtype":"","month":"2019-05"},{"category":"anti-social-behaviour","location_type":"Force","location":{"latitude":"51.496816","street":{"id":954217,"name":"On or near Plover Way"},"longitude":"-0.038201"},"context":"","outcome_status":null,"persistent_id":"","id":74284975,"location_subtype":"","month":"2019-05"},{"category":"anti-social-behaviour","location_type":"Force","location":{"latitude":"51.507216","street":{"id":955587,"name":"On or near Sophia Square"},"longitude":"-0.038446"},"context":"","outcome_status":null,"persistent_id":"","id":74284977,"location_subtype":"","month":"2019-05"},{"category":"anti-social-behaviour","location_type":"Force","location":{"latitude":"51.507216","street":{"id":955587,"name":"On or near Sophia Square"},"longitude":"-0.038446"},"context":"","outcome_status":null,"persistent_id":"","id":74284976,"location_subtype":"","month":"2019-05"},{"category":"anti-social-behaviour","location_type":"Force","location":{"latitude":"51.506215","street":{"id":955726,"name":"On or near Lavender Road"},"longitude":"-0.038302"},"context":"","outcome_status":null,"persistent_id":"","id":74284978,"location_subtype":"","month":"2019-05"},{"category":"anti-social-behaviour","location_type":"Force","location":{"latitude":"51.512163","street":{"id":955843,"name":"On or near Hardinge Street"},"longitude":"-0.050383"},"context":"","outcome_status":null,"persistent_id":"","id":74289443,"location_subtype":"","month":"2019-05"},{"category":"anti-social-behaviour","location_type":"Force","location":{"latitude":"51.486939","street":{"id":948957,"name":"On or near Masters Drive"},"longitude":"-0.060173"},"context":"","outcome_status":null,"persistent_id":"","id":74285949,"location_subtype":"","month":"2019-05"},{"category":"anti-social-behaviour","location_type":"Force","location":{"latitude":"51.494465","street":{"id":954114,"name":"On or near Banyard Road"},"longitude":"-0.059061"},"context":"","outcome_status":null,"persistent_id":"","id":74285947,"location_subtype":"","month":"2019-05"},{"category":"anti-social-behaviour","location_type":"Force","location":{"latitude":"51.494465","street":{"id":954114,"name":"On or near Banyard Road"},"longitude":"-0.059061"},"context":"","outcome_status":null,"persistent_id":"","id":74285946,"location_subtype":"","month":"2019-05"},{"category":"anti-social-behaviour","location_type":"Force","location":{"latitude":"51.486089","street":{"id":948949,"name":"On or near Ryder Drive"},"longitude":"-0.060411"},"context":"","outcome_status":null,"persistent_id":"","id":74285945,"location_subtype":"","month":"2019-05"},{"category":"anti-social-behaviour","location_type":"Force","location":{"latitude":"51.490615","street":{"id":949177,"name":"On or near Beatrice Road"},"longitude":"-0.064425"},"context":"","outcome_status":null,"persistent_id":"","id":74286846,"location_subtype":"","month":"2019-05"},{"category":"anti-social-behaviour","location_type":"Force","location":{"latitude":"51.496187","street":{"id":954110,"name":"On or near Gataker Street"},"longitude":"-0.059867"},"context":"","outcome_status":null,"persistent_id":"","id":74285942,"location_subtype":"","month":"2019-05"},{"category":"anti-social-behaviour","location_type":"Force","location":{"latitude":"51.490615","street":{"id":949177,"name":"On or near Beatrice Road"},"longitude":"-0.064425"},"context":"","outcome_status":null,"persistent_id":"","id":74286847,"location_subtype":"","month":"2019-05"},{"category":"anti-social-behaviour","location_type":"Force","location":{"latitude":"51.488074","street":{"id":948947,"name":"On or near Stubbs Drive"},"longitude":"-0.060298"},"context":"","outcome_status":null,"persistent_id":"","id":74285937,"location_subtype":"","month":"2019-05"},{"category":"anti-social-behaviour","location_type":"Force","location":{"latitude":"51.492271","street":{"id":954150,"name":"On or near Aspinden Road"},"longitude":"-0.057412"},"context":"","outcome_status":null,"persistent_id":"","id":74285923,"location_subtype":"","month":"2019-05"},{"category":"anti-social-behaviour","location_type":"Force","location":{"latitude":"51.486347","street":{"id":948969,"name":"On or near Barkworth Road"},"longitude":"-0.056468"},"context":"","outcome_status":null,"persistent_id":"","id":74285906,"location_subtype":"","month":"2019-05"},{"category":"anti-social-behaviour","location_type":"Force","location":{"latitude":"51.486347","street":{"id":948969,"name":"On or near Barkworth Road"},"longitude":"-0.056468"},"context":"","outcome_status":null,"persistent_id":"","id":74285905,"location_subtype":"","month":"2019-05"},{"category":"anti-social-behaviour","location_type":"Force","location":{"latitude":"51.495293","street":{"id":953836,"name":"On or near Linsey Street"},"longitude":"-0.066157"},"context":"","outcome_status":null,"persistent_id":"","id":74286857,"location_subtype":"","month":"2019-05"},{"category":"anti-social-behaviour","location_type":"Force","location":{"latitude":"51.486347","street":{"id":948969,"name":"On or near Barkworth Road"},"longitude":"-0.056468"},"context":"","outcome_status":null,"persistent_id":"","id":74285904,"location_subtype":"","month":"2019-05"},{"category":"anti-social-behaviour","location_type":"Force","location":{"latitude":"51.493012","street":{"id":954007,"name":"On or near Alexis Street"},"longitude":"-0.067406"},"context":"","outcome_status":null,"persistent_id":"","id":74286867,"location_subtype":"","month":"2019-05"},{"category":"anti-social-behaviour","location_type":"Force","location":{"latitude":"51.485004","street":{"id":948963,"name":"On or near Eagle Close"},"longitude":"-0.056799"},"context":"","outcome_status":null,"persistent_id":"","id":74285900,"location_subtype":"","month":"2019-05"},{"category":"anti-social-behaviour","location_type":"Force","location":{"latitude":"51.501960","street":{"id":953859,"name":"On or near Shad Thames"},"longitude":"-0.072402"},"context":"","outcome_status":null,"persistent_id":"","id":74270950,"location_subtype":"","month":"2019-05"},{"category":"anti-social-behaviour","location_type":"Force","location":{"latitude":"51.484969","street":{"id":948960,"name":"On or near Gerards Close"},"longitude":"-0.055806"},"context":"","outcome_status":null,"persistent_id":"","id":74285898,"location_subtype":"","month":"2019-05"},{"category":"anti-social-behaviour","location_type":"Force","location":{"latitude":"51.486347","street":{"id":948969,"name":"On or near Barkworth Road"},"longitude":"-0.056468"},"context":"","outcome_status":null,"persistent_id":"","id":74285896,"location_subtype":"","month":"2019-05"},{"category":"anti-social-behaviour","location_type":"Force","location":{"latitude":"51.492052","street":{"id":953991,"name":"On or near Queen Annes Square"},"longitude":"-0.067577"},"context":"","outcome_status":null,"persistent_id":"","id":74286872,"location_subtype":"","month":"2019-05"},{"category":"anti-social-behaviour","location_type":"Force","location":{"latitude":"51.490290","street":{"id":949013,"name":"On or near Debnams Road"},"longitude":"-0.054010"},"context":"","outcome_status":null,"persistent_id":"","id":74285895,"location_subtype":"","month":"2019-05"},{"category":"anti-social-behaviour","location_type":"Force","location":{"latitude":"51.496342","street":{"id":953825,"name":"On or near Spa Road"},"longitude":"-0.068159"},"context":"","outcome_status":null,"persistent_id":"","id":74286874,"location_subtype":"","month":"2019-05"},{"category":"anti-social-behaviour","location_type":"Force","location":{"latitude":"51.495381","street":{"id":954025,"name":"On or near Gomm Road"},"longitude":"-0.053001"},"context":"","outcome_status":null,"persistent_id":"","id":74285894,"location_subtype":"","month":"2019-05"},{"category":"anti-social-behaviour","location_type":"Force","location":{"latitude":"51.497115","street":{"id":953830,"name":"On or near Old Jamaica Road"},"longitude":"-0.069207"},"context":"","outcome_status":null,"persistent_id":"","id":74286908,"location_subtype":"","month":"2019-05"},{"category":"anti-social-behaviour","location_type":"Force","location":{"latitude":"51.497595","street":{"id":953833,"name":"On or near Marine Street"},"longitude":"-0.069417"},"context":"","outcome_status":null,"persistent_id":"","id":74286915,"location_subtype":"","month":"2019-05"},{"category":"anti-social-behaviour","location_type":"Force","location":{"latitude":"51.497595","street":{"id":953833,"name":"On or near Marine Street"},"longitude":"-0.069417"},"context":"","outcome_status":null,"persistent_id":"","id":74286917,"location_subtype":"","month":"2019-05"},{"category":"anti-social-behaviour","location_type":"Force","location":{"latitude":"51.502533","street":{"id":954054,"name":"On or near Rotherhithe Street"},"longitude":"-0.051024"},"context":"","outcome_status":null,"persistent_id":"","id":74285886,"location_subtype":"","month":"2019-05"},{"category":"anti-social-behaviour","location_type":"Force","location":{"latitude":"51.488540","street":{"id":949183,"name":"On or near Abercorn Way"},"longitude":"-0.067812"},"context":"","outcome_status":null,"persistent_id":"","id":74286869,"location_subtype":"","month":"2019-05"},{"category":"anti-social-behaviour","location_type":"Force","location":{"latitude":"51.488540","street":{"id":949183,"name":"On or near Abercorn Way"},"longitude":"-0.067812"},"context":"","outcome_status":null,"persistent_id":"","id":74286868,"location_subtype":"","month":"2019-05"},{"category":"anti-social-behaviour","location_type":"Force","location":{"latitude":"51.497595","street":{"id":953833,"name":"On or near Marine Street"},"longitude":"-0.069417"},"context":"","outcome_status":null,"persistent_id":"","id":74286916,"location_subtype":"","month":"2019-05"},{"category":"anti-social-behaviour","location_type":"Force","location":{"latitude":"51.497115","street":{"id":953830,"name":"On or near Old Jamaica Road"},"longitude":"-0.069207"},"context":"","outcome_status":null,"persistent_id":"","id":74286909,"location_subtype":"","month":"2019-05"},{"category":"anti-social-behaviour","location_type":"Force","location":{"latitude":"51.500440","street":{"id":953881,"name":"On or near Chambers Street"},"longitude":"-0.066891"},"context":"","outcome_status":null,"persistent_id":"","id":74286865,"location_subtype":"","month":"2019-05"},{"category":"anti-social-behaviour","location_type":"Force","location":{"latitude":"51.498855","street":{"id":954056,"name":"On or near Renforth Street"},"longitude":"-0.051513"},"context":"","outcome_status":null,"persistent_id":"","id":74285882,"location_subtype":"","month":"2019-05"},{"category":"anti-social-behaviour","location_type":"Force","location":{"latitude":"51.493768","street":{"id":953997,"name":"On or near Henley Drive"},"longitude":"-0.072935"},"context":"","outcome_status":null,"persistent_id":"","id":74270939,"location_subtype":"","month":"2019-05"},{"category":"anti-social-behaviour","location_type":"Force","location":{"latitude":"51.500280","street":{"id":953879,"name":"On or near Dockhead"},"longitude":"-0.071940"},"context":"","outcome_status":null,"persistent_id":"","id":74270946,"location_subtype":"","month":"2019-05"},{"category":"anti-social-behaviour","location_type":"Force","location":{"latitude":"51.500195","street":{"id":953871,"name":"On or near Jamaica Road"},"longitude":"-0.073327"},"context":"","outcome_status":null,"persistent_id":"","id":74270957,"location_subtype":"","month":"2019-05"},{"category":"anti-social-behaviour","location_type":"Force","location":{"latitude":"51.498307","street":{"id":923900,"name":"On or near Gedling Place"},"longitude":"-0.073868"},"context":"","outcome_status":null,"persistent_id":"","id":74270959,"location_subtype":"","month":"2019-05"},{"category":"anti-social-behaviour","location_type":"Force","location":{"latitude":"51.500195","street":{"id":953871,"name":"On or near Jamaica Road"},"longitude":"-0.073327"},"context":"","outcome_status":null,"persistent_id":"","id":74270962,"location_subtype":"","month":"2019-05"},{"category":"anti-social-behaviour","location_type":"Force","location":{"latitude":"51.492188","street":{"id":954297,"name":"On or near Enterprize Way"},"longitude":"-0.032998"},"context":"","outcome_status":null,"persistent_id":"","id":74277413,"location_subtype":"","month":"2019-05"},{"category":"anti-social-behaviour","location_type":"Force","location":{"latitude":"51.492188","street":{"id":954297,"name":"On or near Enterprize Way"},"longitude":"-0.032998"},"context":"","outcome_status":null,"persistent_id":"","id":74277428,"location_subtype":"","month":"2019-05"},{"category":"anti-social-behaviour","location_type":"Force","location":{"latitude":"51.490253","street":{"id":948798,"name":"On or near Carteret Way"},"longitude":"-0.036668"},"context":"","outcome_status":null,"persistent_id":"","id":74277479,"location_subtype":"","month":"2019-05"},{"category":"anti-social-behaviour","location_type":"Force","location":{"latitude":"51.492239","street":{"id":954269,"name":"On or near Plough Way"},"longitude":"-0.037692"},"context":"","outcome_status":null,"persistent_id":"","id":74277497,"location_subtype":"","month":"2019-05"},{"category":"anti-social-behaviour","location_type":"Force","location":{"latitude":"51.492239","street":{"id":954269,"name":"On or near Plough Way"},"longitude":"-0.037692"},"context":"","outcome_status":null,"persistent_id":"","id":74277500,"location_subtype":"","month":"2019-05"},{"category":"anti-social-behaviour","location_type":"Force","location":{"latitude":"51.492239","street":{"id":954269,"name":"On or near Plough Way"},"longitude":"-0.037692"},"context":"","outcome_status":null,"persistent_id":"","id":74277501,"location_subtype":"","month":"2019-05"},{"category":"anti-social-behaviour","location_type":"Force","location":{"latitude":"51.489144","street":{"id":948787,"name":"On or near Sapphire Road"},"longitude":"-0.038660"},"context":"","outcome_status":null,"persistent_id":"","id":74277503,"location_subtype":"","month":"2019-05"},{"category":"anti-social-behaviour","location_type":"Force","location":{"latitude":"51.490767","street":{"id":954266,"name":"On or near Woodcroft Mews"},"longitude":"-0.040002"},"context":"","outcome_status":null,"persistent_id":"","id":74277509,"location_subtype":"","month":"2019-05"},{"category":"anti-social-behaviour","location_type":"Force","location":{"latitude":"51.489419","street":{"id":948789,"name":"On or near Rainsborough Avenue"},"longitude":"-0.039484"},"context":"","outcome_status":null,"persistent_id":"","id":74278310,"location_subtype":"","month":"2019-05"},{"category":"anti-social-behaviour","location_type":"Force","location":{"latitude":"51.487377","street":{"id":948786,"name":"On or near Scawen Road"},"longitude":"-0.041055"},"context":"","outcome_status":null,"persistent_id":"","id":74278313,"location_subtype":"","month":"2019-05"},{"category":"anti-social-behaviour","location_type":"Force","location":{"latitude":"51.488763","street":{"id":949014,"name":"On or near Crane Mead"},"longitude":"-0.050330"},"context":"","outcome_status":null,"persistent_id":"","id":74278371,"location_subtype":"","month":"2019-05"},{"category":"anti-social-behaviour","location_type":"Force","location":{"latitude":"51.510004","street":{"id":955593,"name":"On or near Narrow Street"},"longitude":"-0.039580"},"context":"","outcome_status":null,"persistent_id":"","id":74288692,"location_subtype":"","month":"2019-05"},{"category":"anti-social-behaviour","location_type":"Force","location":{"latitude":"51.510004","street":{"id":955593,"name":"On or near Narrow Street"},"longitude":"-0.039580"},"context":"","outcome_status":null,"persistent_id":"","id":74288698,"location_subtype":"","month":"2019-05"},{"category":"anti-social-behaviour","location_type":"Force","location":{"latitude":"51.512163","street":{"id":955843,"name":"On or near Hardinge Street"},"longitude":"-0.050383"},"context":"","outcome_status":null,"persistent_id":"","id":74289444,"location_subtype":"","month":"2019-05"},{"category":"anti-social-behaviour","location_type":"Force","location":{"latitude":"51.494057","street":{"id":953996,"name":"On or near Linsey Street"},"longitude":"-0.067521"},"context":"","outcome_status":null,"persistent_id":"","id":74286862,"location_subtype":"","month":"2019-05"},{"category":"anti-social-behaviour","location_type":"Force","location":{"latitude":"51.488763","street":{"id":949014,"name":"On or near Crane Mead"},"longitude":"-0.050330"},"context":"","outcome_status":null,"persistent_id":"","id":74285881,"location_subtype":"","month":"2019-05"},{"category":"anti-social-behaviour","location_type":"Force","location":{"latitude":"51.495293","street":{"id":953836,"name":"On or near Linsey Street"},"longitude":"-0.066157"},"context":"","outcome_status":null,"persistent_id":"","id":74286856,"location_subtype":"","month":"2019-05"},{"category":"anti-social-behaviour","location_type":"Force","location":{"latitude":"51.488763","street":{"id":949014,"name":"On or near Crane Mead"},"longitude":"-0.050330"},"context":"","outcome_status":null,"persistent_id":"","id":74285880,"location_subtype":"","month":"2019-05"},{"category":"anti-social-behaviour","location_type":"Force","location":{"latitude":"51.501887","street":{"id":954080,"name":"On or near Galleon Close"},"longitude":"-0.048948"},"context":"","outcome_status":null,"persistent_id":"","id":74285877,"location_subtype":"","month":"2019-05"},{"category":"anti-social-behaviour","location_type":"Force","location":{"latitude":"51.512163","street":{"id":955843,"name":"On or near Hardinge Street"},"longitude":"-0.050383"},"context":"","outcome_status":null,"persistent_id":"","id":74289445,"location_subtype":"","month":"2019-05"},{"category":"anti-social-behaviour","location_type":"Force","location":{"latitude":"51.499120","street":{"id":953855,"name":"On or near Waterside Close"},"longitude":"-0.065405"},"context":"","outcome_status":null,"persistent_id":"","id":74286853,"location_subtype":"","month":"2019-05"},{"category":"anti-social-behaviour","location_type":"Force","location":{"latitude":"51.509586","street":{"id":955845,"name":"On or near Glamis Road"},"longitude":"-0.050651"},"context":"","outcome_status":null,"persistent_id":"","id":74289448,"location_subtype":"","month":"2019-05"},{"category":"anti-social-behaviour","location_type":"Force","location":{"latitude":"51.503561","street":{"id":954090,"name":"On or near Clarence Mews"},"longitude":"-0.049006"},"context":"","outcome_status":null,"persistent_id":"","id":74285876,"location_subtype":"","month":"2019-05"},{"category":"anti-social-behaviour","location_type":"Force","location":{"latitude":"51.507747","street":{"id":955846,"name":"On or near Glamis Road"},"longitude":"-0.050874"},"context":"","outcome_status":null,"persistent_id":"","id":74289465,"location_subtype":"","month":"2019-05"},{"category":"anti-social-behaviour","location_type":"Force","location":{"latitude":"51.501244","street":{"id":954088,"name":"On or near Clipper Close"},"longitude":"-0.048630"},"context":"","outcome_status":null,"persistent_id":"","id":74285874,"location_subtype":"","month":"2019-05"},{"category":"anti-social-behaviour","location_type":"Force","location":{"latitude":"51.510154","street":{"id":955822,"name":"On or near Redcastle Close"},"longitude":"-0.051780"},"context":"","outcome_status":null,"persistent_id":"","id":74289475,"location_subtype":"","month":"2019-05"},{"category":"anti-social-behaviour","location_type":"Force","location":{"latitude":"51.499120","street":{"id":953855,"name":"On or near Waterside Close"},"longitude":"-0.065405"},"context":"","outcome_status":null,"persistent_id":"","id":74286852,"location_subtype":"","month":"2019-05"},{"category":"anti-social-behaviour","location_type":"Force","location":{"latitude":"51.493692","street":{"id":953981,"name":"On or near Yalding Road"},"longitude":"-0.069956"},"context":"","outcome_status":null,"persistent_id":"","id":74286904,"location_subtype":"","month":"2019-05"},{"category":"anti-social-behaviour","location_type":"Force","location":{"latitude":"51.510872","street":{"id":955767,"name":"On or near Hawksmoor Mews"},"longitude":"-0.060382"},"context":"","outcome_status":null,"persistent_id":"","id":74289902,"location_subtype":"","month":"2019-05"},{"category":"anti-social-behaviour","location_type":"Force","location":{"latitude":"51.491066","street":{"id":954161,"name":"On or near Rotherhithe New Road"},"longitude":"-0.049842"},"context":"","outcome_status":null,"persistent_id":"","id":74285873,"location_subtype":"","month":"2019-05"},{"category":"anti-social-behaviour","location_type":"Force","location":{"latitude":"51.491066","street":{"id":954161,"name":"On or near Rotherhithe New Road"},"longitude":"-0.049842"},"context":"","outcome_status":null,"persistent_id":"","id":74285875,"location_subtype":"","month":"2019-05"},{"category":"anti-social-behaviour","location_type":"Force","location":{"latitude":"51.499120","street":{"id":953855,"name":"On or near Waterside Close"},"longitude":"-0.065405"},"context":"","outcome_status":null,"persistent_id":"","id":74286851,"location_subtype":"","month":"2019-05"},{"category":"anti-social-behaviour","location_type":"Force","location":{"latitude":"51.491066","street":{"id":954161,"name":"On or near Rotherhithe New Road"},"longitude":"-0.049842"},"context":"","outcome_status":null,"persistent_id":"","id":74285872,"location_subtype":"","month":"2019-05"},{"category":"anti-social-behaviour","location_type":"Force","location":{"latitude":"51.489280","street":{"id":949187,"name":"On or near Further\/higher Educational Building"},"longitude":"-0.064712"},"context":"","outcome_status":null,"persistent_id":"","id":74286849,"location_subtype":"","month":"2019-05"},{"category":"anti-social-behaviour","location_type":"Force","location":{"latitude":"51.497877","street":{"id":953834,"name":"On or near Major Road"},"longitude":"-0.064175"},"context":"","outcome_status":null,"persistent_id":"","id":74286842,"location_subtype":"","month":"2019-05"},{"category":"anti-social-behaviour","location_type":"Force","location":{"latitude":"51.494901","street":{"id":954026,"name":"On or near Deal Porters Way"},"longitude":"-0.048483"},"context":"","outcome_status":null,"persistent_id":"","id":74285871,"location_subtype":"","month":"2019-05"},{"category":"anti-social-behaviour","location_type":"Force","location":{"latitude":"51.503561","street":{"id":954090,"name":"On or near Clarence Mews"},"longitude":"-0.049006"},"context":"","outcome_status":null,"persistent_id":"","id":74285870,"location_subtype":"","month":"2019-05"},{"category":"anti-social-behaviour","location_type":"Force","location":{"latitude":"51.506022","street":{"id":956063,"name":"On or near Park\/open Space"},"longitude":"-0.065084"},"context":"","outcome_status":null,"persistent_id":"","id":74274137,"location_subtype":"","month":"2019-05"},{"category":"anti-social-behaviour","location_type":"Force","location":{"latitude":"51.505746","street":{"id":956086,"name":"On or near Burr Close"},"longitude":"-0.069649"},"context":"","outcome_status":null,"persistent_id":"","id":74274231,"location_subtype":"","month":"2019-05"},{"category":"anti-social-behaviour","location_type":"Force","location":{"latitude":"51.506506","street":{"id":956076,"name":"On or near Mews Street"},"longitude":"-0.069386"},"context":"","outcome_status":null,"persistent_id":"","id":74274241,"location_subtype":"","month":"2019-05"},{"category":"anti-social-behaviour","location_type":"Force","location":{"latitude":"51.506506","street":{"id":956076,"name":"On or near Mews Street"},"longitude":"-0.069386"},"context":"","outcome_status":null,"persistent_id":"","id":74274242,"location_subtype":"","month":"2019-05"},{"category":"anti-social-behaviour","location_type":"Force","location":{"latitude":"51.506506","street":{"id":956076,"name":"On or near Mews Street"},"longitude":"-0.069386"},"context":"","outcome_status":null,"persistent_id":"","id":74274243,"location_subtype":"","month":"2019-05"},{"category":"anti-social-behaviour","location_type":"Force","location":{"latitude":"51.511281","street":{"id":955863,"name":"On or near Bere Street"},"longitude":"-0.043878"},"context":"","outcome_status":null,"persistent_id":"","id":74289369,"location_subtype":"","month":"2019-05"},{"category":"anti-social-behaviour","location_type":"Force","location":{"latitude":"51.507034","street":{"id":955809,"name":"On or near A101"},"longitude":"-0.048555"},"context":"","outcome_status":null,"persistent_id":"","id":74289412,"location_subtype":"","month":"2019-05"},{"category":"anti-social-behaviour","location_type":"Force","location":{"latitude":"51.512018","street":{"id":955865,"name":"On or near Barnardo Street"},"longitude":"-0.047103"},"context":"","outcome_status":null,"persistent_id":"","id":74289416,"location_subtype":"","month":"2019-05"},{"category":"anti-social-behaviour","location_type":"Force","location":{"latitude":"51.512018","street":{"id":955865,"name":"On or near Barnardo Street"},"longitude":"-0.047103"},"context":"","outcome_status":null,"persistent_id":"","id":74289420,"location_subtype":"","month":"2019-05"},{"category":"anti-social-behaviour","location_type":"Force","location":{"latitude":"51.512018","street":{"id":955865,"name":"On or near Barnardo Street"},"longitude":"-0.047103"},"context":"","outcome_status":null,"persistent_id":"","id":74289421,"location_subtype":"","month":"2019-05"},{"category":"anti-social-behaviour","location_type":"Force","location":{"latitude":"51.512018","street":{"id":955865,"name":"On or near Barnardo Street"},"longitude":"-0.047103"},"context":"","outcome_status":null,"persistent_id":"","id":74289422,"location_subtype":"","month":"2019-05"},{"category":"anti-social-behaviour","location_type":"Force","location":{"latitude":"51.510605","street":{"id":955860,"name":"On or near Brodlove Lane"},"longitude":"-0.047567"},"context":"","outcome_status":null,"persistent_id":"","id":74289427,"location_subtype":"","month":"2019-05"},{"category":"anti-social-behaviour","location_type":"Force","location":{"latitude":"51.510605","street":{"id":955860,"name":"On or near Brodlove Lane"},"longitude":"-0.047567"},"context":"","outcome_status":null,"persistent_id":"","id":74289428,"location_subtype":"","month":"2019-05"},{"category":"anti-social-behaviour","location_type":"Force","location":{"latitude":"51.510603","street":{"id":955850,"name":"On or near Elf Row"},"longitude":"-0.048533"},"context":"","outcome_status":null,"persistent_id":"","id":74289431,"location_subtype":"","month":"2019-05"},{"category":"anti-social-behaviour","location_type":"Force","location":{"latitude":"51.512163","street":{"id":955843,"name":"On or near Hardinge Street"},"longitude":"-0.050383"},"context":"","outcome_status":null,"persistent_id":"","id":74289442,"location_subtype":"","month":"2019-05"},{"category":"anti-social-behaviour","location_type":"Force","location":{"latitude":"51.511598","street":{"id":955838,"name":"On or near Johnson Street"},"longitude":"-0.051027"},"context":"","outcome_status":null,"persistent_id":"","id":74289446,"location_subtype":"","month":"2019-05"},{"category":"anti-social-behaviour","location_type":"Force","location":{"latitude":"51.511598","street":{"id":955838,"name":"On or near Johnson Street"},"longitude":"-0.051027"},"context":"","outcome_status":null,"persistent_id":"","id":74289447,"location_subtype":"","month":"2019-05"},{"category":"anti-social-behaviour","location_type":"Force","location":{"latitude":"51.509586","street":{"id":955845,"name":"On or near Glamis Road"},"longitude":"-0.050651"},"context":"","outcome_status":null,"persistent_id":"","id":74289449,"location_subtype":"","month":"2019-05"},{"category":"anti-social-behaviour","location_type":"Force","location":{"latitude":"51.509741","street":{"id":955814,"name":"On or near The Highway"},"longitude":"-0.051308"},"context":"","outcome_status":null,"persistent_id":"","id":74289461,"location_subtype":"","month":"2019-05"},{"category":"anti-social-behaviour","location_type":"Force","location":{"latitude":"51.511598","street":{"id":955838,"name":"On or near Johnson Street"},"longitude":"-0.051027"},"context":"","outcome_status":null,"persistent_id":"","id":74289462,"location_subtype":"","month":"2019-05"},{"category":"anti-social-behaviour","location_type":"Force","location":{"latitude":"51.511598","street":{"id":955838,"name":"On or near Johnson Street"},"longitude":"-0.051027"},"context":"","outcome_status":null,"persistent_id":"","id":74289463,"location_subtype":"","month":"2019-05"},{"category":"anti-social-behaviour","location_type":"Force","location":{"latitude":"51.511598","street":{"id":955838,"name":"On or near Johnson Street"},"longitude":"-0.051027"},"context":"","outcome_status":null,"persistent_id":"","id":74289464,"location_subtype":"","month":"2019-05"},{"category":"anti-social-behaviour","location_type":"Force","location":{"latitude":"51.510154","street":{"id":955822,"name":"On or near Redcastle Close"},"longitude":"-0.051780"},"context":"","outcome_status":null,"persistent_id":"","id":74289474,"location_subtype":"","month":"2019-05"},{"category":"anti-social-behaviour","location_type":"Force","location":{"latitude":"51.510154","street":{"id":955822,"name":"On or near Redcastle Close"},"longitude":"-0.051780"},"context":"","outcome_status":null,"persistent_id":"","id":74289476,"location_subtype":"","month":"2019-05"},{"category":"anti-social-behaviour","location_type":"Force","location":{"latitude":"51.510154","street":{"id":955822,"name":"On or near Redcastle Close"},"longitude":"-0.051780"},"context":"","outcome_status":null,"persistent_id":"","id":74289477,"location_subtype":"","month":"2019-05"},{"category":"anti-social-behaviour","location_type":"Force","location":{"latitude":"51.510154","street":{"id":955822,"name":"On or near Redcastle Close"},"longitude":"-0.051780"},"context":"","outcome_status":null,"persistent_id":"","id":74289500,"location_subtype":"","month":"2019-05"},{"category":"anti-social-behaviour","location_type":"Force","location":{"latitude":"51.510154","street":{"id":955822,"name":"On or near Redcastle Close"},"longitude":"-0.051780"},"context":"","outcome_status":null,"persistent_id":"","id":74289501,"location_subtype":"","month":"2019-05"},{"category":"anti-social-behaviour","location_type":"Force","location":{"latitude":"51.510154","street":{"id":955822,"name":"On or near Redcastle Close"},"longitude":"-0.051780"},"context":"","outcome_status":null,"persistent_id":"","id":74289502,"location_subtype":"","month":"2019-05"},{"category":"anti-social-behaviour","location_type":"Force","location":{"latitude":"51.510966","street":{"id":923885,"name":"On or near Cable Street"},"longitude":"-0.051428"},"context":"","outcome_status":null,"persistent_id":"","id":74289505,"location_subtype":"","month":"2019-05"},{"category":"anti-social-behaviour","location_type":"Force","location":{"latitude":"51.512376","street":{"id":955828,"name":"On or near Oyster Row"},"longitude":"-0.052377"},"context":"","outcome_status":null,"persistent_id":"","id":74289512,"location_subtype":"","month":"2019-05"},{"category":"anti-social-behaviour","location_type":"Force","location":{"latitude":"51.510315","street":{"id":955837,"name":"On or near Juniper Street"},"longitude":"-0.053373"},"context":"","outcome_status":null,"persistent_id":"","id":74289749,"location_subtype":"","month":"2019-05"},{"category":"anti-social-behaviour","location_type":"Force","location":{"latitude":"51.511039","street":{"id":955743,"name":"On or near Twine Court"},"longitude":"-0.054740"},"context":"","outcome_status":null,"persistent_id":"","id":74289757,"location_subtype":"","month":"2019-05"},{"category":"anti-social-behaviour","location_type":"Force","location":{"latitude":"51.511489","street":{"id":955752,"name":"On or near Shadwell Gardens"},"longitude":"-0.055268"},"context":"","outcome_status":null,"persistent_id":"","id":74289783,"location_subtype":"","month":"2019-05"},{"category":"anti-social-behaviour","location_type":"Force","location":{"latitude":"51.510154","street":{"id":955750,"name":"On or near Solander Gardens"},"longitude":"-0.055599"},"context":"","outcome_status":null,"persistent_id":"","id":74289771,"location_subtype":"","month":"2019-05"},{"category":"anti-social-behaviour","location_type":"Force","location":{"latitude":"51.509048","street":{"id":955754,"name":"On or near Rum Close"},"longitude":"-0.055574"},"context":"","outcome_status":null,"persistent_id":"","id":74289774,"location_subtype":"","month":"2019-05"},{"category":"anti-social-behaviour","location_type":"Force","location":{"latitude":"51.512053","street":{"id":955762,"name":"On or near Martha Street"},"longitude":"-0.055143"},"context":"","outcome_status":null,"persistent_id":"","id":74289775,"location_subtype":"","month":"2019-05"},{"category":"anti-social-behaviour","location_type":"Force","location":{"latitude":"51.511489","street":{"id":955752,"name":"On or near Shadwell Gardens"},"longitude":"-0.055268"},"context":"","outcome_status":null,"persistent_id":"","id":74289776,"location_subtype":"","month":"2019-05"},{"category":"anti-social-behaviour","location_type":"Force","location":{"latitude":"51.511489","street":{"id":955752,"name":"On or near Shadwell Gardens"},"longitude":"-0.055268"},"context":"","outcome_status":null,"persistent_id":"","id":74289777,"location_subtype":"","month":"2019-05"},{"category":"anti-social-behaviour","location_type":"Force","location":{"latitude":"51.511489","street":{"id":955752,"name":"On or near Shadwell Gardens"},"longitude":"-0.055268"},"context":"","outcome_status":null,"persistent_id":"","id":74289779,"location_subtype":"","month":"2019-05"},{"category":"anti-social-behaviour","location_type":"Force","location":{"latitude":"51.511489","street":{"id":955752,"name":"On or near Shadwell Gardens"},"longitude":"-0.055268"},"context":"","outcome_status":null,"persistent_id":"","id":74289780,"location_subtype":"","month":"2019-05"},{"category":"anti-social-behaviour","location_type":"Force","location":{"latitude":"51.511489","street":{"id":955752,"name":"On or near Shadwell Gardens"},"longitude":"-0.055268"},"context":"","outcome_status":null,"persistent_id":"","id":74289782,"location_subtype":"","month":"2019-05"},{"category":"anti-social-behaviour","location_type":"Force","location":{"latitude":"51.505350","street":{"id":955917,"name":"On or near Clegg Street"},"longitude":"-0.056538"},"context":"","outcome_status":null,"persistent_id":"","id":74289793,"location_subtype":"","month":"2019-05"},{"category":"anti-social-behaviour","location_type":"Force","location":{"latitude":"51.505350","street":{"id":955917,"name":"On or near Clegg Street"},"longitude":"-0.056538"},"context":"","outcome_status":null,"persistent_id":"","id":74289794,"location_subtype":"","month":"2019-05"},{"category":"anti-social-behaviour","location_type":"Force","location":{"latitude":"51.512042","street":{"id":955741,"name":"On or near Watney Street"},"longitude":"-0.056671"},"context":"","outcome_status":null,"persistent_id":"","id":74289799,"location_subtype":"","month":"2019-05"},{"category":"bicycle-theft","location_type":"Force","location":{"latitude":"51.500125","street":{"id":954099,"name":"On or near Archangel Street"},"longitude":"-0.043001"},"context":"","outcome_status":{"category":"Status update unavailable","date":"2019-09"},"persistent_id":"a4185df791858d81d373f7f39366c759700ee897821ce87dcdf891b3d93734a6","id":74302597,"location_subtype":"","month":"2019-05"},{"category":"bicycle-theft","location_type":"Force","location":{"latitude":"51.507428","street":{"id":955969,"name":"On or near Nesham Street"},"longitude":"-0.067488"},"context":"","outcome_status":{"category":"Status update unavailable","date":"2019-09"},"persistent_id":"f349ce7c41ce8b30af315c43e8672058e3970397e109dbb9152cb468779b9aef","id":74367715,"location_subtype":"","month":"2019-05"},{"category":"bicycle-theft","location_type":"Force","location":{"latitude":"51.494187","street":{"id":954155,"name":"On or near Theatre\/concert Hall"},"longitude":"-0.062862"},"context":"","outcome_status":{"category":"Status update unavailable","date":"2019-09"},"persistent_id":"f016ef7365b3d6bd561cc7c99a77426c4967408bde310fd54db1070535a13448","id":74321877,"location_subtype":"","month":"2019-05"},{"category":"bicycle-theft","location_type":"Force","location":{"latitude":"51.497349","street":{"id":953837,"name":"On or near Keeton's Road"},"longitude":"-0.063232"},"context":"","outcome_status":{"category":"Status update unavailable","date":"2019-09"},"persistent_id":"6e48e2aec9bfbc5e0b50e810ac15558414e50162d2635fea44d63ff1259abb67","id":74367696,"location_subtype":"","month":"2019-05"},{"category":"bicycle-theft","location_type":"Force","location":{"latitude":"51.497555","street":{"id":954019,"name":"On or near Surrey Quays Road"},"longitude":"-0.049637"},"context":"","outcome_status":{"category":"Status update unavailable","date":"2019-09"},"persistent_id":"26506150e9698a528118040af50cd459c4097a52e3a3e51e32e7c8787799d06c","id":74319827,"location_subtype":"","month":"2019-05"},{"category":"bicycle-theft","location_type":"Force","location":{"latitude":"51.496873","street":{"id":953832,"name":"On or near Neckinger"},"longitude":"-0.073669"},"context":"","outcome_status":{"category":"Status update unavailable","date":"2019-09"},"persistent_id":"b2b04dd57cf0c55bdd50e8dddfdea2819dcc8cbe8b928c8ce5c449e088cf867c","id":74319828,"location_subtype":"","month":"2019-05"},{"category":"bicycle-theft","location_type":"Force","location":{"latitude":"51.494187","street":{"id":954155,"name":"On or near Theatre\/concert Hall"},"longitude":"-0.062862"},"context":"","outcome_status":{"category":"Status update unavailable","date":"2019-09"},"persistent_id":"34a658bba6d2380a4958d9eb307a787a024345f9c88c642b58e26086e02a0919","id":74339655,"location_subtype":"","month":"2019-05"},{"category":"bicycle-theft","location_type":"Force","location":{"latitude":"51.494187","street":{"id":954155,"name":"On or near Theatre\/concert Hall"},"longitude":"-0.062862"},"context":"","outcome_status":{"category":"Status update unavailable","date":"2019-09"},"persistent_id":"51f180c4abc9ea50d462b1cb769445c3a80f32989345148f25dde5a157d3897e","id":74320429,"location_subtype":"","month":"2019-05"},{"category":"bicycle-theft","location_type":"Force","location":{"latitude":"51.497555","street":{"id":954019,"name":"On or near Surrey Quays Road"},"longitude":"-0.049637"},"context":"","outcome_status":{"category":"Status update unavailable","date":"2019-09"},"persistent_id":"026cafd05f399aa7ce12d44b703659f5dd6ff5981eb3f7c4e78f6a03ce634853","id":74311627,"location_subtype":"","month":"2019-05"},{"category":"bicycle-theft","location_type":"Force","location":{"latitude":"51.494187","street":{"id":954155,"name":"On or near Theatre\/concert Hall"},"longitude":"-0.062862"},"context":"","outcome_status":{"category":"Status update unavailable","date":"2019-09"},"persistent_id":"2fea46c0c987ea53883469b4b4c9a5dbdfbdc158ea09d3896783bb2766f2c1df","id":74310192,"location_subtype":"","month":"2019-05"},{"category":"bicycle-theft","location_type":"Force","location":{"latitude":"51.500132","street":{"id":954125,"name":"On or near Pottery Street"},"longitude":"-0.062423"},"context":"","outcome_status":{"category":"Status update unavailable","date":"2019-09"},"persistent_id":"0777058354dd7fef2ebc0e3b64c17c22f513c9ffe19cb72717615d1857571500","id":74310163,"location_subtype":"","month":"2019-05"},{"category":"bicycle-theft","location_type":"Force","location":{"latitude":"51.495971","street":{"id":954020,"name":"On or near Redriff Road"},"longitude":"-0.041983"},"context":"","outcome_status":{"category":"Status update unavailable","date":"2019-09"},"persistent_id":"46c37055bd0567ba087d83be621e5d447badace978c8e482b4471ae7ccdbf23f","id":74325110,"location_subtype":"","month":"2019-05"},{"category":"bicycle-theft","location_type":"Force","location":{"latitude":"51.498855","street":{"id":954056,"name":"On or near Renforth Street"},"longitude":"-0.051513"},"context":"","outcome_status":{"category":"Status update unavailable","date":"2019-09"},"persistent_id":"1da1f211f72f923a4d8c13600ec971c515ffe4c330c9d66c6bd20cd93beb00f8","id":74344188,"location_subtype":"","month":"2019-05"},{"category":"bicycle-theft","location_type":"Force","location":{"latitude":"51.509048","street":{"id":955754,"name":"On or near Rum Close"},"longitude":"-0.055574"},"context":"","outcome_status":{"category":"Status update unavailable","date":"2019-09"},"persistent_id":"2f0728664589cb81b671dda08c6a9d6ebb0b53154b6b00327feaa7e94ac0320f","id":74341241,"location_subtype":"","month":"2019-05"},{"category":"bicycle-theft","location_type":"Force","location":{"latitude":"51.497555","street":{"id":954019,"name":"On or near Surrey Quays Road"},"longitude":"-0.049637"},"context":"","outcome_status":{"category":"Status update unavailable","date":"2019-09"},"persistent_id":"37d33c122169ede3775c4a2941417f0a9e4db5407edf6c81ac00b61715391fd3","id":74325129,"location_subtype":"","month":"2019-05"},{"category":"bicycle-theft","location_type":"Force","location":{"latitude":"51.506506","street":{"id":956076,"name":"On or near Mews Street"},"longitude":"-0.069386"},"context":"","outcome_status":{"category":"Status update unavailable","date":"2019-09"},"persistent_id":"303b4e801b82cddb11dbc25339b9a6243f48e3f9aa902a42d08e7718cb93f665","id":74335920,"location_subtype":"","month":"2019-05"},{"category":"bicycle-theft","location_type":"Force","location":{"latitude":"51.494187","street":{"id":954155,"name":"On or near Theatre\/concert Hall"},"longitude":"-0.062862"},"context":"","outcome_status":{"category":"Status update unavailable","date":"2019-09"},"persistent_id":"0bc36ce796d540efd256088f3965479b9a830501329cff7a5093825f3341a422","id":74307448,"location_subtype":"","month":"2019-05"},{"category":"bicycle-theft","location_type":"Force","location":{"latitude":"51.492271","street":{"id":954171,"name":"On or near Cope Street"},"longitude":"-0.046622"},"context":"","outcome_status":{"category":"Status update unavailable","date":"2019-09"},"persistent_id":"d28e97f86e51d86ba7e8982988951eb2add8b83ffc21ed86079852ae3e7a0ad6","id":74366622,"location_subtype":"","month":"2019-05"},{"category":"bicycle-theft","location_type":"Force","location":{"latitude":"51.494187","street":{"id":954155,"name":"On or near Theatre\/concert Hall"},"longitude":"-0.062862"},"context":"","outcome_status":{"category":"Court result unavailable","date":"2019-12"},"persistent_id":"4c4a0e39dae9baa073eb8a21462e925c15c6800e9fe0670a0d1ea77501fdf4d0","id":74333649,"location_subtype":"","month":"2019-05"},{"category":"bicycle-theft","location_type":"Force","location":{"latitude":"51.496799","street":{"id":954014,"name":"On or near Parking Area"},"longitude":"-0.050116"},"context":"","outcome_status":{"category":"Status update unavailable","date":"2019-09"},"persistent_id":"59f32742c3d18a01e6651c458b705ccc354c3f8671eeea1adca51c2c69500e05","id":74362641,"location_subtype":"","month":"2019-05"},{"category":"bicycle-theft","location_type":"Force","location":{"latitude":"51.494187","street":{"id":954155,"name":"On or near Theatre\/concert Hall"},"longitude":"-0.062862"},"context":"","outcome_status":{"category":"Status update unavailable","date":"2019-09"},"persistent_id":"102356447b5e7013d535385e5819d9154d91efb27f001b208959ff25029e4e9f","id":74306263,"location_subtype":"","month":"2019-05"},{"category":"bicycle-theft","location_type":"Force","location":{"latitude":"51.510004","street":{"id":955593,"name":"On or near Narrow Street"},"longitude":"-0.039580"},"context":"","outcome_status":{"category":"Status update unavailable","date":"2019-09"},"persistent_id":"5246e8a1de82f42edd9e5ba49a0eac0ffedd32b8a084deadeb7b88726af71101","id":74363646,"location_subtype":"","month":"2019-05"},{"category":"bicycle-theft","location_type":"Force","location":{"latitude":"51.494187","street":{"id":954155,"name":"On or near Theatre\/concert Hall"},"longitude":"-0.062862"},"context":"","outcome_status":{"category":"Status update unavailable","date":"2019-09"},"persistent_id":"5c017ce324d29e391bee428a766e7e16b1cf11b7c854d443f9058b0ce605e6da","id":74349707,"location_subtype":"","month":"2019-05"},{"category":"bicycle-theft","location_type":"Force","location":{"latitude":"51.491378","street":{"id":954174,"name":"On or near Abbeyfield Road"},"longitude":"-0.054007"},"context":"","outcome_status":{"category":"Status update unavailable","date":"2019-09"},"persistent_id":"c65873476efcf9f0e4ceee4c6c01d127d18e7073cf9294b8b7b59e0855e71eb2","id":74362152,"location_subtype":"","month":"2019-05"},{"category":"bicycle-theft","location_type":"Force","location":{"latitude":"51.500615","street":{"id":954075,"name":"On or near Hatteraick Street"},"longitude":"-0.052446"},"context":"","outcome_status":{"category":"Status update unavailable","date":"2019-09"},"persistent_id":"ad3aae932d42cdbb26f593d20372f6316cfacfbd9be772e27710ddd11b59141c","id":74349816,"location_subtype":"","month":"2019-05"},{"category":"bicycle-theft","location_type":"Force","location":{"latitude":"51.492146","street":{"id":954305,"name":"On or near Capstan Road"},"longitude":"-0.033749"},"context":"","outcome_status":{"category":"Status update unavailable","date":"2019-09"},"persistent_id":"4565f75fee47189d6654981872d5701cdeabb1749d3d39442f5b208a6b17fcb4","id":74308650,"location_subtype":"","month":"2019-05"},{"category":"bicycle-theft","location_type":"Force","location":{"latitude":"51.486488","street":{"id":949005,"name":"On or near Kezia Street"},"longitude":"-0.042231"},"context":"","outcome_status":{"category":"Status update unavailable","date":"2019-09"},"persistent_id":"b4b827dc2f0fc987ddd40c995e9a25204cd7dc9ca09cefddebc859e544f290de","id":74367752,"location_subtype":"","month":"2019-05"},{"category":"bicycle-theft","location_type":"Force","location":{"latitude":"51.497760","street":{"id":954220,"name":"On or near Lovell Place"},"longitude":"-0.038175"},"context":"","outcome_status":{"category":"Status update unavailable","date":"2019-09"},"persistent_id":"322215290b66ced86df30910c1de435b04204c40f79e54636a2d058ceb168d2e","id":74301538,"location_subtype":"","month":"2019-05"},{"category":"bicycle-theft","location_type":"Force","location":{"latitude":"51.497555","street":{"id":954019,"name":"On or near Surrey Quays Road"},"longitude":"-0.049637"},"context":"","outcome_status":{"category":"Status update unavailable","date":"2019-09"},"persistent_id":"0d1b48d905171d3981918860d92a837a1c17d86f141458c9cad2c0541115ad4d","id":74370273,"location_subtype":"","month":"2019-05"},{"category":"bicycle-theft","location_type":"Force","location":{"latitude":"51.491862","street":{"id":954273,"name":"On or near Chilton Grove"},"longitude":"-0.040949"},"context":"","outcome_status":{"category":"Status update unavailable","date":"2019-09"},"persistent_id":"333ef68a7e9b91f455c18a8abaae4299b241c98fc7b3769e84a1f90f0e54ff74","id":74339664,"location_subtype":"","month":"2019-05"},{"category":"bicycle-theft","location_type":"Force","location":{"latitude":"51.495389","street":{"id":954032,"name":"On or near Shopping Area"},"longitude":"-0.046978"},"context":"","outcome_status":{"category":"Investigation complete; no suspect identified","date":"2020-10"},"persistent_id":"7250c0c3101196da47fb66be0634e8c757631e0eb31ac7b9152ad384d352b980","id":74322123,"location_subtype":"","month":"2019-05"},{"category":"burglary","location_type":"Force","location":{"latitude":"51.506868","street":{"id":956080,"name":"On or near Kennet Street"},"longitude":"-0.064601"},"context":"","outcome_status":{"category":"Status update unavailable","date":"2019-09"},"persistent_id":"5ef76ca9714f18b46197627ea0ab2e69395d621dc6299d0ad5384e523f50b573","id":74298168,"location_subtype":"","month":"2019-05"},{"category":"burglary","location_type":"Force","location":{"latitude":"51.495502","street":{"id":953843,"name":"On or near Dunlop Place"},"longitude":"-0.071753"},"context":"","outcome_status":{"category":"Status update unavailable","date":"2019-09"},"persistent_id":"3e63a54273e5cb3653c6c230423eb3717843027b7342b57a9e4fdf7df271cf92","id":74316414,"location_subtype":"","month":"2019-05"},{"category":"burglary","location_type":"Force","location":{"latitude":"51.491217","street":{"id":954295,"name":"On or near George Beard Road"},"longitude":"-0.032506"},"context":"","outcome_status":{"category":"Status update unavailable","date":"2019-09"},"persistent_id":"ad43d03ebec2765f0bbe28fbd84c357a9926c9f93a05adef7d9bab950ab29088","id":74323464,"location_subtype":"","month":"2019-05"},{"category":"burglary","location_type":"Force","location":{"latitude":"51.500113","street":{"id":954100,"name":"On or near Albion Street"},"longitude":"-0.052035"},"context":"","outcome_status":{"category":"Status update unavailable","date":"2019-09"},"persistent_id":"c0938be16d150e9d7ec5c5ea528b99febf9d39528276a6fed9c4daf3bb91a42a","id":74315673,"location_subtype":"","month":"2019-05"},{"category":"burglary","location_type":"Force","location":{"latitude":"51.497595","street":{"id":953833,"name":"On or near Marine Street"},"longitude":"-0.069417"},"context":"","outcome_status":{"category":"Status update unavailable","date":"2019-09"},"persistent_id":"57fdb24638ab676fa66d365afc39482d7f1fc3115bad3fedee98bf3fa35d3760","id":74305637,"location_subtype":"","month":"2019-05"},{"category":"burglary","location_type":"Force","location":{"latitude":"51.507192","street":{"id":955924,"name":"On or near Mace Close"},"longitude":"-0.062426"},"context":"","outcome_status":{"category":"Status update unavailable","date":"2019-09"},"persistent_id":"ac09ff2ab4ca3bc15ca4eb9c500e677bdf0168b5a8cb6015590cd8271ecbb3ba","id":74305621,"location_subtype":"","month":"2019-05"},{"category":"burglary","location_type":"Force","location":{"latitude":"51.488701","street":{"id":949148,"name":"On or near Mason Close"},"longitude":"-0.064492"},"context":"","outcome_status":{"category":"Status update unavailable","date":"2019-09"},"persistent_id":"8456f244630d0d13bdccdbe94d33cdcce87c4571756158ace21466100e6af58a","id":74323959,"location_subtype":"","month":"2019-05"},{"category":"burglary","location_type":"Force","location":{"latitude":"51.496986","street":{"id":954219,"name":"On or near Norway Gate"},"longitude":"-0.036523"},"context":"","outcome_status":{"category":"Status update unavailable","date":"2019-09"},"persistent_id":"61c5252a71359287e965ca2baf9ae04c534525113390e6b9f3d624849eacfe71","id":74312555,"location_subtype":"","month":"2019-05"},{"category":"burglary","location_type":"Force","location":{"latitude":"51.510605","street":{"id":955860,"name":"On or near Brodlove Lane"},"longitude":"-0.047567"},"context":"","outcome_status":{"category":"Status update unavailable","date":"2019-09"},"persistent_id":"c26d281324e41b16c8daeaa22b048f7de4c5061eba2ee886f5f0c77f28708dc8","id":74309838,"location_subtype":"","month":"2019-05"},{"category":"burglary","location_type":"Force","location":{"latitude":"51.491735","street":{"id":954167,"name":"On or near Lower Road"},"longitude":"-0.044657"},"context":"","outcome_status":{"category":"Status update unavailable","date":"2019-09"},"persistent_id":"683cdf01906cd31ad4acb600a4ab75c8d15f76c937b82600a5afee1fd49beb69","id":74324629,"location_subtype":"","month":"2019-05"},{"category":"burglary","location_type":"Force","location":{"latitude":"51.496873","street":{"id":953832,"name":"On or near Neckinger"},"longitude":"-0.073669"},"context":"","outcome_status":{"category":"Status update unavailable","date":"2019-09"},"persistent_id":"d9591c60c16d1ee65e2dfe0285331136643fca53bb54a166289d47d9fd76f702","id":74309855,"location_subtype":"","month":"2019-05"},{"category":"burglary","location_type":"Force","location":{"latitude":"51.496497","street":{"id":954226,"name":"On or near Helsinki Square"},"longitude":"-0.034210"},"context":"","outcome_status":{"category":"Status update unavailable","date":"2019-09"},"persistent_id":"e7178a66e1005cd4a451fa3b5d0c7b3363c0af3fe4d1efe5bf7f5ed6fb420384","id":74310384,"location_subtype":"","month":"2019-05"},{"category":"burglary","location_type":"Force","location":{"latitude":"51.491155","street":{"id":953984,"name":"On or near Strathnairn Street"},"longitude":"-0.066073"},"context":"","outcome_status":{"category":"Investigation complete; no suspect identified","date":"2020-04"},"persistent_id":"3672bf5f8ee0931d260022d6b5e9be94e4100ecaf7506fb9c8de575f2a6bc2ab","id":74295944,"location_subtype":"","month":"2019-05"},{"category":"burglary","location_type":"Force","location":{"latitude":"51.507524","street":{"id":955739,"name":"On or near Park\/open Space"},"longitude":"-0.059674"},"context":"","outcome_status":{"category":"Court result unavailable","date":"2020-03"},"persistent_id":"52878ad6ed42558af70387c597a58656e452908498b36f5ec61ae0429f749b79","id":74339060,"location_subtype":"","month":"2019-05"},{"category":"burglary","location_type":"Force","location":{"latitude":"51.501236","street":{"id":954082,"name":"On or near Eleanor Close"},"longitude":"-0.046527"},"context":"","outcome_status":{"category":"Status update unavailable","date":"2019-09"},"persistent_id":"2656ce383a4ada2e6e73f1025503d102c505502aa1e5ca514a6de1d18434b682","id":74307506,"location_subtype":"","month":"2019-05"},{"category":"burglary","location_type":"Force","location":{"latitude":"51.498215","street":{"id":954095,"name":"On or near Canada Street"},"longitude":"-0.046065"},"context":"","outcome_status":{"category":"Status update unavailable","date":"2019-09"},"persistent_id":"3814332796c5d002592a7a7649df7f081503787c696a98e954a7fcd37c3c4c95","id":74307801,"location_subtype":"","month":"2019-05"},{"category":"burglary","location_type":"Force","location":{"latitude":"51.495550","street":{"id":954016,"name":"On or near Parking Area"},"longitude":"-0.044234"},"context":"","outcome_status":{"category":"Status update unavailable","date":"2019-09"},"persistent_id":"c843b62b112951c9cc0e8fd026d85c258b9062c9ffd7cd2d3e8365ade0a7bd58","id":74353102,"location_subtype":"","month":"2019-05"},{"category":"burglary","location_type":"Force","location":{"latitude":"51.504999","street":{"id":955919,"name":"On or near Cinnamon Street"},"longitude":"-0.056539"},"context":"","outcome_status":{"category":"Status update unavailable","date":"2019-09"},"persistent_id":"60556d7ad7eeba819d9a8a143936a93cd31ce1c4a0dbe29e54db7d290f779a18","id":74310394,"location_subtype":"","month":"2019-05"},{"category":"burglary","location_type":"Force","location":{"latitude":"51.512018","street":{"id":955865,"name":"On or near Barnardo Street"},"longitude":"-0.047103"},"context":"","outcome_status":{"category":"Status update unavailable","date":"2019-09"},"persistent_id":"d1b7f407fb2dd1399e76b51535c63067ba4ce4ec6d4a9ac27de0020cd164f305","id":74365838,"location_subtype":"","month":"2019-05"},{"category":"burglary","location_type":"Force","location":{"latitude":"51.507469","street":{"id":955956,"name":"On or near Thomas More Street"},"longitude":"-0.068308"},"context":"","outcome_status":{"category":"Status update unavailable","date":"2019-09"},"persistent_id":"a2eb38c0562f619baa7ee2f67571e966042db29d0ac241e709cb4059d68126cb","id":74313138,"location_subtype":"","month":"2019-05"},{"category":"burglary","location_type":"Force","location":{"latitude":"51.498855","street":{"id":954056,"name":"On or near Renforth Street"},"longitude":"-0.051513"},"context":"","outcome_status":{"category":"Status update unavailable","date":"2019-09"},"persistent_id":"b9db5ac79c84cce231ee0c56f50cff2cbeef04194ac06b4c256b811fe534e4f2","id":74365578,"location_subtype":"","month":"2019-05"},{"category":"burglary","location_type":"Force","location":{"latitude":"51.500129","street":{"id":954049,"name":"On or near Seth Street"},"longitude":"-0.049715"},"context":"","outcome_status":{"category":"Status update unavailable","date":"2019-09"},"persistent_id":"065f9d9f14620cdc481fd8a6195922fa52c537e04aef06a522a25924d984c9f4","id":74367511,"location_subtype":"","month":"2019-05"},{"category":"burglary","location_type":"Force","location":{"latitude":"51.498855","street":{"id":954056,"name":"On or near Renforth Street"},"longitude":"-0.051513"},"context":"","outcome_status":{"category":"Status update unavailable","date":"2019-09"},"persistent_id":"cd47f51dd62d00d8dfa2bf59c3f8658e9542c07e8b1677def058fe8381db11c5","id":74338447,"location_subtype":"","month":"2019-05"},{"category":"burglary","location_type":"Force","location":{"latitude":"51.494827","street":{"id":953840,"name":"On or near Goodwin Close"},"longitude":"-0.071176"},"context":"","outcome_status":{"category":"Status update unavailable","date":"2019-09"},"persistent_id":"4ca1c655f2108b460adde76e3dbf030db781d39ae0e8a233c902a73cf283de24","id":74339840,"location_subtype":"","month":"2019-05"},{"category":"burglary","location_type":"Force","location":{"latitude":"51.496000","street":{"id":954221,"name":"On or near Finland Street"},"longitude":"-0.036709"},"context":"","outcome_status":{"category":"Status update unavailable","date":"2019-09"},"persistent_id":"0bd4f3b2eb7653c28f6a89d16f84936276ad9f9ffed7efc6d705f1dbe16f23cb","id":74341325,"location_subtype":"","month":"2019-05"},{"category":"burglary","location_type":"Force","location":{"latitude":"51.510317","street":{"id":955586,"name":"On or near Spert Street"},"longitude":"-0.040547"},"context":"","outcome_status":{"category":"Status update unavailable","date":"2019-09"},"persistent_id":"e63911228bb1b0f3460874c71d5f77850bada40f8fbb5e30c8bc88b7d5c22828","id":74351838,"location_subtype":"","month":"2019-05"},{"category":"burglary","location_type":"Force","location":{"latitude":"51.495502","street":{"id":953843,"name":"On or near Dunlop Place"},"longitude":"-0.071753"},"context":"","outcome_status":{"category":"Status update unavailable","date":"2019-09"},"persistent_id":"5dbbf27bdd55b1035094e867480f875fca7ab2018a09341b6e5204b9149069b5","id":74345761,"location_subtype":"","month":"2019-05"},{"category":"burglary","location_type":"Force","location":{"latitude":"51.505463","street":{"id":956070,"name":"On or near Smeaton Street"},"longitude":"-0.062859"},"context":"","outcome_status":{"category":"Status update unavailable","date":"2019-09"},"persistent_id":"2345ab7905d440cb628d82e23a431a7d46b005485f966a573d84f9f2a85434bb","id":74346357,"location_subtype":"","month":"2019-05"},{"category":"burglary","location_type":"Force","location":{"latitude":"51.495502","street":{"id":953843,"name":"On or near Dunlop Place"},"longitude":"-0.071753"},"context":"","outcome_status":{"category":"Status update unavailable","date":"2019-09"},"persistent_id":"4e99cf8eae1be079aa53deafd1f4653dce38fd67efe9f464280912ec7f7cd076","id":74346776,"location_subtype":"","month":"2019-05"},{"category":"burglary","location_type":"Force","location":{"latitude":"51.505679","street":{"id":956084,"name":"On or near Douthwaite Square"},"longitude":"-0.063960"},"context":"","outcome_status":{"category":"Status update unavailable","date":"2019-09"},"persistent_id":"02c0e8313c43f4333460854a2af43dce4ffc4fcbf43e0c983ab7954ae8eb4b7a","id":74354299,"location_subtype":"","month":"2019-05"},{"category":"burglary","location_type":"Force","location":{"latitude":"51.506022","street":{"id":956063,"name":"On or near Park\/open Space"},"longitude":"-0.065084"},"context":"","outcome_status":{"category":"Status update unavailable","date":"2019-09"},"persistent_id":"781e20d954e521ce2feb0d2d2118ec7fb9151b6d751edc0b5b473f7d8bf7f755","id":74359665,"location_subtype":"","month":"2019-05"},{"category":"burglary","location_type":"Force","location":{"latitude":"51.488943","street":{"id":949007,"name":"On or near John Silkin Lane"},"longitude":"-0.043854"},"context":"","outcome_status":{"category":"Status update unavailable","date":"2019-09"},"persistent_id":"4243aa772157ff990f3ab0b41bdcc15c52a81e87e06a62ae6c53632abfae01f0","id":74361290,"location_subtype":"","month":"2019-05"},{"category":"burglary","location_type":"Force","location":{"latitude":"51.505363","street":{"id":955903,"name":"On or near Watts Street"},"longitude":"-0.058973"},"context":"","outcome_status":{"category":"Status update unavailable","date":"2019-09"},"persistent_id":"328fbf37a0f817e75b1c3ebe3828890ff4564efe502b4490d1dd9ab969154450","id":74366061,"location_subtype":"","month":"2019-05"},{"category":"burglary","location_type":"Force","location":{"latitude":"51.488943","street":{"id":949007,"name":"On or near John Silkin Lane"},"longitude":"-0.043854"},"context":"","outcome_status":{"category":"Court result unavailable","date":"2019-12"},"persistent_id":"e03b5d79ed25f402149b5c9011f229a05079dcfd5bb244d14de2a9d6cd41e86b","id":74356908,"location_subtype":"","month":"2019-05"},{"category":"burglary","location_type":"Force","location":{"latitude":"51.510872","street":{"id":955767,"name":"On or near Hawksmoor Mews"},"longitude":"-0.060382"},"context":"","outcome_status":{"category":"Court result unavailable","date":"2019-12"},"persistent_id":"bfe7d73597ed8b419557603b3762254d35046a5d6856fecaa8b082aefebefc1c","id":74322523,"location_subtype":"","month":"2019-05"},{"category":"burglary","location_type":"Force","location":{"latitude":"51.506841","street":{"id":956087,"name":"On or near Supermarket"},"longitude":"-0.067326"},"context":"","outcome_status":{"category":"Status update unavailable","date":"2019-09"},"persistent_id":"0599ea12498c90418a717a44860177b0406dc3115a1274afd7803d344bac27a6","id":74293381,"location_subtype":"","month":"2019-05"},{"category":"burglary","location_type":"Force","location":{"latitude":"51.487992","street":{"id":948816,"name":"On or near Grove Street"},"longitude":"-0.034331"},"context":"","outcome_status":{"category":"Status update unavailable","date":"2019-09"},"persistent_id":"cfa8e8b44edff7982e5c511dce2e562e9a4f709b5bb0e4758e804740a821ee41","id":74371719,"location_subtype":"","month":"2019-05"},{"category":"burglary","location_type":"Force","location":{"latitude":"51.510737","street":{"id":955844,"name":"On or near Glasshouse Fields"},"longitude":"-0.046855"},"context":"","outcome_status":{"category":"Status update unavailable","date":"2019-09"},"persistent_id":"e162b194ededb612df917b1717ccd12e1ba1d047c24c5161e9903e0b78fcc12c","id":74351425,"location_subtype":"","month":"2019-05"},{"category":"burglary","location_type":"Force","location":{"latitude":"51.506677","street":{"id":956073,"name":"On or near Roding Mews"},"longitude":"-0.065041"},"context":"","outcome_status":{"category":"Status update unavailable","date":"2019-09"},"persistent_id":"0a2fd515e89c0ae9e1d36f2cba4a82bd768b5ae06d9cbeceb0c5d83a4b4ad7ca","id":74350800,"location_subtype":"","month":"2019-05"},{"category":"burglary","location_type":"Force","location":{"latitude":"51.498855","street":{"id":954056,"name":"On or near Renforth Street"},"longitude":"-0.051513"},"context":"","outcome_status":{"category":"Status update unavailable","date":"2019-09"},"persistent_id":"224d62ec431af15b41a8d6ed111cb3ff60aed2c4028f21b3de6ffe0e49604c8e","id":74291044,"location_subtype":"","month":"2019-05"},{"category":"burglary","location_type":"Force","location":{"latitude":"51.509048","street":{"id":955754,"name":"On or near Rum Close"},"longitude":"-0.055574"},"context":"","outcome_status":{"category":"Status update unavailable","date":"2019-09"},"persistent_id":"1efb93d5477f07ff4f1e8891c67577542fcce2c5c4b4c2cfa0c9a07a58b8c525","id":74350505,"location_subtype":"","month":"2019-05"},{"category":"burglary","location_type":"Force","location":{"latitude":"51.500129","street":{"id":954049,"name":"On or near Seth Street"},"longitude":"-0.049715"},"context":"","outcome_status":{"category":"Status update unavailable","date":"2019-09"},"persistent_id":"c2ff56a9027419825bf1f75ac281f2cdb7a8f65bf77a2aa5a5309f1e75b55e5b","id":74291161,"location_subtype":"","month":"2019-05"},{"category":"burglary","location_type":"Force","location":{"latitude":"51.506460","street":{"id":956064,"name":"On or near Welland Mews"},"longitude":"-0.063293"},"context":"","outcome_status":{"category":"Status update unavailable","date":"2019-09"},"persistent_id":"bf84d94250e87cd53b0df6f425b2084ce5864190cb72f435424a0029dfecad16","id":74349621,"location_subtype":"","month":"2019-05"},{"category":"burglary","location_type":"Force","location":{"latitude":"51.491596","street":{"id":954173,"name":"On or near Bush Road"},"longitude":"-0.045484"},"context":"","outcome_status":{"category":"Status update unavailable","date":"2019-09"},"persistent_id":"1ee888befc6bb9c3a1b2a4e5a94c6b1e02dfdb9f9ac9f97ff256538822325310","id":74349535,"location_subtype":"","month":"2019-05"},{"category":"burglary","location_type":"Force","location":{"latitude":"51.493194","street":{"id":954003,"name":"On or near Blue Anchor Lane"},"longitude":"-0.063725"},"context":"","outcome_status":{"category":"Status update unavailable","date":"2019-09"},"persistent_id":"7aaa4425d6dfbeac05aae40cf8a9489f5b06cf8ebaf945476b2e332e59875f08","id":74372288,"location_subtype":"","month":"2019-05"},{"category":"burglary","location_type":"Force","location":{"latitude":"51.504091","street":{"id":955732,"name":"On or near Brewhouse Walk"},"longitude":"-0.039805"},"context":"","outcome_status":{"category":"Status update unavailable","date":"2019-09"},"persistent_id":"74bc4c5fa42ed926c588d16e1d7c9e42ffd2423f7e598049ff01acbb584c4518","id":74295982,"location_subtype":"","month":"2019-05"},{"category":"burglary","location_type":"Force","location":{"latitude":"51.498855","street":{"id":954056,"name":"On or near Renforth Street"},"longitude":"-0.051513"},"context":"","outcome_status":{"category":"Status update unavailable","date":"2019-09"},"persistent_id":"bc2f700b5e41b55f73c80e634af48e54815a45516c02f20586f2cbb72f14d709","id":74348259,"location_subtype":"","month":"2019-05"},{"category":"burglary","location_type":"Force","location":{"latitude":"51.499386","street":{"id":954038,"name":"On or near Wolfe Crescent"},"longitude":"-0.045626"},"context":"","outcome_status":{"category":"Status update unavailable","date":"2019-09"},"persistent_id":"dbf9c6e2527442b8e4dbfa597cc62a35e15bd9157aa9e6c3c46f746e54906dc5","id":74322554,"location_subtype":"","month":"2019-05"},{"category":"burglary","location_type":"Force","location":{"latitude":"51.496873","street":{"id":953832,"name":"On or near Neckinger"},"longitude":"-0.073669"},"context":"","outcome_status":{"category":"Status update unavailable","date":"2019-09"},"persistent_id":"6f807c1fd7e9d2eaa89d5d3963e72e9597177df90b56a334023212a97b4e924c","id":74320926,"location_subtype":"","month":"2019-05"},{"category":"burglary","location_type":"Force","location":{"latitude":"51.496187","street":{"id":954110,"name":"On or near Gataker Street"},"longitude":"-0.059867"},"context":"","outcome_status":{"category":"Status update unavailable","date":"2019-09"},"persistent_id":"96444449d11e0ada921e2f59b2f08c5e3e6d2f71421a82e291281b63549835ea","id":74355053,"location_subtype":"","month":"2019-05"},{"category":"burglary","location_type":"Force","location":{"latitude":"51.489419","street":{"id":948789,"name":"On or near Rainsborough Avenue"},"longitude":"-0.039484"},"context":"","outcome_status":{"category":"Status update unavailable","date":"2019-09"},"persistent_id":"1a104a836aaeb179e4ba499fadbb1cc6aafca0dc52f374440ca4c008277a8119","id":74354250,"location_subtype":"","month":"2019-05"},{"category":"burglary","location_type":"Force","location":{"latitude":"51.496000","street":{"id":954221,"name":"On or near Finland Street"},"longitude":"-0.036709"},"context":"","outcome_status":{"category":"Status update unavailable","date":"2019-09"},"persistent_id":"79fc9e6325726209a1c3a52682341007bcc080df7cf887c3019062042d0ea05b","id":74357169,"location_subtype":"","month":"2019-05"},{"category":"burglary","location_type":"Force","location":{"latitude":"51.489733","street":{"id":949128,"name":"On or near Welsford Street"},"longitude":"-0.069288"},"context":"","outcome_status":{"category":"Status update unavailable","date":"2019-09"},"persistent_id":"a02fac5e510404e328f051d63d8d0ad2961ee973fe938d8d881d334c34c53937","id":74348124,"location_subtype":"","month":"2019-05"},{"category":"burglary","location_type":"Force","location":{"latitude":"51.490767","street":{"id":954266,"name":"On or near Woodcroft Mews"},"longitude":"-0.040002"},"context":"","outcome_status":{"category":"Status update unavailable","date":"2019-09"},"persistent_id":"11f2e18bb9dbbda3a0e6c6fb8dd0fb4b992d5a921af54e118bb67386dbc83df6","id":74339833,"location_subtype":"","month":"2019-05"},{"category":"burglary","location_type":"Force","location":{"latitude":"51.500647","street":{"id":954064,"name":"On or near Middleton Drive"},"longitude":"-0.044679"},"context":"","outcome_status":{"category":"Status update unavailable","date":"2019-09"},"persistent_id":"a67cb684906925e44453a6d2f4b42f7d1146d3c05ef045a724011d722e4895c9","id":74300066,"location_subtype":"","month":"2019-05"},{"category":"burglary","location_type":"Force","location":{"latitude":"51.499860","street":{"id":954052,"name":"On or near Rupack Street"},"longitude":"-0.054092"},"context":"","outcome_status":{"category":"Status update unavailable","date":"2019-09"},"persistent_id":"3b88c7577a9409dbe3920f4fc0c9611d6ca11b8dd8251052aec7a6d11b6f5dc3","id":74339096,"location_subtype":"","month":"2019-05"},