[{"category":"anti-social-behaviour","location_type":"Force","location":{"latitude":"51.485787","street":{"id":679579,"name":"On or near Stafford Close"},"longitude":"0.292644"},"context":"","outcome_status":null,"persistent_id":"","id":74248592,"location_subtype":"","month":"2019-05"},{"category":"anti-social-behaviour","location_type":"Force","location":{"latitude":"51.487001","street":{"id":679584,"name":"On or near Kershaw Close"},"longitude":"0.294938"},"context":"","outcome_status":null,"persistent_id":"","id":74248590,"location_subtype":"","month":"2019-05"},{"category":"anti-social-behaviour","location_type":"Force","location":{"latitude":"51.481336","street":{"id":679414,"name":"On or near Rawlyn Close"},"longitude":"0.288935"},"context":"","outcome_status":null,"persistent_id":"","id":74248589,"location_subtype":"","month":"2019-05"},{"category":"anti-social-behaviour","location_type":"Force","location":{"latitude":"51.483091","street":{"id":679381,"name":"On or near Grenville Road"},"longitude":"0.287943"},"context":"","outcome_status":null,"persistent_id":"","id":74248588,"location_subtype":"","month":"2019-05"},{"category":"anti-social-behaviour","location_type":"Force","location":{"latitude":"51.481513","street":{"id":679394,"name":"On or near Santiago Way"},"longitude":"0.295987"},"context":"","outcome_status":null,"persistent_id":"","id":74248587,"location_subtype":"","month":"2019-05"},{"category":"anti-social-behaviour","location_type":"Force","location":{"latitude":"51.491792","street":{"id":679550,"name":"On or near Supermarket"},"longitude":"0.294127"},"context":"","outcome_status":null,"persistent_id":"","id":74248585,"location_subtype":"","month":"2019-05"},{"category":"anti-social-behaviour","location_type":"Force","location":{"latitude":"51.484708","street":{"id":679583,"name":"On or near Lennox Close"},"longitude":"0.289853"},"context":"","outcome_status":null,"persistent_id":"","id":74248584,"location_subtype":"","month":"2019-05"},{"category":"anti-social-behaviour","location_type":"Force","location":{"latitude":"51.481479","street":{"id":679310,"name":"On or near Hopewell Close"},"longitude":"0.297253"},"context":"","outcome_status":null,"persistent_id":"","id":74248582,"location_subtype":"","month":"2019-05"},{"category":"anti-social-behaviour","location_type":"Force","location":{"latitude":"51.485920","street":{"id":679566,"name":"On or near Flemming Road"},"longitude":"0.288589"},"context":"","outcome_status":null,"persistent_id":"","id":74248583,"location_subtype":"","month":"2019-05"},{"category":"anti-social-behaviour","location_type":"Force","location":{"latitude":"51.487001","street":{"id":679584,"name":"On or near Kershaw Close"},"longitude":"0.294938"},"context":"","outcome_status":null,"persistent_id":"","id":74248581,"location_subtype":"","month":"2019-05"},{"category":"anti-social-behaviour","location_type":"Force","location":{"latitude":"51.489033","street":{"id":679558,"name":"On or near Supermarket"},"longitude":"0.275564"},"context":"","outcome_status":null,"persistent_id":"","id":74248580,"location_subtype":"","month":"2019-05"},{"category":"anti-social-behaviour","location_type":"Force","location":{"latitude":"51.486092","street":{"id":679560,"name":"On or near Shopping Area"},"longitude":"0.277434"},"context":"","outcome_status":null,"persistent_id":"","id":74248579,"location_subtype":"","month":"2019-05"},{"category":"anti-social-behaviour","location_type":"Force","location":{"latitude":"51.486609","street":{"id":679573,"name":"On or near Shopping Area"},"longitude":"0.284143"},"context":"","outcome_status":null,"persistent_id":"","id":74248578,"location_subtype":"","month":"2019-05"},{"category":"anti-social-behaviour","location_type":"Force","location":{"latitude":"51.485772","street":{"id":679562,"name":"On or near Parking Area"},"longitude":"0.282330"},"context":"","outcome_status":null,"persistent_id":"","id":74248577,"location_subtype":"","month":"2019-05"},{"category":"anti-social-behaviour","location_type":"Force","location":{"latitude":"51.478573","street":{"id":679422,"name":"On or near Quarry Way"},"longitude":"0.270550"},"context":"","outcome_status":null,"persistent_id":"","id":74248576,"location_subtype":"","month":"2019-05"},{"category":"anti-social-behaviour","location_type":"Force","location":{"latitude":"51.486092","street":{"id":679560,"name":"On or near Shopping Area"},"longitude":"0.277434"},"context":"","outcome_status":null,"persistent_id":"","id":74248575,"location_subtype":"","month":"2019-05"},{"category":"anti-social-behaviour","location_type":"Force","location":{"latitude":"51.486092","street":{"id":679560,"name":"On or near Shopping Area"},"longitude":"0.277434"},"context":"","outcome_status":null,"persistent_id":"","id":74248574,"location_subtype":"","month":"2019-05"},{"category":"anti-social-behaviour","location_type":"Force","location":{"latitude":"51.489033","street":{"id":679558,"name":"On or near Supermarket"},"longitude":"0.275564"},"context":"","outcome_status":null,"persistent_id":"","id":74248573,"location_subtype":"","month":"2019-05"},{"category":"anti-social-behaviour","location_type":"Force","location":{"latitude":"51.486039","street":{"id":679526,"name":"On or near Parking Area"},"longitude":"0.270445"},"context":"","outcome_status":null,"persistent_id":"","id":74248572,"location_subtype":"","month":"2019-05"},{"category":"anti-social-behaviour","location_type":"Force","location":{"latitude":"51.488629","street":{"id":679531,"name":"On or near Parking Area"},"longitude":"0.282026"},"context":"","outcome_status":null,"persistent_id":"","id":74248570,"location_subtype":"","month":"2019-05"},{"category":"anti-social-behaviour","location_type":"Force","location":{"latitude":"51.490892","street":{"id":679538,"name":"On or near Howard Road"},"longitude":"0.290955"},"context":"","outcome_status":null,"persistent_id":"","id":74248571,"location_subtype":"","month":"2019-05"},{"category":"anti-social-behaviour","location_type":"Force","location":{"latitude":"51.487028","street":{"id":679648,"name":"On or near Sylvan Close"},"longitude":"0.304994"},"context":"","outcome_status":null,"persistent_id":"","id":74248640,"location_subtype":"","month":"2019-05"},{"category":"anti-social-behaviour","location_type":"Force","location":{"latitude":"51.493720","street":{"id":679553,"name":"On or near Parking Area"},"longitude":"0.293489"},"context":"","outcome_status":null,"persistent_id":"","id":74248608,"location_subtype":"","month":"2019-05"},{"category":"anti-social-behaviour","location_type":"Force","location":{"latitude":"51.492452","street":{"id":679557,"name":"On or near A1306"},"longitude":"0.296249"},"context":"","outcome_status":null,"persistent_id":"","id":74248603,"location_subtype":"","month":"2019-05"},{"category":"anti-social-behaviour","location_type":"Force","location":{"latitude":"51.488975","street":{"id":679590,"name":"On or near Frobisher Gardens"},"longitude":"0.307541"},"context":"","outcome_status":null,"persistent_id":"","id":74248600,"location_subtype":"","month":"2019-05"},{"category":"anti-social-behaviour","location_type":"Force","location":{"latitude":"51.485920","street":{"id":679566,"name":"On or near Flemming Road"},"longitude":"0.288589"},"context":"","outcome_status":null,"persistent_id":"","id":74248597,"location_subtype":"","month":"2019-05"},{"category":"anti-social-behaviour","location_type":"Force","location":{"latitude":"51.483077","street":{"id":679355,"name":"On or near Anne Heart Close"},"longitude":"0.299681"},"context":"","outcome_status":null,"persistent_id":"","id":74248596,"location_subtype":"","month":"2019-05"},{"category":"anti-social-behaviour","location_type":"Force","location":{"latitude":"51.485787","street":{"id":679579,"name":"On or near Stafford Close"},"longitude":"0.292644"},"context":"","outcome_status":null,"persistent_id":"","id":74248595,"location_subtype":"","month":"2019-05"},{"category":"anti-social-behaviour","location_type":"Force","location":{"latitude":"51.481513","street":{"id":679394,"name":"On or near Santiago Way"},"longitude":"0.295987"},"context":"","outcome_status":null,"persistent_id":"","id":74248594,"location_subtype":"","month":"2019-05"},{"category":"anti-social-behaviour","location_type":"Force","location":{"latitude":"51.490892","street":{"id":679538,"name":"On or near Howard Road"},"longitude":"0.290955"},"context":"","outcome_status":null,"persistent_id":"","id":74248593,"location_subtype":"","month":"2019-05"},{"category":"anti-social-behaviour","location_type":"Force","location":{"latitude":"51.486152","street":{"id":679577,"name":"On or near Swiftsure Road"},"longitude":"0.290502"},"context":"","outcome_status":null,"persistent_id":"","id":74248591,"location_subtype":"","month":"2019-05"},{"category":"anti-social-behaviour","location_type":"Force","location":{"latitude":"51.492281","street":{"id":679512,"name":"On or near Motorway Service Area"},"longitude":"0.272254"},"context":"","outcome_status":null,"persistent_id":"","id":74248531,"location_subtype":"","month":"2019-05"},{"category":"anti-social-behaviour","location_type":"Force","location":{"latitude":"51.477359","street":{"id":679376,"name":"On or near Park Avenue"},"longitude":"0.281161"},"context":"","outcome_status":null,"persistent_id":"","id":74248533,"location_subtype":"","month":"2019-05"},{"category":"anti-social-behaviour","location_type":"Force","location":{"latitude":"51.486039","street":{"id":679526,"name":"On or near Parking Area"},"longitude":"0.270445"},"context":"","outcome_status":null,"persistent_id":"","id":74248520,"location_subtype":"","month":"2019-05"},{"category":"anti-social-behaviour","location_type":"Force","location":{"latitude":"51.492281","street":{"id":679512,"name":"On or near Motorway Service Area"},"longitude":"0.272254"},"context":"","outcome_status":null,"persistent_id":"","id":74248522,"location_subtype":"","month":"2019-05"},{"category":"anti-social-behaviour","location_type":"Force","location":{"latitude":"51.475216","street":{"id":679304,"name":"On or near Pedestrian Subway"},"longitude":"0.298796"},"context":"","outcome_status":null,"persistent_id":"","id":74248534,"location_subtype":"","month":"2019-05"},{"category":"anti-social-behaviour","location_type":"Force","location":{"latitude":"51.475252","street":{"id":679406,"name":"On or near Manor Road"},"longitude":"0.290071"},"context":"","outcome_status":null,"persistent_id":"","id":74248523,"location_subtype":"","month":"2019-05"},{"category":"anti-social-behaviour","location_type":"Force","location":{"latitude":"51.475503","street":{"id":679385,"name":"On or near Essex Road"},"longitude":"0.278591"},"context":"","outcome_status":null,"persistent_id":"","id":74248535,"location_subtype":"","month":"2019-05"},{"category":"anti-social-behaviour","location_type":"Force","location":{"latitude":"51.475724","street":{"id":679390,"name":"On or near Parking Area"},"longitude":"0.289850"},"context":"","outcome_status":null,"persistent_id":"","id":74248524,"location_subtype":"","month":"2019-05"},{"category":"anti-social-behaviour","location_type":"Force","location":{"latitude":"51.492709","street":{"id":679527,"name":"On or near M25"},"longitude":"0.268256"},"context":"","outcome_status":null,"persistent_id":"","id":74250007,"location_subtype":"","month":"2019-05"},{"category":"anti-social-behaviour","location_type":"Force","location":{"latitude":"51.492709","street":{"id":679527,"name":"On or near M25"},"longitude":"0.268256"},"context":"","outcome_status":null,"persistent_id":"","id":74250009,"location_subtype":"","month":"2019-05"},{"category":"anti-social-behaviour","location_type":"Force","location":{"latitude":"51.486039","street":{"id":679526,"name":"On or near Parking Area"},"longitude":"0.270445"},"context":"","outcome_status":null,"persistent_id":"","id":74248536,"location_subtype":"","month":"2019-05"},{"category":"anti-social-behaviour","location_type":"Force","location":{"latitude":"51.475969","street":{"id":679402,"name":"On or near Oakley Close"},"longitude":"0.292036"},"context":"","outcome_status":null,"persistent_id":"","id":74248537,"location_subtype":"","month":"2019-05"},{"category":"anti-social-behaviour","location_type":"Force","location":{"latitude":"51.477043","street":{"id":679388,"name":"On or near Chapel Close"},"longitude":"0.284918"},"context":"","outcome_status":null,"persistent_id":"","id":74248526,"location_subtype":"","month":"2019-05"},{"category":"anti-social-behaviour","location_type":"Force","location":{"latitude":"51.474776","street":{"id":679412,"name":"On or near Schoolfield Road"},"longitude":"0.278958"},"context":"","outcome_status":null,"persistent_id":"","id":74248549,"location_subtype":"","month":"2019-05"},{"category":"anti-social-behaviour","location_type":"Force","location":{"latitude":"51.475629","street":{"id":679383,"name":"On or near Fox Manor Way"},"longitude":"0.282270"},"context":"","outcome_status":null,"persistent_id":"","id":74248550,"location_subtype":"","month":"2019-05"},{"category":"anti-social-behaviour","location_type":"Force","location":{"latitude":"51.474776","street":{"id":679412,"name":"On or near Schoolfield Road"},"longitude":"0.278958"},"context":"","outcome_status":null,"persistent_id":"","id":74248559,"location_subtype":"","month":"2019-05"},{"category":"anti-social-behaviour","location_type":"Force","location":{"latitude":"51.483091","street":{"id":679381,"name":"On or near Grenville Road"},"longitude":"0.287943"},"context":"","outcome_status":null,"persistent_id":"","id":74248586,"location_subtype":"","month":"2019-05"},{"category":"anti-social-behaviour","location_type":"Force","location":{"latitude":"51.475216","street":{"id":679304,"name":"On or near Pedestrian Subway"},"longitude":"0.298796"},"context":"","outcome_status":null,"persistent_id":"","id":74248551,"location_subtype":"","month":"2019-05"},{"category":"anti-social-behaviour","location_type":"Force","location":{"latitude":"51.477510","street":{"id":677796,"name":"On or near Charlotte Place"},"longitude":"0.285907"},"context":"","outcome_status":null,"persistent_id":"","id":74248552,"location_subtype":"","month":"2019-05"},{"category":"anti-social-behaviour","location_type":"Force","location":{"latitude":"51.486039","street":{"id":679526,"name":"On or near Parking Area"},"longitude":"0.270445"},"context":"","outcome_status":null,"persistent_id":"","id":74248553,"location_subtype":"","month":"2019-05"},{"category":"anti-social-behaviour","location_type":"Force","location":{"latitude":"51.475702","street":{"id":679409,"name":"On or near Hayes Close"},"longitude":"0.294658"},"context":"","outcome_status":null,"persistent_id":"","id":74248528,"location_subtype":"","month":"2019-05"},{"category":"anti-social-behaviour","location_type":"Force","location":{"latitude":"51.477510","street":{"id":677796,"name":"On or near Charlotte Place"},"longitude":"0.285907"},"context":"","outcome_status":null,"persistent_id":"","id":74248556,"location_subtype":"","month":"2019-05"},{"category":"anti-social-behaviour","location_type":"Force","location":{"latitude":"51.475629","street":{"id":679383,"name":"On or near Fox Manor Way"},"longitude":"0.282270"},"context":"","outcome_status":null,"persistent_id":"","id":74248558,"location_subtype":"","month":"2019-05"},{"category":"anti-social-behaviour","location_type":"Force","location":{"latitude":"51.476851","street":{"id":679350,"name":"On or near Charlton Street"},"longitude":"0.301672"},"context":"","outcome_status":null,"persistent_id":"","id":74248529,"location_subtype":"","month":"2019-05"},{"category":"anti-social-behaviour","location_type":"Force","location":{"latitude":"51.474776","street":{"id":679412,"name":"On or near Schoolfield Road"},"longitude":"0.278958"},"context":"","outcome_status":null,"persistent_id":"","id":74248530,"location_subtype":"","month":"2019-05"},{"category":"anti-social-behaviour","location_type":"Force","location":{"latitude":"51.475629","street":{"id":679383,"name":"On or near Fox Manor Way"},"longitude":"0.282270"},"context":"","outcome_status":null,"persistent_id":"","id":74248561,"location_subtype":"","month":"2019-05"},{"category":"anti-social-behaviour","location_type":"Force","location":{"latitude":"51.486092","street":{"id":679560,"name":"On or near Shopping Area"},"longitude":"0.277434"},"context":"","outcome_status":null,"persistent_id":"","id":74248565,"location_subtype":"","month":"2019-05"},{"category":"anti-social-behaviour","location_type":"Force","location":{"latitude":"51.486039","street":{"id":679526,"name":"On or near Parking Area"},"longitude":"0.270445"},"context":"","outcome_status":null,"persistent_id":"","id":74248566,"location_subtype":"","month":"2019-05"},{"category":"anti-social-behaviour","location_type":"Force","location":{"latitude":"51.478573","street":{"id":679422,"name":"On or near Quarry Way"},"longitude":"0.270550"},"context":"","outcome_status":null,"persistent_id":"","id":74248568,"location_subtype":"","month":"2019-05"},{"category":"anti-social-behaviour","location_type":"Force","location":{"latitude":"51.482444","street":{"id":679372,"name":"On or near Parking Area"},"longitude":"0.280536"},"context":"","outcome_status":null,"persistent_id":"","id":74248569,"location_subtype":"","month":"2019-05"},{"category":"bicycle-theft","location_type":"Force","location":{"latitude":"51.491792","street":{"id":679550,"name":"On or near Supermarket"},"longitude":"0.294127"},"context":"","outcome_status":{"category":"Investigation complete; no suspect identified","date":"2019-08"},"persistent_id":"204d865bea3cf3915e660c2d899cad0dbc01dede4ab25712bc8c66d378cac7ba","id":74246284,"location_subtype":"","month":"2019-05"},{"category":"bicycle-theft","location_type":"Force","location":{"latitude":"51.482958","street":{"id":679426,"name":"On or near Central Avenue"},"longitude":"0.272582"},"context":"","outcome_status":{"category":"Investigation complete; no suspect identified","date":"2019-05"},"persistent_id":"bf98c0010eca99ff82df3459979e23b76251f05b3143c2ec05f479505e119c16","id":74243883,"location_subtype":"","month":"2019-05"},{"category":"bicycle-theft","location_type":"Force","location":{"latitude":"51.477229","street":{"id":679307,"name":"On or near London Road"},"longitude":"0.297529"},"context":"","outcome_status":{"category":"Investigation complete; no suspect identified","date":"2019-05"},"persistent_id":"beb3127c1b24d9aeb32e23c85cbd5bfb7ecb6fe25dec56ebb02ae2349a246ec4","id":74242377,"location_subtype":"","month":"2019-05"},{"category":"bicycle-theft","location_type":"Force","location":{"latitude":"51.477229","street":{"id":679307,"name":"On or near London Road"},"longitude":"0.297529"},"context":"","outcome_status":{"category":"Investigation complete; no suspect identified","date":"2019-05"},"persistent_id":"da2979653f14c98831fbad830abc3844d793e417736e885905fdf0cc668a2c73","id":74243884,"location_subtype":"","month":"2019-05"},{"category":"burglary","location_type":"Force","location":{"latitude":"51.475142","street":{"id":679397,"name":"On or near Porter Close"},"longitude":"0.292499"},"context":"","outcome_status":{"category":"Investigation complete; no suspect identified","date":"2019-06"},"persistent_id":"cd0459d780311a10b6646d307980136510b23e56027bf80fcb7a2b5841b957bb","id":74244409,"location_subtype":"","month":"2019-05"},{"category":"burglary","location_type":"Force","location":{"latitude":"51.474776","street":{"id":679412,"name":"On or near Schoolfield Road"},"longitude":"0.278958"},"context":"","outcome_status":{"category":"Unable to prosecute suspect","date":"2019-07"},"persistent_id":"1801dc22379883fb6130f44bf85fa02f9ebe43a23139844ca2828b5c6f5bb256","id":74238520,"location_subtype":"","month":"2019-05"},{"category":"burglary","location_type":"Force","location":{"latitude":"51.477119","street":{"id":679392,"name":"On or near South View Road"},"longitude":"0.291201"},"context":"","outcome_status":{"category":"Investigation complete; no suspect identified","date":"2019-06"},"persistent_id":"2a8f2a5e643b370707302256b97979dc81110d606dd304c782212fd49c60b968","id":74241850,"location_subtype":"","month":"2019-05"},{"category":"burglary","location_type":"Force","location":{"latitude":"51.492281","street":{"id":679512,"name":"On or near Motorway Service Area"},"longitude":"0.272254"},"context":"","outcome_status":{"category":"Investigation complete; no suspect identified","date":"2019-09"},"persistent_id":"0e72a5e637c9d55ae7e0b8578bfc0ded4d2e1abc1b006a065692748f47a15791","id":74242357,"location_subtype":"","month":"2019-05"},{"category":"burglary","location_type":"Force","location":{"latitude":"51.486039","street":{"id":679526,"name":"On or near Parking Area"},"longitude":"0.270445"},"context":"","outcome_status":{"category":"Investigation complete; no suspect identified","date":"2019-05"},"persistent_id":"d374eed3b4aaf312d703f59c5c30ae634488187b77c4938a94bc722823666f1f","id":74239370,"location_subtype":"","month":"2019-05"},{"category":"burglary","location_type":"Force","location":{"latitude":"51.476343","street":{"id":679357,"name":"On or near Sports\/recreation Area"},"longitude":"0.303720"},"context":"","outcome_status":{"category":"Investigation complete; no suspect identified","date":"2019-06"},"persistent_id":"a12f3e23e8174fddadf0a389e4fe3ef7aa423be655a7e97b062390e612c20890","id":74231307,"location_subtype":"","month":"2019-05"},{"category":"burglary","location_type":"Force","location":{"latitude":"51.483929","street":{"id":679382,"name":"On or near Galleon Road"},"longitude":"0.288763"},"context":"","outcome_status":{"category":"Investigation complete; no suspect identified","date":"2019-06"},"persistent_id":"4bd1e2342747523a676d7877f6d6686cacac2568c87c04176c86401268251197","id":74234637,"location_subtype":"","month":"2019-05"},{"category":"burglary","location_type":"Force","location":{"latitude":"51.475142","street":{"id":679397,"name":"On or near Porter Close"},"longitude":"0.292499"},"context":"","outcome_status":{"category":"Investigation complete; no suspect identified","date":"2019-05"},"persistent_id":"9fdc02f536c5f72163ae33fadb58b10dda58366acd893a038091df3339ef111d","id":74235098,"location_subtype":"","month":"2019-05"},{"category":"criminal-damage-arson","location_type":"Force","location":{"latitude":"51.492452","street":{"id":679557,"name":"On or near A1306"},"longitude":"0.296249"},"context":"","outcome_status":{"category":"Unable to prosecute suspect","date":"2019-05"},"persistent_id":"2cdddbaf5f058ff2bb1982b5c7d98126f7651a30b31b462041a8207586105484","id":74236883,"location_subtype":"","month":"2019-05"},{"category":"criminal-damage-arson","location_type":"Force","location":{"latitude":"51.477321","street":{"id":679369,"name":"On or near Fourth Avenue"},"longitude":"0.277141"},"context":"","outcome_status":{"category":"Investigation complete; no suspect identified","date":"2019-05"},"persistent_id":"0a5df9314bba840626a1017547d22faeb11a2474cf0956e40f1194bb5702c98e","id":74231854,"location_subtype":"","month":"2019-05"},{"category":"criminal-damage-arson","location_type":"Force","location":{"latitude":"51.488434","street":{"id":679539,"name":"On or near Hayley Close"},"longitude":"0.295211"},"context":"","outcome_status":{"category":"Investigation complete; no suspect identified","date":"2019-05"},"persistent_id":"39c96449a1271ab69dcaebdeb116c7df1b8be53aa3d0e0a87f88c833309c87b5","id":74241673,"location_subtype":"","month":"2019-05"},{"category":"criminal-damage-arson","location_type":"Force","location":{"latitude":"51.489772","street":{"id":679532,"name":"On or near Parking Area"},"longitude":"0.280124"},"context":"","outcome_status":{"category":"Investigation complete; no suspect identified","date":"2019-05"},"persistent_id":"33486c0c44bff08dbf2d60e50fac0baa8f7062cfc07c5baf64222b960c8cf1b8","id":74231856,"location_subtype":"","month":"2019-05"},{"category":"criminal-damage-arson","location_type":"Force","location":{"latitude":"51.476275","street":{"id":679314,"name":"On or near Angle Road"},"longitude":"0.296171"},"context":"","outcome_status":{"category":"Unable to prosecute suspect","date":"2019-07"},"persistent_id":"705990014a0a26d27dab38f824d9fd09e050c976e2319e1cd73abe9d65356659","id":74230906,"location_subtype":"","month":"2019-05"},{"category":"criminal-damage-arson","location_type":"Force","location":{"latitude":"51.488628","street":{"id":679529,"name":"On or near Parking Area"},"longitude":"0.280701"},"context":"","outcome_status":{"category":"Investigation complete; no suspect identified","date":"2019-05"},"persistent_id":"4326df1d5dd2cc47dda8aea887e400013966d49ae05aa0b9cb9b0fb4cb2d8d0e","id":74237900,"location_subtype":"","month":"2019-05"},{"category":"criminal-damage-arson","location_type":"Force","location":{"latitude":"51.477830","street":{"id":679337,"name":"On or near London Road"},"longitude":"0.301232"},"context":"","outcome_status":{"category":"Unable to prosecute suspect","date":"2019-06"},"persistent_id":"3f6e947436883942bb41afd79297d0ce8a9173a21b9d1e1a656492d8f561d802","id":74242648,"location_subtype":"","month":"2019-05"},{"category":"criminal-damage-arson","location_type":"Force","location":{"latitude":"51.487302","street":{"id":679571,"name":"On or near Shopping Area"},"longitude":"0.281355"},"context":"","outcome_status":{"category":"Unable to prosecute suspect","date":"2019-06"},"persistent_id":"7a627a5a1f3251b6a32deed71d105adddbed1facbe9f5ad76fc60774d426cffb","id":74236396,"location_subtype":"","month":"2019-05"},{"category":"criminal-damage-arson","location_type":"Force","location":{"latitude":"51.474776","street":{"id":679412,"name":"On or near Schoolfield Road"},"longitude":"0.278958"},"context":"","outcome_status":{"category":"Unable to prosecute suspect","date":"2019-06"},"persistent_id":"f529706211075d079bff92c4e9bbed3e67dfb586fa44ca863236535058ff65fd","id":74236377,"location_subtype":"","month":"2019-05"},{"category":"criminal-damage-arson","location_type":"Force","location":{"latitude":"51.477830","street":{"id":679337,"name":"On or near London Road"},"longitude":"0.301232"},"context":"","outcome_status":{"category":"Unable to prosecute suspect","date":"2019-06"},"persistent_id":"a14064a997b386ee8e96eb5463c7c1bf95d823cf859a072bd755fe339e9cde2f","id":74242649,"location_subtype":"","month":"2019-05"},{"category":"criminal-damage-arson","location_type":"Force","location":{"latitude":"51.492281","street":{"id":679512,"name":"On or near Motorway Service Area"},"longitude":"0.272254"},"context":"","outcome_status":{"category":"Investigation complete; no suspect identified","date":"2019-06"},"persistent_id":"c4ed50324f7346baf3598aa002b555d854dcb23527eea2b3012d6ffb5401d5d5","id":74236897,"location_subtype":"","month":"2019-05"},{"category":"criminal-damage-arson","location_type":"Force","location":{"latitude":"51.475629","street":{"id":679383,"name":"On or near Fox Manor Way"},"longitude":"0.282270"},"context":"","outcome_status":{"category":"Investigation complete; no suspect identified","date":"2019-07"},"persistent_id":"8ea01eadfc8eadabdb65521fef63067f498b7b8c4d7c15d42088c9bb0a22ddbc","id":74234929,"location_subtype":"","month":"2019-05"},{"category":"criminal-damage-arson","location_type":"Force","location":{"latitude":"51.490877","street":{"id":678932,"name":"On or near Cumberland Road"},"longitude":"0.307291"},"context":"","outcome_status":{"category":"Investigation complete; no suspect identified","date":"2019-05"},"persistent_id":"c09521186f311fdd058984794eb56eb83a65168be9374697cd5809b374cbc2d7","id":74243646,"location_subtype":"","month":"2019-05"},{"category":"criminal-damage-arson","location_type":"Force","location":{"latitude":"51.475142","street":{"id":679397,"name":"On or near Porter Close"},"longitude":"0.292499"},"context":"","outcome_status":{"category":"Investigation complete; no suspect identified","date":"2019-05"},"persistent_id":"5949c67c6f44a44ecd5368450bde91ad0de5915d5ff6aa0e6789e554e3fff1a4","id":74235725,"location_subtype":"","month":"2019-05"},{"category":"criminal-damage-arson","location_type":"Force","location":{"latitude":"51.493720","street":{"id":679553,"name":"On or near Parking Area"},"longitude":"0.293489"},"context":"","outcome_status":{"category":"Investigation complete; no suspect identified","date":"2019-05"},"persistent_id":"06992f96e1f113072c0d0784f9b12350e7833ea59678dcde11f705d86f1a804c","id":74240508,"location_subtype":"","month":"2019-05"},{"category":"criminal-damage-arson","location_type":"Force","location":{"latitude":"51.486152","street":{"id":679577,"name":"On or near Swiftsure Road"},"longitude":"0.290502"},"context":"","outcome_status":{"category":"Investigation complete; no suspect identified","date":"2019-05"},"persistent_id":"956c351b20d12edb82b88df3ef1648be3e6efaa6432181bb4f29a836d6718159","id":74240215,"location_subtype":"","month":"2019-05"},{"category":"criminal-damage-arson","location_type":"Force","location":{"latitude":"51.492703","street":{"id":679628,"name":"On or near Daniel Close"},"longitude":"0.305006"},"context":"","outcome_status":{"category":"Unable to prosecute suspect","date":"2019-05"},"persistent_id":"2ad80d4796f92e98f65f8bd955b4f8a8719c00822306ccd3b498a8f5928fb7a5","id":74238694,"location_subtype":"","month":"2019-05"},{"category":"criminal-damage-arson","location_type":"Force","location":{"latitude":"51.475503","street":{"id":679385,"name":"On or near Essex Road"},"longitude":"0.278591"},"context":"","outcome_status":{"category":"Unable to prosecute suspect","date":"2019-07"},"persistent_id":"4446bde5d25f7508e5915fe81e439c45208fe5913f750548964d2e487fc31110","id":74241177,"location_subtype":"","month":"2019-05"},{"category":"criminal-damage-arson","location_type":"Force","location":{"latitude":"51.477830","street":{"id":679337,"name":"On or near London Road"},"longitude":"0.301232"},"context":"","outcome_status":{"category":"Investigation complete; no suspect identified","date":"2019-05"},"persistent_id":"156d73660a14faa3d1083aefc65a8a33a02efe2825317c54da46585f412e5cb8","id":74243479,"location_subtype":"","month":"2019-05"},{"category":"criminal-damage-arson","location_type":"Force","location":{"latitude":"51.492452","street":{"id":679557,"name":"On or near A1306"},"longitude":"0.296249"},"context":"","outcome_status":{"category":"Offender given a caution","date":"2019-05"},"persistent_id":"bff941188ef01a73023206ab543aae290b93dd2595d9ac48432951c81c8446b8","id":74238387,"location_subtype":"","month":"2019-05"},{"category":"criminal-damage-arson","location_type":"Force","location":{"latitude":"51.487772","street":{"id":679572,"name":"On or near Shopping Area"},"longitude":"0.284490"},"context":"","outcome_status":{"category":"Investigation complete; no suspect identified","date":"2019-05"},"persistent_id":"9b8ecdcb40af805bffbcf0b7847f478b8f4fadc7187ff3583be0c37de7627da2","id":74235386,"location_subtype":"","month":"2019-05"},{"category":"criminal-damage-arson","location_type":"Force","location":{"latitude":"51.474776","street":{"id":679412,"name":"On or near Schoolfield Road"},"longitude":"0.278958"},"context":"","outcome_status":{"category":"Investigation complete; no suspect identified","date":"2019-05"},"persistent_id":"79fdd03ca036b37c85130729102ea270be7bd93ae5fcafd801eaaf7a59c057c0","id":74236882,"location_subtype":"","month":"2019-05"},{"category":"criminal-damage-arson","location_type":"Force","location":{"latitude":"51.488728","street":{"id":679533,"name":"On or near Parking Area"},"longitude":"0.285272"},"context":"","outcome_status":{"category":"Investigation complete; no suspect identified","date":"2019-05"},"persistent_id":"0eff2761ac024da599cb867f1811553d49c5f7dcd9a15b29952ca0be2f8a76cc","id":74236397,"location_subtype":"","month":"2019-05"},{"category":"criminal-damage-arson","location_type":"Force","location":{"latitude":"51.482019","street":{"id":679312,"name":"On or near Hatfield Road"},"longitude":"0.296747"},"context":"","outcome_status":{"category":"Investigation complete; no suspect identified","date":"2019-05"},"persistent_id":"72ee0b96971672d5822987a1cb2175e8001074256db76d3cbbbdb97f85537af6","id":74236378,"location_subtype":"","month":"2019-05"},{"category":"criminal-damage-arson","location_type":"Force","location":{"latitude":"51.486609","street":{"id":679573,"name":"On or near Shopping Area"},"longitude":"0.284143"},"context":"","outcome_status":{"category":"Unable to prosecute suspect","date":"2019-05"},"persistent_id":"c17bd24e6b8cf672da4f3ff1e4324877d00c622df44f0a6091a1487cee0b12eb","id":74234966,"location_subtype":"","month":"2019-05"},{"category":"criminal-damage-arson","location_type":"Force","location":{"latitude":"51.475503","street":{"id":679385,"name":"On or near Essex Road"},"longitude":"0.278591"},"context":"","outcome_status":{"category":"Unable to prosecute suspect","date":"2019-05"},"persistent_id":"384fdd40f5e1db798e40825c1662cfe2c2470ebe78a93bda6e241c624b0ba8fc","id":74241204,"location_subtype":"","month":"2019-05"},{"category":"criminal-damage-arson","location_type":"Force","location":{"latitude":"51.486609","street":{"id":679573,"name":"On or near Shopping Area"},"longitude":"0.284143"},"context":"","outcome_status":{"category":"Unable to prosecute suspect","date":"2019-05"},"persistent_id":"d687518b36817b1f84f44074a0975aa67a7be917a31b4839549b2fabd1b89829","id":74234965,"location_subtype":"","month":"2019-05"},{"category":"criminal-damage-arson","location_type":"Force","location":{"latitude":"51.476647","street":{"id":679367,"name":"On or near Third Avenue"},"longitude":"0.277554"},"context":"","outcome_status":{"category":"Unable to prosecute suspect","date":"2019-05"},"persistent_id":"edbd8263a00b1d8bf469792f49fd54b848d03fa407296715326a98dcc0100f44","id":74234964,"location_subtype":"","month":"2019-05"},{"category":"criminal-damage-arson","location_type":"Force","location":{"latitude":"51.479982","street":{"id":679393,"name":"On or near Sewell Close"},"longitude":"0.291489"},"context":"","outcome_status":{"category":"Investigation complete; no suspect identified","date":"2019-05"},"persistent_id":"699619a987f734dfb6ea811a1b5d2ad6eea84acf9c1b047f2bd459375853ce39","id":74232935,"location_subtype":"","month":"2019-05"},{"category":"criminal-damage-arson","location_type":"Force","location":{"latitude":"51.477043","street":{"id":679388,"name":"On or near Chapel Close"},"longitude":"0.284918"},"context":"","outcome_status":{"category":"Investigation complete; no suspect identified","date":"2019-06"},"persistent_id":"85245dc579174bd09f1d61868b01422648a12c0a38413eabb49d2c864c3d9ff5","id":74238702,"location_subtype":"","month":"2019-05"},{"category":"drugs","location_type":"Force","location":{"latitude":"51.475995","street":{"id":679343,"name":"On or near Gumley Road"},"longitude":"0.302176"},"context":"","outcome_status":{"category":"Court result unavailable","date":"2019-11"},"persistent_id":"582d2530f7a1b98cfbf73dfffd5b81f9dc4d355b5f3f2c2c8f1ce26a69926028","id":74232613,"location_subtype":"","month":"2019-05"},{"category":"drugs","location_type":"Force","location":{"latitude":"51.477359","street":{"id":679376,"name":"On or near Park Avenue"},"longitude":"0.281161"},"context":"","outcome_status":{"category":"Status update unavailable","date":"2019-09"},"persistent_id":"ca10a0e51df31fd7688b745e9b7bbb6c9bf23f241690cd841d665ce53204b754","id":74239055,"location_subtype":"","month":"2019-05"},{"category":"drugs","location_type":"Force","location":{"latitude":"51.485772","street":{"id":679562,"name":"On or near Parking Area"},"longitude":"0.282330"},"context":"","outcome_status":{"category":"Offender given a drugs possession warning","date":"2019-06"},"persistent_id":"53047536cf435e6644d63f908a5fa889ff46c166475c27e1509b7154bc3bccf5","id":74245474,"location_subtype":"","month":"2019-05"},{"category":"drugs","location_type":"Force","location":{"latitude":"51.485772","street":{"id":679562,"name":"On or near Parking Area"},"longitude":"0.282330"},"context":"","outcome_status":{"category":"Local resolution","date":"2019-07"},"persistent_id":"a9f99591ace53d4c22122b5db62b8a1bd21f2443209f0292ff2e97c6e1d40d8f","id":74243506,"location_subtype":"","month":"2019-05"},{"category":"other-theft","location_type":"Force","location":{"latitude":"51.486039","street":{"id":679526,"name":"On or near Parking Area"},"longitude":"0.270445"},"context":"","outcome_status":{"category":"Unable to prosecute suspect","date":"2019-07"},"persistent_id":"7b1a938d8bfa8f90695088d1dc338c68e945b733d1b467df16746e23d6124da2","id":74244482,"location_subtype":"","month":"2019-05"},{"category":"other-theft","location_type":"Force","location":{"latitude":"51.482444","street":{"id":679372,"name":"On or near Parking Area"},"longitude":"0.280536"},"context":"","outcome_status":{"category":"Local resolution","date":"2019-09"},"persistent_id":"5b3b5130db876b3a091b04a855fe0566ea9fe9c7f88ae32d4c52d9e38b4e0292","id":74236692,"location_subtype":"","month":"2019-05"},{"category":"other-theft","location_type":"Force","location":{"latitude":"51.477229","street":{"id":679307,"name":"On or near London Road"},"longitude":"0.297529"},"context":"","outcome_status":{"category":"Investigation complete; no suspect identified","date":"2019-05"},"persistent_id":"36f9b0454b7cf7ab76d5856c283ee0430f2effcf86b1e694bd8601aeadbc4768","id":74237197,"location_subtype":"","month":"2019-05"},{"category":"other-theft","location_type":"Force","location":{"latitude":"51.491792","street":{"id":679550,"name":"On or near Supermarket"},"longitude":"0.294127"},"context":"","outcome_status":{"category":"Investigation complete; no suspect identified","date":"2019-05"},"persistent_id":"921daabbca6c9aad2c82624fe2411d315e026762cc781c3da211390b911e62e1","id":74242951,"location_subtype":"","month":"2019-05"},{"category":"other-theft","location_type":"Force","location":{"latitude":"51.492871","street":{"id":679622,"name":"On or near Hawkins Drive"},"longitude":"0.302393"},"context":"","outcome_status":{"category":"Investigation complete; no suspect identified","date":"2019-05"},"persistent_id":"056ee3a57db17b392bc730ca4d5f51e148c6957ca0845f38f8a7ee3182fd9823","id":74237701,"location_subtype":"","month":"2019-05"},{"category":"other-theft","location_type":"Force","location":{"latitude":"51.487772","street":{"id":679572,"name":"On or near Shopping Area"},"longitude":"0.284490"},"context":"","outcome_status":{"category":"Investigation complete; no suspect identified","date":"2019-05"},"persistent_id":"baa3915782d327f1c920b3c3783f6ad37378655f2c9d3e49ea0bc18f13888bc4","id":74246364,"location_subtype":"","month":"2019-05"},{"category":"other-theft","location_type":"Force","location":{"latitude":"51.493885","street":{"id":679640,"name":"On or near Arterial Road North Stifford"},"longitude":"0.304821"},"context":"","outcome_status":{"category":"Investigation complete; no suspect identified","date":"2019-05"},"persistent_id":"8289d604fa8ffcff7de75e61f2dcbf53397326db06c75dca0217e0d3bc66d416","id":74245923,"location_subtype":"","month":"2019-05"},{"category":"other-theft","location_type":"Force","location":{"latitude":"51.493885","street":{"id":679640,"name":"On or near Arterial Road North Stifford"},"longitude":"0.304821"},"context":"","outcome_status":{"category":"Investigation complete; no suspect identified","date":"2019-07"},"persistent_id":"e366c7d7a589a238c5a5183b3b3b4ab7bbe43b1b51a1b1473430c21dca2b9ba1","id":74245441,"location_subtype":"","month":"2019-05"},{"category":"other-theft","location_type":"Force","location":{"latitude":"51.482958","street":{"id":679426,"name":"On or near Central Avenue"},"longitude":"0.272582"},"context":"","outcome_status":{"category":"Investigation complete; no suspect identified","date":"2019-06"},"persistent_id":"a901089d719adb936f7a2a9409f3de8b432711283dbf00103326fedd5ab27e84","id":74240992,"location_subtype":"","month":"2019-05"},{"category":"other-theft","location_type":"Force","location":{"latitude":"51.486609","street":{"id":679573,"name":"On or near Shopping Area"},"longitude":"0.284143"},"context":"","outcome_status":{"category":"Unable to prosecute suspect","date":"2019-06"},"persistent_id":"8d6f986423d9de7aeb19f71f226d94262cf097b195dbdc0e8f98f14f6e4c0827","id":74231530,"location_subtype":"","month":"2019-05"},{"category":"other-theft","location_type":"Force","location":{"latitude":"51.492281","street":{"id":679512,"name":"On or near Motorway Service Area"},"longitude":"0.272254"},"context":"","outcome_status":{"category":"Unable to prosecute suspect","date":"2019-07"},"persistent_id":"4959f9ae755e2dc2ec151a91d17a168a83847ce898b9efbdbfaa3d015846e6a1","id":74237724,"location_subtype":"","month":"2019-05"},{"category":"other-theft","location_type":"Force","location":{"latitude":"51.477119","street":{"id":679392,"name":"On or near South View Road"},"longitude":"0.291201"},"context":"","outcome_status":{"category":"Investigation complete; no suspect identified","date":"2019-05"},"persistent_id":"f23f71ca540d6a90275ba2ac098c2f2d4ed2002e29772345847b94b3e2ff7a9a","id":74245409,"location_subtype":"","month":"2019-05"},{"category":"other-theft","location_type":"Force","location":{"latitude":"51.486039","street":{"id":679526,"name":"On or near Parking Area"},"longitude":"0.270445"},"context":"","outcome_status":{"category":"Unable to prosecute suspect","date":"2019-06"},"persistent_id":"9e222655c10e05139ceb24d020e9f38e7bc7e099b8cd0e433d8b2c23c2413083","id":74242457,"location_subtype":"","month":"2019-05"},{"category":"other-theft","location_type":"Force","location":{"latitude":"51.475142","street":{"id":679397,"name":"On or near Porter Close"},"longitude":"0.292499"},"context":"","outcome_status":{"category":"Investigation complete; no suspect identified","date":"2019-06"},"persistent_id":"cb17da9af025ef8964d8926cbe12ff722b7b1b06d11f2ae9c2f9071833dc7bb5","id":74243984,"location_subtype":"","month":"2019-05"},{"category":"other-theft","location_type":"Force","location":{"latitude":"51.487772","street":{"id":679572,"name":"On or near Shopping Area"},"longitude":"0.284490"},"context":"","outcome_status":{"category":"Investigation complete; no suspect identified","date":"2019-05"},"persistent_id":"fb2e4efd496d02b21d3a6a9b5e48e93606ec27e15628f21b6aff77262cdc80a6","id":74235702,"location_subtype":"","month":"2019-05"},{"category":"other-theft","location_type":"Force","location":{"latitude":"51.479893","street":{"id":679330,"name":"On or near Palmerston Road"},"longitude":"0.301998"},"context":"","outcome_status":{"category":"Unable to prosecute suspect","date":"2019-11"},"persistent_id":"0b4a4fa911cbb997070467b97c298df9916a20238bbb9badf3b42507917576eb","id":74243373,"location_subtype":"","month":"2019-05"},{"category":"other-theft","location_type":"Force","location":{"latitude":"51.485920","street":{"id":679566,"name":"On or near Flemming Road"},"longitude":"0.288589"},"context":"","outcome_status":{"category":"Investigation complete; no suspect identified","date":"2019-05"},"persistent_id":"7be3d12f10c94e44901b90b1be40c77974a9c803661261cc422b258dd6e8088c","id":74235221,"location_subtype":"","month":"2019-05"},{"category":"other-theft","location_type":"Force","location":{"latitude":"51.487496","street":{"id":679574,"name":"On or near Shopping Area"},"longitude":"0.282488"},"context":"","outcome_status":{"category":"Investigation complete; no suspect identified","date":"2019-05"},"persistent_id":"e47433330e2aaf7df9395712938139349d50d193a25b7a8bd13266bf7497cf36","id":74231528,"location_subtype":"","month":"2019-05"},{"category":"other-theft","location_type":"Force","location":{"latitude":"51.483091","street":{"id":679381,"name":"On or near Grenville Road"},"longitude":"0.287943"},"context":"","outcome_status":{"category":"Local resolution","date":"2019-06"},"persistent_id":"8415f54cdf5cab02683a024fde5d1adbf9ead192432ecbf79aa4d77d3b587ae9","id":74242879,"location_subtype":"","month":"2019-05"},{"category":"other-theft","location_type":"Force","location":{"latitude":"51.491121","street":{"id":679513,"name":"On or near Petrol Station"},"longitude":"0.271332"},"context":"","outcome_status":{"category":"Investigation complete; no suspect identified","date":"2020-02"},"persistent_id":"1f17de6aa870286d60d09239bc5fc846620628cbb4b750c0907adba2eedf13e4","id":74240019,"location_subtype":"","month":"2019-05"},{"category":"other-theft","location_type":"Force","location":{"latitude":"51.491792","street":{"id":679550,"name":"On or near Supermarket"},"longitude":"0.294127"},"context":"","outcome_status":{"category":"Unable to prosecute suspect","date":"2019-07"},"persistent_id":"27ba231f365ffe2fa0172440e1276c06b21e927ca9c379825753ff204d3bac3c","id":74241499,"location_subtype":"","month":"2019-05"},{"category":"other-theft","location_type":"Force","location":{"latitude":"51.488629","street":{"id":679531,"name":"On or near Parking Area"},"longitude":"0.282026"},"context":"","outcome_status":{"category":"Investigation complete; no suspect identified","date":"2019-05"},"persistent_id":"c981d806f2cb1129f9bd617c846f3ab06421538910541179b4eea83884e97a64","id":74237194,"location_subtype":"","month":"2019-05"},{"category":"other-theft","location_type":"Force","location":{"latitude":"51.481336","street":{"id":679414,"name":"On or near Rawlyn Close"},"longitude":"0.288935"},"context":"","outcome_status":{"category":"Unable to prosecute suspect","date":"2019-05"},"persistent_id":"c70cb2edad5f3a232ba95e9f6cad222cf369475a34666e62cf342986b23dec9d","id":74237195,"location_subtype":"","month":"2019-05"},{"category":"possession-of-weapons","location_type":"Force","location":{"latitude":"51.475142","street":{"id":679397,"name":"On or near Porter Close"},"longitude":"0.292499"},"context":"","outcome_status":{"category":"Unable to prosecute suspect","date":"2019-09"},"persistent_id":"e3e0bd13221a28bd41f8a9625e64494c7d0cc262d244f6dc1527ed30f36e8464","id":74241532,"location_subtype":"","month":"2019-05"},{"category":"public-order","location_type":"BTP","location":{"latitude":"51.485900","street":{"id":1486622,"name":"Chafford Hundred Lakeside (station)"},"longitude":"0.287436"},"context":"","outcome_status":{"category":"Status update unavailable","date":"2019-09"},"persistent_id":"","id":88718516,"location_subtype":"STATION","month":"2019-05"},{"category":"public-order","location_type":"Force","location":{"latitude":"51.487549","street":{"id":679588,"name":"On or near Sachfield Drive"},"longitude":"0.309168"},"context":"","outcome_status":{"category":"Unable to prosecute suspect","date":"2019-05"},"persistent_id":"a358a34f80da88862f843e8e644bdf2dfd8469cfffb016e6490f4abbaf1558ce","id":74236853,"location_subtype":"","month":"2019-05"},{"category":"public-order","location_type":"Force","location":{"latitude":"51.486039","street":{"id":679526,"name":"On or near Parking Area"},"longitude":"0.270445"},"context":"","outcome_status":{"category":"Investigation complete; no suspect identified","date":"2019-05"},"persistent_id":"2c3794973f014bc075e003d892f5fde744a135353c7b34eeccc908b3edc0cb39","id":74236830,"location_subtype":"","month":"2019-05"},{"category":"public-order","location_type":"Force","location":{"latitude":"51.479839","street":{"id":679334,"name":"On or near Moore Avenue"},"longitude":"0.303364"},"context":"","outcome_status":{"category":"Unable to prosecute suspect","date":"2019-05"},"persistent_id":"7f9bd7f26e6d07d3d8b5340b098890fb0f6bcba6c5ab0c8dd23cd85bee3f1fc2","id":74239648,"location_subtype":"","month":"2019-05"},{"category":"public-order","location_type":"Force","location":{"latitude":"51.492703","street":{"id":679628,"name":"On or near Daniel Close"},"longitude":"0.305006"},"context":"","outcome_status":{"category":"Unable to prosecute suspect","date":"2019-06"},"persistent_id":"07519c9632d133d73b5d29b8911ec48e19ecdc2ef1fe338c4b61878dd4144c48","id":74244158,"location_subtype":"","month":"2019-05"},{"category":"public-order","location_type":"Force","location":{"latitude":"51.485920","street":{"id":679566,"name":"On or near Flemming Road"},"longitude":"0.288589"},"context":"","outcome_status":{"category":"Investigation complete; no suspect identified","date":"2019-05"},"persistent_id":"74549bf1a2504db96c5ca4f24d86dbe137517cefb053936ca1f417c8553d57bf","id":74243588,"location_subtype":"","month":"2019-05"},{"category":"public-order","location_type":"Force","location":{"latitude":"51.491792","street":{"id":679550,"name":"On or near Supermarket"},"longitude":"0.294127"},"context":"","outcome_status":{"category":"Unable to prosecute suspect","date":"2019-06"},"persistent_id":"76bb3fe4c84439f0b3906caa80c44d58b52f79cfc0dd0d1af8148547e21e1279","id":74239825,"location_subtype":"","month":"2019-05"},{"category":"public-order","location_type":"Force","location":{"latitude":"51.482444","street":{"id":679372,"name":"On or near Parking Area"},"longitude":"0.280536"},"context":"","outcome_status":{"category":"Unable to prosecute suspect","date":"2019-05"},"persistent_id":"f4ac168483abd00aeead10655cd061cb3ea3df72c9461429ff913fe2dc05419f","id":74233799,"location_subtype":"","month":"2019-05"},{"category":"public-order","location_type":"Force","location":{"latitude":"51.477830","street":{"id":679337,"name":"On or near London Road"},"longitude":"0.301232"},"context":"","outcome_status":{"category":"Investigation complete; no suspect identified","date":"2019-06"},"persistent_id":"6bd3ce0d10bd45c03b63057d97c8bb963349dc86fdd78b5a6ec6fa351f2bddbb","id":74235831,"location_subtype":"","month":"2019-05"},{"category":"public-order","location_type":"Force","location":{"latitude":"51.491792","street":{"id":679550,"name":"On or near Supermarket"},"longitude":"0.294127"},"context":"","outcome_status":{"category":"Unable to prosecute suspect","date":"2019-06"},"persistent_id":"cd49c74f544440c56f68c4f23e0c86dae8f8c08c9ca49138772f8ce252324002","id":74240306,"location_subtype":"","month":"2019-05"},{"category":"public-order","location_type":"Force","location":{"latitude":"51.493379","street":{"id":679587,"name":"On or near Sports\/recreation Area"},"longitude":"0.290691"},"context":"","outcome_status":{"category":"Investigation complete; no suspect identified","date":"2019-06"},"persistent_id":"fe7ec164e6b1bd879295edae30e953a8532c7d3b8bdf41a98e8fe5f78b8c1e29","id":74246499,"location_subtype":"","month":"2019-05"},{"category":"public-order","location_type":"Force","location":{"latitude":"51.486609","street":{"id":679573,"name":"On or near Shopping Area"},"longitude":"0.284143"},"context":"","outcome_status":{"category":"Status update unavailable","date":"2019-09"},"persistent_id":"29acecf3b435dc65570ea8c950ef82efc2012944526537c5fb2f5b8f27e4506e","id":74319004,"location_subtype":"","month":"2019-05"},{"category":"public-order","location_type":"Force","location":{"latitude":"51.486609","street":{"id":679573,"name":"On or near Shopping Area"},"longitude":"0.284143"},"context":"","outcome_status":{"category":"Status update unavailable","date":"2019-09"},"persistent_id":"29acecf3b435dc65570ea8c950ef82efc2012944526537c5fb2f5b8f27e4506e","id":74319005,"location_subtype":"","month":"2019-05"},{"category":"public-order","location_type":"Force","location":{"latitude":"51.475629","street":{"id":679383,"name":"On or near Fox Manor Way"},"longitude":"0.282270"},"context":"","outcome_status":{"category":"Investigation complete; no suspect identified","date":"2019-05"},"persistent_id":"3336cedf4e0a4fbf24b25d36f1ed3af2bb3bb43f0f76f51318c63ebea74bd079","id":74234908,"location_subtype":"","month":"2019-05"},{"category":"public-order","location_type":"Force","location":{"latitude":"51.489033","street":{"id":679558,"name":"On or near Supermarket"},"longitude":"0.275564"},"context":"","outcome_status":{"category":"Unable to prosecute suspect","date":"2019-05"},"persistent_id":"54dc9afd55831eeb457a7ea19b1987d5de1723fde2603d5e61d064d1cf1cb86c","id":74238331,"location_subtype":"","month":"2019-05"},{"category":"public-order","location_type":"BTP","location":{"latitude":"51.485900","street":{"id":1486622,"name":"Chafford Hundred Lakeside (station)"},"longitude":"0.287436"},"context":"","outcome_status":{"category":"Status update unavailable","date":"2019-09"},"persistent_id":"","id":88718517,"location_subtype":"STATION","month":"2019-05"},{"category":"public-order","location_type":"Force","location":{"latitude":"51.476851","street":{"id":679350,"name":"On or near Charlton Street"},"longitude":"0.301672"},"context":"","outcome_status":{"category":"Action to be taken by another organisation","date":"2019-09"},"persistent_id":"13c0ec3885fc5aa7b9d172684a470b4a547a5a7312f75c3cce3d575fac0b6086","id":74244972,"location_subtype":"","month":"2019-05"},{"category":"public-order","location_type":"Force","location":{"latitude":"51.476851","street":{"id":679350,"name":"On or near Charlton Street"},"longitude":"0.301672"},"context":"","outcome_status":{"category":"Action to be taken by another organisation","date":"2019-09"},"persistent_id":"f95e16f1c2105f8044bbeba5e361ee0835cd9d1e1702b22c3b9273fe355830b8","id":74244971,"location_subtype":"","month":"2019-05"},{"category":"public-order","location_type":"Force","location":{"latitude":"51.491121","street":{"id":679513,"name":"On or near Petrol Station"},"longitude":"0.271332"},"context":"","outcome_status":{"category":"Investigation complete; no suspect identified","date":"2019-07"},"persistent_id":"9ca09ba8c0b6b08804ed12f14fb6fdff86e362450a043f6b8b36180fc3bda625","id":74241529,"location_subtype":"","month":"2019-05"},{"category":"public-order","location_type":"Force","location":{"latitude":"51.475503","street":{"id":679385,"name":"On or near Essex Road"},"longitude":"0.278591"},"context":"","outcome_status":{"category":"Unable to prosecute suspect","date":"2019-07"},"persistent_id":"42efbb18bb163442eb4e78a0168c8d5393179069ded9183a9d379e69cdda85b9","id":74240633,"location_subtype":"","month":"2019-05"},{"category":"public-order","location_type":"Force","location":{"latitude":"51.477830","street":{"id":679337,"name":"On or near London Road"},"longitude":"0.301232"},"context":"","outcome_status":{"category":"Unable to prosecute suspect","date":"2019-06"},"persistent_id":"c3005730517aa8253c42c2de17e27b226be4fc4758bd5c945828427f4f3d3e3d","id":74240664,"location_subtype":"","month":"2019-05"},{"category":"public-order","location_type":"Force","location":{"latitude":"51.487549","street":{"id":679588,"name":"On or near Sachfield Drive"},"longitude":"0.309168"},"context":"","outcome_status":{"category":"Unable to prosecute suspect","date":"2019-06"},"persistent_id":"d8bb5c008dd3cdb231e3ac29478538fa1a6bcc9c9281d9fac47cfc12dace34e3","id":74238332,"location_subtype":"","month":"2019-05"},{"category":"public-order","location_type":"Force","location":{"latitude":"51.475629","street":{"id":679383,"name":"On or near Fox Manor Way"},"longitude":"0.282270"},"context":"","outcome_status":{"category":"Court result unavailable","date":"2019-11"},"persistent_id":"ed27aef593484397b4f6b001663b5d8b2ee8055005b1fa5bc39a48c672e80fa4","id":74231601,"location_subtype":"","month":"2019-05"},{"category":"public-order","location_type":"Force","location":{"latitude":"51.489685","street":{"id":679551,"name":"On or near Supermarket"},"longitude":"0.289670"},"context":"","outcome_status":{"category":"Unable to prosecute suspect","date":"2019-06"},"persistent_id":"c5dafe535c0dea82a065d0c8d672dd1b5da0ada6276cbbc5e2af973b8201dffe","id":74245236,"location_subtype":"","month":"2019-05"},{"category":"public-order","location_type":"Force","location":{"latitude":"51.477119","street":{"id":679392,"name":"On or near South View Road"},"longitude":"0.291201"},"context":"","outcome_status":{"category":"Investigation complete; no suspect identified","date":"2019-05"},"persistent_id":"0e3d7ab545653c6368bcf1d6c01e98288c47e022f8b98cf584175c186e450126","id":74244190,"location_subtype":"","month":"2019-05"},{"category":"public-order","location_type":"BTP","location":{"latitude":"51.485900","street":{"id":1486622,"name":"Chafford Hundred Lakeside (station)"},"longitude":"0.287436"},"context":"","outcome_status":{"category":"Status update unavailable","date":"2019-09"},"persistent_id":"","id":88718515,"location_subtype":"STATION","month":"2019-05"},{"category":"public-order","location_type":"Force","location":{"latitude":"51.487496","street":{"id":679574,"name":"On or near Shopping Area"},"longitude":"0.282488"},"context":"","outcome_status":{"category":"Unable to prosecute suspect","date":"2019-06"},"persistent_id":"caafeb8e6f9708226f06d2333a6edd364e2aed47ce66bb19cb1a5cd9a59cb3ab","id":74237346,"location_subtype":"","month":"2019-05"},{"category":"public-order","location_type":"Force","location":{"latitude":"51.491792","street":{"id":679550,"name":"On or near Supermarket"},"longitude":"0.294127"},"context":"","outcome_status":{"category":"Unable to prosecute suspect","date":"2019-06"},"persistent_id":"3cb9c315fead69d60f6e0a8de4dca7d9656b91c56e0561ada3c75fa574a1f12d","id":74240527,"location_subtype":"","month":"2019-05"},{"category":"public-order","location_type":"Force","location":{"latitude":"51.491792","street":{"id":679550,"name":"On or near Supermarket"},"longitude":"0.294127"},"context":"","outcome_status":{"category":"Unable to prosecute suspect","date":"2019-06"},"persistent_id":"669eea45046a0927628e379ad66bdf889ce5399b24172543cca440c3437bc90c","id":74240526,"location_subtype":"","month":"2019-05"},{"category":"public-order","location_type":"Force","location":{"latitude":"51.487496","street":{"id":679574,"name":"On or near Shopping Area"},"longitude":"0.282488"},"context":"","outcome_status":{"category":"Unable to prosecute suspect","date":"2019-06"},"persistent_id":"46ec76a581e96b5b06059f6f16e85efc29206d15d2395bac15b59f1d2dee4887","id":74237838,"location_subtype":"","month":"2019-05"},{"category":"robbery","location_type":"Force","location":{"latitude":"51.485920","street":{"id":679566,"name":"On or near Flemming Road"},"longitude":"0.288589"},"context":"","outcome_status":{"category":"Unable to prosecute suspect","date":"2019-07"},"persistent_id":"bc58848d97bd70256d7b748e92c8785947dd2fb05117f938a58a812b4ddfdd81","id":74243370,"location_subtype":"","month":"2019-05"},{"category":"robbery","location_type":"BTP","location":{"latitude":"51.485900","street":{"id":1486622,"name":"Chafford Hundred Lakeside (station)"},"longitude":"0.287436"},"context":"","outcome_status":{"category":"Status update unavailable","date":"2019-09"},"persistent_id":"","id":88718514,"location_subtype":"STATION","month":"2019-05"},{"category":"robbery","location_type":"Force","location":{"latitude":"51.482444","street":{"id":679372,"name":"On or near Parking Area"},"longitude":"0.280536"},"context":"","outcome_status":{"category":"Investigation complete; no suspect identified","date":"2019-06"},"persistent_id":"f20cb4fb687df5853c3124a9ebd10993469a0482bc3425aa2aedc45abf30c739","id":74235120,"location_subtype":"","month":"2019-05"},{"category":"robbery","location_type":"Force","location":{"latitude":"51.481106","street":{"id":679328,"name":"On or near Philip Sydney Road"},"longitude":"0.299279"},"context":"","outcome_status":{"category":"Unable to prosecute suspect","date":"2019-06"},"persistent_id":"9a53160aff51d85db15c05cc5b09782fc53363122b478af34030f3737e5d2878","id":74243862,"location_subtype":"","month":"2019-05"},{"category":"robbery","location_type":"Force","location":{"latitude":"51.481106","street":{"id":679328,"name":"On or near Philip Sydney Road"},"longitude":"0.299279"},"context":"","outcome_status":{"category":"Unable to prosecute suspect","date":"2019-06"},"persistent_id":"8b240a6e735528a1318c2e19433af980bf6e58e2dd105d0f9df29efd3faec854","id":74243861,"location_subtype":"","month":"2019-05"},{"category":"robbery","location_type":"Force","location":{"latitude":"51.477830","street":{"id":679337,"name":"On or near London Road"},"longitude":"0.301232"},"context":"","outcome_status":{"category":"Unable to prosecute suspect","date":"2019-05"},"persistent_id":"9e064217a98550eb1488708c2861ee068f7d1fcc0b82f233e1134810d8705540","id":74237623,"location_subtype":"","month":"2019-05"},{"category":"robbery","location_type":"Force","location":{"latitude":"51.485920","street":{"id":679566,"name":"On or near Flemming Road"},"longitude":"0.288589"},"context":"","outcome_status":{"category":"Status update unavailable","date":"2019-09"},"persistent_id":"d550879bf1d0c50d1efb8647186ddb76d1961349fa48839282c9c88de1bfb1e8","id":74334421,"location_subtype":"","month":"2019-05"},{"category":"robbery","location_type":"Force","location":{"latitude":"51.492871","street":{"id":679622,"name":"On or near Hawkins Drive"},"longitude":"0.302393"},"context":"","outcome_status":{"category":"Unable to prosecute suspect","date":"2019-06"},"persistent_id":"38bf5e46ea1cdf78e516a6c0d82f15a916a98ca71484b77093ebd90d949f3f53","id":74234668,"location_subtype":"","month":"2019-05"},{"category":"shoplifting","location_type":"Force","location":{"latitude":"51.487772","street":{"id":679572,"name":"On or near Shopping Area"},"longitude":"0.284490"},"context":"","outcome_status":{"category":"Unable to prosecute suspect","date":"2019-06"},"persistent_id":"813753634b26e544a156a9922b7211b6a44a39bf9433f764672e1dc52371c4f3","id":74241937,"location_subtype":"","month":"2019-05"},{"category":"shoplifting","location_type":"Force","location":{"latitude":"51.486039","street":{"id":679526,"name":"On or near Parking Area"},"longitude":"0.270445"},"context":"","outcome_status":{"category":"Investigation complete; no suspect identified","date":"2019-06"},"persistent_id":"7cf654839db40852ab3731c715fc8bd39f8b31f492084c95c8717185080d5adc","id":74238948,"location_subtype":"","month":"2019-05"},{"category":"shoplifting","location_type":"Force","location":{"latitude":"51.482444","street":{"id":679372,"name":"On or near Parking Area"},"longitude":"0.280536"},"context":"","outcome_status":{"category":"Court result unavailable","date":"2020-03"},"persistent_id":"ddeed5aa975b9b2a89b0f8dc6a51922c4f27b8beb275af50d61af36cbef50e1d","id":74234305,"location_subtype":"","month":"2019-05"},{"category":"shoplifting","location_type":"Force","location":{"latitude":"51.484852","street":{"id":679563,"name":"On or near Parking Area"},"longitude":"0.285222"},"context":"","outcome_status":{"category":"Court result unavailable","date":"2020-02"},"persistent_id":"0337b53770200bcca9b9c2d4c8f2d9fe39352e3b0d20a0e6fb462aa0fb867f2c","id":74229418,"location_subtype":"","month":"2019-05"},{"category":"shoplifting","location_type":"Force","location":{"latitude":"51.487496","street":{"id":679574,"name":"On or near Shopping Area"},"longitude":"0.282488"},"context":"","outcome_status":{"category":"Offender sent to prison","date":"2019-05"},"persistent_id":"0e05893fddcaa2702847a965f32679766c3730df3e50d2ee0d7628d9fb51a8d7","id":74241934,"location_subtype":"","month":"2019-05"},{"category":"shoplifting","location_type":"Force","location":{"latitude":"51.489840","street":{"id":679528,"name":"On or near Parking Area"},"longitude":"0.281698"},"context":"","outcome_status":{"category":"Offender sent to prison","date":"2019-05"},"persistent_id":"f20f6abb9ca503be787ef94e1cdca27be1b16c42105765dc2ffbccbf424f4c97","id":74237663,"location_subtype":"","month":"2019-05"},{"category":"shoplifting","location_type":"Force","location":{"latitude":"51.486609","street":{"id":679573,"name":"On or near Shopping Area"},"longitude":"0.284143"},"context":"","outcome_status":{"category":"Investigation complete; no suspect identified","date":"2019-05"},"persistent_id":"23d738acb23d27b8c6c44c39ffa2ce7aa30d0a447c9e9b5acc1e3367f679b0ef","id":74245363,"location_subtype":"","month":"2019-05"},{"category":"shoplifting","location_type":"Force","location":{"latitude":"51.489840","street":{"id":679528,"name":"On or near Parking Area"},"longitude":"0.281698"},"context":"","outcome_status":{"category":"Unable to prosecute suspect","date":"2019-07"},"persistent_id":"e6fb5135233cb7d5bce2de003f8aae795dad05fca59bbcdc49b1c382c357c836","id":74246310,"location_subtype":"","month":"2019-05"},{"category":"shoplifting","location_type":"Force","location":{"latitude":"51.491792","street":{"id":679550,"name":"On or near Supermarket"},"longitude":"0.294127"},"context":"","outcome_status":{"category":"Investigation complete; no suspect identified","date":"2019-08"},"persistent_id":"bd3ca8a5afc8e2886c9c0bdeb99fb4da365d46400d1ee94cc5f4eddd404f8543","id":74246314,"location_subtype":"","month":"2019-05"},{"category":"shoplifting","location_type":"Force","location":{"latitude":"51.489840","street":{"id":679528,"name":"On or near Parking Area"},"longitude":"0.281698"},"context":"","outcome_status":{"category":"Local resolution","date":"2019-06"},"persistent_id":"beda6b59e859c677c2e3d8492eda689948e8ecdc96c433e2ff6a8eaddf5e3dac","id":74246312,"location_subtype":"","month":"2019-05"},{"category":"shoplifting","location_type":"Force","location":{"latitude":"51.486039","street":{"id":679526,"name":"On or near Parking Area"},"longitude":"0.270445"},"context":"","outcome_status":{"category":"Investigation complete; no suspect identified","date":"2019-05"},"persistent_id":"aca5eb467c9a78c36801ed545e778bc013ec76ff95fed82838bd57413156a46b","id":74238568,"location_subtype":"","month":"2019-05"},{"category":"shoplifting","location_type":"Force","location":{"latitude":"51.487772","street":{"id":679572,"name":"On or near Shopping Area"},"longitude":"0.284490"},"context":"","outcome_status":{"category":"Investigation complete; no suspect identified","date":"2019-05"},"persistent_id":"45edbe698e44e9bf282f97acc04f13067f278778e8d6e874388785ee1dded01a","id":74238952,"location_subtype":"","month":"2019-05"},{"category":"shoplifting","location_type":"Force","location":{"latitude":"51.489840","street":{"id":679528,"name":"On or near Parking Area"},"longitude":"0.281698"},"context":"","outcome_status":{"category":"Local resolution","date":"2019-05"},"persistent_id":"381625484e79962b574a0906efc77e72dc4f9481306166c7ea6d03d5c7415077","id":74241448,"location_subtype":"","month":"2019-05"},{"category":"shoplifting","location_type":"Force","location":{"latitude":"51.484852","street":{"id":679563,"name":"On or near Parking Area"},"longitude":"0.285222"},"context":"","outcome_status":{"category":"Local resolution","date":"2019-06"},"persistent_id":"47dfc09a3433d037225e7b51beb9d3de79c269ef7908e795881e9b862aca2d9c","id":74240944,"location_subtype":"","month":"2019-05"},{"category":"shoplifting","location_type":"Force","location":{"latitude":"51.486039","street":{"id":679526,"name":"On or near Parking Area"},"longitude":"0.270445"},"context":"","outcome_status":{"category":"Unable to prosecute suspect","date":"2019-06"},"persistent_id":"6c870b22dfae3304e086d337ed5bff9f85cb396600dd61def13cf42d8312b803","id":74241933,"location_subtype":"","month":"2019-05"},{"category":"shoplifting","location_type":"Force","location":{"latitude":"51.489840","street":{"id":679528,"name":"On or near Parking Area"},"longitude":"0.281698"},"context":"","outcome_status":{"category":"Local resolution","date":"2019-06"},"persistent_id":"112d9384c664f17095a023d2f278930199044e171970f87d0689ef60167a2552","id":74246311,"location_subtype":"","month":"2019-05"},{"category":"shoplifting","location_type":"Force","location":{"latitude":"51.484852","street":{"id":679563,"name":"On or near Parking Area"},"longitude":"0.285222"},"context":"","outcome_status":{"category":"Local resolution","date":"2019-06"},"persistent_id":"6cd30665bc889667bba5ea6e14ee897a32d9737731d834017fbff6bd2f274ece","id":74246313,"location_subtype":"","month":"2019-05"},{"category":"shoplifting","location_type":"Force","location":{"latitude":"51.484852","street":{"id":679563,"name":"On or near Parking Area"},"longitude":"0.285222"},"context":"","outcome_status":{"category":"Local resolution","date":"2019-06"},"persistent_id":"104e26d15d5430d79e7e69700e1cc35cb5370a1994f1502c0ebdec18954b9059","id":74244873,"location_subtype":"","month":"2019-05"},{"category":"shoplifting","location_type":"Force","location":{"latitude":"51.488728","street":{"id":679533,"name":"On or near Parking Area"},"longitude":"0.285272"},"context":"","outcome_status":{"category":"Unable to prosecute suspect","date":"2019-07"},"persistent_id":"f59340e2e542a374375f6a43c0c63ffd26fda480551bb883e2a38aafc14d2690","id":74244872,"location_subtype":"","month":"2019-05"},{"category":"shoplifting","location_type":"Force","location":{"latitude":"51.487496","street":{"id":679574,"name":"On or near Shopping Area"},"longitude":"0.282488"},"context":"","outcome_status":{"category":"Local resolution","date":"2019-06"},"persistent_id":"3324eef72ddff329de917fa61304bc4750a24ceb10d12ca6e363949574bccebb","id":74244871,"location_subtype":"","month":"2019-05"},{"category":"shoplifting","location_type":"Force","location":{"latitude":"51.486039","street":{"id":679526,"name":"On or near Parking Area"},"longitude":"0.270445"},"context":"","outcome_status":{"category":"Investigation complete; no suspect identified","date":"2019-07"},"persistent_id":"2e060eba41354480cf955f4014f7cc0ac12a21a5b1fc6e76dfcc8c8f3f8d775b","id":74242915,"location_subtype":"","month":"2019-05"},{"category":"shoplifting","location_type":"Force","location":{"latitude":"51.486039","street":{"id":679526,"name":"On or near Parking Area"},"longitude":"0.270445"},"context":"","outcome_status":{"category":"Unable to prosecute suspect","date":"2019-09"},"persistent_id":"2bc1127c509d1091df413f02a6a9b56092ff928007f7be574e2167aae29d1c0e","id":74242916,"location_subtype":"","month":"2019-05"},{"category":"shoplifting","location_type":"Force","location":{"latitude":"51.486092","street":{"id":679560,"name":"On or near Shopping Area"},"longitude":"0.277434"},"context":"","outcome_status":{"category":"Investigation complete; no suspect identified","date":"2019-07"},"persistent_id":"e13cfea933c11238469f0710645a14ce7064e753059ab6f9d2865b19625e4c04","id":74240427,"location_subtype":"","month":"2019-05"},{"category":"shoplifting","location_type":"Force","location":{"latitude":"51.487772","street":{"id":679572,"name":"On or near Shopping Area"},"longitude":"0.284490"},"context":"","outcome_status":{"category":"Investigation complete; no suspect identified","date":"2019-06"},"persistent_id":"6b36ec10923997d33af17d276cf0c869cf0e4180cd74120b0c0f25636eaf2256","id":74239980,"location_subtype":"","month":"2019-05"},{"category":"shoplifting","location_type":"Force","location":{"latitude":"51.488629","street":{"id":679531,"name":"On or near Parking Area"},"longitude":"0.282026"},"context":"","outcome_status":{"category":"Investigation complete; no suspect identified","date":"2019-05"},"persistent_id":"82f4b3bac01fb68862455c3b8e11fed6f12872243ae4526bee506a758f6f66b8","id":74240429,"location_subtype":"","month":"2019-05"},{"category":"shoplifting","location_type":"Force","location":{"latitude":"51.486039","street":{"id":679526,"name":"On or near Parking Area"},"longitude":"0.270445"},"context":"","outcome_status":{"category":"Investigation complete; no suspect identified","date":"2019-07"},"persistent_id":"7635a4fa1aa99d352254211ae2f8104f4f25a60236c7fe4f10fb226208673f5d","id":74238949,"location_subtype":"","month":"2019-05"},{"category":"shoplifting","location_type":"Force","location":{"latitude":"51.487772","street":{"id":679572,"name":"On or near Shopping Area"},"longitude":"0.284490"},"context":"","outcome_status":{"category":"Investigation complete; no suspect identified","date":"2019-05"},"persistent_id":"e28304aaf86322c56b1784371df1043e4bd4f064d829f15e54fd80464c2dac34","id":74238951,"location_subtype":"","month":"2019-05"},{"category":"shoplifting","location_type":"Force","location":{"latitude":"51.486609","street":{"id":679573,"name":"On or near Shopping Area"},"longitude":"0.284143"},"context":"","outcome_status":{"category":"Unable to prosecute suspect","date":"2019-06"},"persistent_id":"42c86ab3104c24c3e872c7d740b1e2fe7adb58d819e9af4485eb1c1189251f7d","id":74238570,"location_subtype":"","month":"2019-05"},{"category":"shoplifting","location_type":"Force","location":{"latitude":"51.489033","street":{"id":679558,"name":"On or near Supermarket"},"longitude":"0.275564"},"context":"","outcome_status":{"category":"Offender given a caution","date":"2019-06"},"persistent_id":"ea50f052b1af04515e4f083b8c2045301ed25dc5abf3b89479d56e3a40a37bae","id":74237149,"location_subtype":"","month":"2019-05"},{"category":"shoplifting","location_type":"Force","location":{"latitude":"51.484852","street":{"id":679563,"name":"On or near Parking Area"},"longitude":"0.285222"},"context":"","outcome_status":{"category":"Local resolution","date":"2019-06"},"persistent_id":"7b4f94432a7ae952dbbce73ef3b661a329a2c6aa18b27c5d94a86908eaac9c93","id":74236144,"location_subtype":"","month":"2019-05"},{"category":"shoplifting","location_type":"Force","location":{"latitude":"51.487496","street":{"id":679574,"name":"On or near Shopping Area"},"longitude":"0.282488"},"context":"","outcome_status":{"category":"Local resolution","date":"2019-06"},"persistent_id":"8727b99f12a3608ff566dfe97bd173653f7bcccbe9734ad96a38dee6dd6064bd","id":74236139,"location_subtype":"","month":"2019-05"},{"category":"shoplifting","location_type":"Force","location":{"latitude":"51.488728","street":{"id":679533,"name":"On or near Parking Area"},"longitude":"0.285272"},"context":"","outcome_status":{"category":"Investigation complete; no suspect identified","date":"2019-05"},"persistent_id":"b643cc5f9c1221f6362b5ceab6d1b157180733cf5ee4a12ba732abba1189cd4e","id":74235175,"location_subtype":"","month":"2019-05"},{"category":"shoplifting","location_type":"Force","location":{"latitude":"51.488629","street":{"id":679531,"name":"On or near Parking Area"},"longitude":"0.282026"},"context":"","outcome_status":{"category":"Court result unavailable","date":"2020-02"},"persistent_id":"eabc4b5ef03e9602cf831624056c57c5c56c844b233f0ef36427d4fb9a4f1277","id":74235174,"location_subtype":"","month":"2019-05"},{"category":"shoplifting","location_type":"Force","location":{"latitude":"51.486609","street":{"id":679573,"name":"On or near Shopping Area"},"longitude":"0.284143"},"context":"","outcome_status":{"category":"Investigation complete; no suspect identified","date":"2019-05"},"persistent_id":"0d2d70dcd6ba53eaec488abe169eb9d05f81b1f764fab53ad70316fd036599d7","id":74241449,"location_subtype":"","month":"2019-05"},{"category":"shoplifting","location_type":"Force","location":{"latitude":"51.487772","street":{"id":679572,"name":"On or near Shopping Area"},"longitude":"0.284490"},"context":"","outcome_status":{"category":"Unable to prosecute suspect","date":"2019-06"},"persistent_id":"1b1c4ad62813c07fd4fb9ec0aea6e43141d5b42360578d4d091464ca96c14e4f","id":74241936,"location_subtype":"","month":"2019-05"},{"category":"shoplifting","location_type":"Force","location":{"latitude":"51.486609","street":{"id":679573,"name":"On or near Shopping Area"},"longitude":"0.284143"},"context":"","outcome_status":{"category":"Investigation complete; no suspect identified","date":"2019-06"},"persistent_id":"b27565d2ca6d74d4bf8cd1791ed0ee8ce6de761a4ea41b735f580d50f82db9de","id":74234313,"location_subtype":"","month":"2019-05"},{"category":"shoplifting","location_type":"Force","location":{"latitude":"51.486609","street":{"id":679573,"name":"On or near Shopping Area"},"longitude":"0.284143"},"context":"","outcome_status":{"category":"Court result unavailable","date":"2020-03"},"persistent_id":"a1d4e6fa707fcf994851e9fe4a900ab8768d4c8fa4a231ecd490b24acbda105b","id":74234309,"location_subtype":"","month":"2019-05"},{"category":"shoplifting","location_type":"Force","location":{"latitude":"51.486039","street":{"id":679526,"name":"On or near Parking Area"},"longitude":"0.270445"},"context":"","outcome_status":{"category":"Investigation complete; no suspect identified","date":"2019-08"},"persistent_id":"ad9797896b8eb92f31ae87f05b3d9b966a50ab0452d7797a01df5d2ef9c29b71","id":74233417,"location_subtype":"","month":"2019-05"},{"category":"shoplifting","location_type":"Force","location":{"latitude":"51.486092","street":{"id":679560,"name":"On or near Shopping Area"},"longitude":"0.277434"},"context":"","outcome_status":{"category":"Unable to prosecute suspect","date":"2019-06"},"persistent_id":"16be12cb7e3fb504ff50cf437289c0f68470ad0e64d76421f66f169619db511a","id":74233419,"location_subtype":"","month":"2019-05"},{"category":"shoplifting","location_type":"Force","location":{"latitude":"51.486039","street":{"id":679526,"name":"On or near Parking Area"},"longitude":"0.270445"},"context":"","outcome_status":{"category":"Investigation complete; no suspect identified","date":"2019-07"},"persistent_id":"4868c792f7cc4122deb264a0d2d3994e08b6ceb02268e2c2727773b36cfbec54","id":74232364,"location_subtype":"","month":"2019-05"},{"category":"shoplifting","location_type":"Force","location":{"latitude":"51.489840","street":{"id":679528,"name":"On or near Parking Area"},"longitude":"0.281698"},"context":"","outcome_status":{"category":"Action to be taken by another organisation","date":"2019-06"},"persistent_id":"5367913261e0e16e8baf47d8ee6473933e7adc313537bdd41a9b26f84dfa81d5","id":74232369,"location_subtype":"","month":"2019-05"},{"category":"shoplifting","location_type":"Force","location":{"latitude":"51.486092","street":{"id":679560,"name":"On or near Shopping Area"},"longitude":"0.277434"},"context":"","outcome_status":{"category":"Local resolution","date":"2019-07"},"persistent_id":"d9550d04cc2ea45a13d9586503a35924c0f78798a0d1b7db6cbdd250e912aaac","id":74231417,"location_subtype":"","month":"2019-05"},{"category":"shoplifting","location_type":"Force","location":{"latitude":"51.486039","street":{"id":679526,"name":"On or near Parking Area"},"longitude":"0.270445"},"context":"","outcome_status":{"category":"Investigation complete; no suspect identified","date":"2019-07"},"persistent_id":"b5928914631caad39f634b47477bfd38f7120c4eabea55e061893c4e40867c0b","id":74231416,"location_subtype":"","month":"2019-05"},{"category":"shoplifting","location_type":"Force","location":{"latitude":"51.487496","street":{"id":679574,"name":"On or near Shopping Area"},"longitude":"0.282488"},"context":"","outcome_status":{"category":"Local resolution","date":"2019-05"},"persistent_id":"85a7c41d2b94a0f3142d232ef6932274077478c9becf73cf04827fcf58e52609","id":74230403,"location_subtype":"","month":"2019-05"},{"category":"shoplifting","location_type":"Force","location":{"latitude":"51.486039","street":{"id":679526,"name":"On or near Parking Area"},"longitude":"0.270445"},"context":"","outcome_status":{"category":"Investigation complete; no suspect identified","date":"2019-07"},"persistent_id":"c1509f71b9e5289dee65ea9fdde113e7e172a7364ace7e28836dfd063bfa2187","id":74230399,"location_subtype":"","month":"2019-05"},{"category":"shoplifting","location_type":"Force","location":{"latitude":"51.489840","street":{"id":679528,"name":"On or near Parking Area"},"longitude":"0.281698"},"context":"","outcome_status":{"category":"Local resolution","date":"2019-05"},"persistent_id":"94a71e608d0628ae6b9cc3bb550671837c937d073072b2631a75da1230bae4e1","id":74230401,"location_subtype":"","month":"2019-05"},{"category":"shoplifting","location_type":"Force","location":{"latitude":"51.484852","street":{"id":679563,"name":"On or near Parking Area"},"longitude":"0.285222"},"context":"","outcome_status":{"category":"Investigation complete; no suspect identified","date":"2019-05"},"persistent_id":"d9b945826fdcbfeeb7c70b4a92baac851f700a30015f771abe2afcbd9d9318b1","id":74230405,"location_subtype":"","month":"2019-05"},{"category":"shoplifting","location_type":"Force","location":{"latitude":"51.487772","street":{"id":679572,"name":"On or near Shopping Area"},"longitude":"0.284490"},"context":"","outcome_status":{"category":"Investigation complete; no suspect identified","date":"2019-06"},"persistent_id":"3a032afa1683ad2471fddd69449dd30239b56c92b1ca3df892c2df7e7405f7a0","id":74239979,"location_subtype":"","month":"2019-05"},{"category":"shoplifting","location_type":"Force","location":{"latitude":"51.482444","street":{"id":679372,"name":"On or near Parking Area"},"longitude":"0.280536"},"context":"","outcome_status":{"category":"Unable to prosecute suspect","date":"2019-06"},"persistent_id":"61b13fb27b67f75fbe8aa5429a6579e3211ce2de70982623001fd58110d2d37f","id":74240428,"location_subtype":"","month":"2019-05"},{"category":"shoplifting","location_type":"Force","location":{"latitude":"51.487198","street":{"id":679565,"name":"On or near Park\/open Space"},"longitude":"0.279751"},"context":"","outcome_status":{"category":"Investigation complete; no suspect identified","date":"2019-06"},"persistent_id":"f13a9007806c8384d0c755a0e69aad771c0781841554c11330910a3cafa81c5f","id":74229412,"location_subtype":"","month":"2019-05"},{"category":"shoplifting","location_type":"Force","location":{"latitude":"51.486039","street":{"id":679526,"name":"On or near Parking Area"},"longitude":"0.270445"},"context":"","outcome_status":{"category":"Local resolution","date":"2019-06"},"persistent_id":"0516d7137ef2937b0f60aab8368e95e9e83c6b2244c29a4bd1a340457fe681c0","id":74232365,"location_subtype":"","month":"2019-05"},{"category":"shoplifting","location_type":"Force","location":{"latitude":"51.489840","street":{"id":679528,"name":"On or near Parking Area"},"longitude":"0.281698"},"context":"","outcome_status":{"category":"Local resolution","date":"2019-05"},"persistent_id":"9f92a5bb8e9e63edd9872b931dec97e00c48856692f8f27c07f2491fd7029847","id":74231419,"location_subtype":"","month":"2019-05"},{"category":"shoplifting","location_type":"Force","location":{"latitude":"51.487496","street":{"id":679574,"name":"On or near Shopping Area"},"longitude":"0.282488"},"context":"","outcome_status":{"category":"Offender given a caution","date":"2019-05"},"persistent_id":"c6c725fb733ecfe25b8c885a1c341aca6ff648301611dfbd5b17832c145706eb","id":74231421,"location_subtype":"","month":"2019-05"},{"category":"shoplifting","location_type":"Force","location":{"latitude":"51.487772","street":{"id":679572,"name":"On or near Shopping Area"},"longitude":"0.284490"},"context":"","outcome_status":{"category":"Investigation complete; no suspect identified","date":"2019-05"},"persistent_id":"072c00a4a7be5a3207a4c45e53c907f538c9bf4e32c3d0504b13c4857d4e05d7","id":74231423,"location_subtype":"","month":"2019-05"},{"category":"shoplifting","location_type":"Force","location":{"latitude":"51.484852","street":{"id":679563,"name":"On or near Parking Area"},"longitude":"0.285222"},"context":"","outcome_status":{"category":"Investigation complete; no suspect identified","date":"2019-05"},"persistent_id":"fdbcd8b4a9b63f9f0bce950f4d276508036f28293ba82b55cba545b58ea9f656","id":74231425,"location_subtype":"","month":"2019-05"},{"category":"shoplifting","location_type":"Force","location":{"latitude":"51.486039","street":{"id":679526,"name":"On or near Parking Area"},"longitude":"0.270445"},"context":"","outcome_status":{"category":"Investigation complete; no suspect identified","date":"2019-05"},"persistent_id":"2ffd1d815d7fac95084f4101ae75f0620d5b11141f65e6033b7f60afbf63c30a","id":74232367,"location_subtype":"","month":"2019-05"},{"category":"shoplifting","location_type":"Force","location":{"latitude":"51.486609","street":{"id":679573,"name":"On or near Shopping Area"},"longitude":"0.284143"},"context":"","outcome_status":{"category":"Investigation complete; no suspect identified","date":"2019-05"},"persistent_id":"df4e59bf9630da3d32ec9d1ba79d18823602c6953bae8d08443ca80167236a88","id":74232371,"location_subtype":"","month":"2019-05"},{"category":"shoplifting","location_type":"Force","location":{"latitude":"51.491792","street":{"id":679550,"name":"On or near Supermarket"},"longitude":"0.294127"},"context":"","outcome_status":{"category":"Court result unavailable","date":"2019-11"},"persistent_id":"d638c4b73bc4a75915dcc7b4bdf240bccd724a6f08568e83a685215bd28fcb85","id":74233421,"location_subtype":"","month":"2019-05"},{"category":"shoplifting","location_type":"Force","location":{"latitude":"51.489033","street":{"id":679558,"name":"On or near Supermarket"},"longitude":"0.275564"},"context":"","outcome_status":{"category":"Investigation complete; no suspect identified","date":"2019-05"},"persistent_id":"a3c71efb4c7f728604ac0bd4544fcd1d7bb4a004599bdfabb85bd1c349cfb87f","id":74234303,"location_subtype":"","month":"2019-05"},{"category":"shoplifting","location_type":"Force","location":{"latitude":"51.488629","street":{"id":679531,"name":"On or near Parking Area"},"longitude":"0.282026"},"context":"","outcome_status":{"category":"Offender given a caution","date":"2019-05"},"persistent_id":"4af39a744acfe6a54b4378ad2a419b033f08fcf3f8aaeb17f78ee6f6e93aaa0f","id":74234307,"location_subtype":"","month":"2019-05"},{"category":"shoplifting","location_type":"Force","location":{"latitude":"51.487772","street":{"id":679572,"name":"On or near Shopping Area"},"longitude":"0.284490"},"context":"","outcome_status":{"category":"Local resolution","date":"2019-05"},"persistent_id":"a637e5caaa3a0a7a0907e0a8c17db7f054f5ea569b6dd2f522bb5a62782c203f","id":74234311,"location_subtype":"","month":"2019-05"},{"category":"shoplifting","location_type":"Force","location":{"latitude":"51.491121","street":{"id":679513,"name":"On or near Petrol Station"},"longitude":"0.271332"},"context":"","outcome_status":{"category":"Investigation complete; no suspect identified","date":"2019-05"},"persistent_id":"438acba4ebdb63bc477b977528c8471d2021c634bacbb0e8e526dd65b6c4e031","id":74234715,"location_subtype":"","month":"2019-05"},{"category":"shoplifting","location_type":"Force","location":{"latitude":"51.479927","street":{"id":679424,"name":"On or near Euclid Way"},"longitude":"0.274448"},"context":"","outcome_status":{"category":"Investigation complete; no suspect identified","date":"2019-05"},"persistent_id":"2d369f3f92a2cf414745c72ef67f8f788be16bcf1fb9880505720857329d1982","id":74235642,"location_subtype":"","month":"2019-05"},{"category":"shoplifting","location_type":"Force","location":{"latitude":"51.484852","street":{"id":679563,"name":"On or near Parking Area"},"longitude":"0.285222"},"context":"","outcome_status":{"category":"Unable to prosecute suspect","date":"2019-05"},"persistent_id":"ded437c2ce32d5a644ed5dea56b38f02c2b3966a24a5ee707f6539f294cc497e","id":74235643,"location_subtype":"","month":"2019-05"},{"category":"shoplifting","location_type":"Force","location":{"latitude":"51.488629","street":{"id":679531,"name":"On or near Parking Area"},"longitude":"0.282026"},"context":"","outcome_status":{"category":"Offender given a caution","date":"2019-05"},"persistent_id":"ee26414fbda297c92cb97f9188bbd9b4475cb67cc4f19e7490ecd5540dd6d494","id":74236140,"location_subtype":"","month":"2019-05"},{"category":"shoplifting","location_type":"Force","location":{"latitude":"51.489840","street":{"id":679528,"name":"On or near Parking Area"},"longitude":"0.281698"},"context":"","outcome_status":{"category":"Offender given a caution","date":"2019-05"},"persistent_id":"7b0cc8e76032c8b2f7a0aa4b21bfd658d942fc9c9d37298039f8037396f07317","id":74236141,"location_subtype":"","month":"2019-05"},{"category":"shoplifting","location_type":"Force","location":{"latitude":"51.488728","street":{"id":679533,"name":"On or near Parking Area"},"longitude":"0.285272"},"context":"","outcome_status":{"category":"Unable to prosecute suspect","date":"2019-05"},"persistent_id":"33373bc2dff00ebf3ef610e4e82e2a56d120aff7f7754558eaa7b0e3dface617","id":74236142,"location_subtype":"","month":"2019-05"},{"category":"shoplifting","location_type":"Force","location":{"latitude":"51.488728","street":{"id":679533,"name":"On or near Parking Area"},"longitude":"0.285272"},"context":"","outcome_status":{"category":"Offender given a caution","date":"2019-05"},"persistent_id":"4df04d990ec9370b93049f657f92ddbe15e973acf6ee602c70973db622f3b91a","id":74236143,"location_subtype":"","month":"2019-05"},{"category":"shoplifting","location_type":"Force","location":{"latitude":"51.486039","street":{"id":679526,"name":"On or near Parking Area"},"longitude":"0.270445"},"context":"","outcome_status":{"category":"Investigation complete; no suspect identified","date":"2019-05"},"persistent_id":"1a06bcd38236b689b564e4481b448cd0eebb45f7eea320f8d3202c1a7215aa03","id":74236659,"location_subtype":"","month":"2019-05"},{"category":"shoplifting","location_type":"Force","location":{"latitude":"51.489840","street":{"id":679528,"name":"On or near Parking Area"},"longitude":"0.281698"},"context":"","outcome_status":{"category":"Local resolution","date":"2019-05"},"persistent_id":"891744b31df07f64e356e22c95c77b03ef812569b20998224ee543b04a11b182","id":74238569,"location_subtype":"","month":"2019-05"},{"category":"shoplifting","location_type":"Force","location":{"latitude":"51.487772","street":{"id":679572,"name":"On or near Shopping Area"},"longitude":"0.284490"},"context":"","outcome_status":{"category":"Investigation complete; no suspect identified","date":"2019-05"},"persistent_id":"b232eb1f9cf8cab144c3006cddad6aa9381abc65daef38c2fffca04fe76ab27d","id":74238950,"location_subtype":"","month":"2019-05"},{"category":"shoplifting","location_type":"Force","location":{"latitude":"51.484852","street":{"id":679563,"name":"On or near Parking Area"},"longitude":"0.285222"},"context":"","outcome_status":{"category":"Court result unavailable","date":"2019-11"},"persistent_id":"6a4588cfe0a4960a4309fe11b17ff6348b782139b74df57209543ea509e6c8c8","id":74238953,"location_subtype":"","month":"2019-05"},{"category":"shoplifting","location_type":"Force","location":{"latitude":"51.488728","street":{"id":679533,"name":"On or near Parking Area"},"longitude":"0.285272"},"context":"","outcome_status":{"category":"Investigation complete; no suspect identified","date":"2019-05"},"persistent_id":"ba62d73cd869895efea550af24574a8f2abaec9917afefb9010df15597557281","id":74239431,"location_subtype":"","month":"2019-05"},{"category":"shoplifting","location_type":"Force","location":{"latitude":"51.488629","street":{"id":679531,"name":"On or near Parking Area"},"longitude":"0.282026"},"context":"","outcome_status":{"category":"Local resolution","date":"2019-05"},"persistent_id":"f9e65d838f188d1cb9f823a76bb1f3dac9d4a1cda892bbd0b4ee5289cfeb5ff7","id":74239975,"location_subtype":"","month":"2019-05"},{"category":"shoplifting","location_type":"Force","location":{"latitude":"51.489840","street":{"id":679528,"name":"On or near Parking Area"},"longitude":"0.281698"},"context":"","outcome_status":{"category":"Local resolution","date":"2019-05"},"persistent_id":"346c455a2cfe60cc21d25e573124e08dab59f63b2f7de0e541cdc1d5abb90bf5","id":74239976,"location_subtype":"","month":"2019-05"},{"category":"shoplifting","location_type":"Force","location":{"latitude":"51.487772","street":{"id":679572,"name":"On or near Shopping Area"},"longitude":"0.284490"},"context":"","outcome_status":{"category":"Investigation complete; no suspect identified","date":"2019-05"},"persistent_id":"ef59795b2dd019ee4118083f249e332b31e6284817bc62e775b389ef28c75b18","id":74239977,"location_subtype":"","month":"2019-05"},{"category":"shoplifting","location_type":"Force","location":{"latitude":"51.487772","street":{"id":679572,"name":"On or near Shopping Area"},"longitude":"0.284490"},"context":"","outcome_status":{"category":"Investigation complete; no suspect identified","date":"2019-05"},"persistent_id":"8c19dfb734465112d93e7482ee7a92089b5255f30277bedc8d5172f3fb5f4ba3","id":74239978,"location_subtype":"","month":"2019-05"},{"category":"shoplifting","location_type":"Force","location":{"latitude":"51.489840","street":{"id":679528,"name":"On or near Parking Area"},"longitude":"0.281698"},"context":"","outcome_status":{"category":"Local resolution","date":"2019-05"},"persistent_id":"8aaf5da328894b40f258142f386eacd835206ba7af167d6baf23b965637745dd","id":74240430,"location_subtype":"","month":"2019-05"},{"category":"shoplifting","location_type":"Force","location":{"latitude":"51.488728","street":{"id":679533,"name":"On or near Parking Area"},"longitude":"0.285272"},"context":"","outcome_status":{"category":"Investigation complete; no suspect identified","date":"2019-05"},"persistent_id":"245009bbcd61549e879fdb85bdabd387836b529d88591e22b6c11533d587c038","id":74240431,"location_subtype":"","month":"2019-05"},{"category":"shoplifting","location_type":"Force","location":{"latitude":"51.488728","street":{"id":679533,"name":"On or near Parking Area"},"longitude":"0.285272"},"context":"","outcome_status":{"category":"Investigation complete; no suspect identified","date":"2019-05"},"persistent_id":"d0fde7e234fd78a4548e3078f0f0dea19a0b0f475f6c223b849d1c0e7d2e5df8","id":74240432,"location_subtype":"","month":"2019-05"},{"category":"shoplifting","location_type":"Force","location":{"latitude":"51.486092","street":{"id":679560,"name":"On or near Shopping Area"},"longitude":"0.277434"},"context":"","outcome_status":{"category":"Investigation complete; no suspect identified","date":"2019-05"},"persistent_id":"509c2036362490a50362a37aa2f582563c048e51012de43fae63d3ed52bf0872","id":74240940,"location_subtype":"","month":"2019-05"},{"category":"shoplifting","location_type":"Force","location":{"latitude":"51.487772","street":{"id":679572,"name":"On or near Shopping Area"},"longitude":"0.284490"},"context":"","outcome_status":{"category":"Investigation complete; no suspect identified","date":"2019-05"},"persistent_id":"c778fd4703250fc55b3c9df1d100f7999f0296d44e54cd178531fa64cb795aff","id":74240943,"location_subtype":"","month":"2019-05"},{"category":"shoplifting","location_type":"Force","location":{"latitude":"51.475724","street":{"id":679390,"name":"On or near Parking Area"},"longitude":"0.289850"},"context":"","outcome_status":{"category":"Investigation complete; no suspect identified","date":"2019-05"},"persistent_id":"e5caedbb098fc48f38787ab024e92e9247451b6d51345e2dbf1b60d725607acc","id":74240945,"location_subtype":"","month":"2019-05"},{"category":"shoplifting","location_type":"Force","location":{"latitude":"51.484852","street":{"id":679563,"name":"On or near Parking Area"},"longitude":"0.285222"},"context":"","outcome_status":{"category":"Local resolution","date":"2019-05"},"persistent_id":"dc29c4429ae62640b42b2923cd1c9c396805d3fee997fa699af05c0205d16214","id":74241450,"location_subtype":"","month":"2019-05"},{"category":"shoplifting","location_type":"Force","location":{"latitude":"51.486609","street":{"id":679573,"name":"On or near Shopping Area"},"longitude":"0.284143"},"context":"","outcome_status":{"category":"Investigation complete; no suspect identified","date":"2019-05"},"persistent_id":"8e42e55ad866d425f32ede53217f52d9da477397222933c912aa1c21e53a4e95","id":74241451,"location_subtype":"","month":"2019-05"},{"category":"shoplifting","location_type":"Force","location":{"latitude":"51.488728","street":{"id":679533,"name":"On or near Parking Area"},"longitude":"0.285272"},"context":"","outcome_status":{"category":"Investigation complete; no suspect identified","date":"2019-05"},"persistent_id":"7ef459c0d68fa65795e0fbe81e5bc48578844c222b3b0508499ae71871de0e0f","id":74243418,"location_subtype":"","month":"2019-05"},{"category":"shoplifting","location_type":"Force","location":{"latitude":"51.487772","street":{"id":679572,"name":"On or near Shopping Area"},"longitude":"0.284490"},"context":"","outcome_status":{"category":"Local resolution","date":"2019-05"},"persistent_id":"8ab6d5fc740717d4f0362e234d38a54240320e1609fd48f25229b4bab301404e","id":74243419,"location_subtype":"","month":"2019-05"},{"category":"shoplifting","location_type":"Force","location":{"latitude":"51.488629","street":{"id":679531,"name":"On or near Parking Area"},"longitude":"0.282026"},"context":"","outcome_status":{"category":"Offender sent to prison","date":"2019-05"},"persistent_id":"bebb5eb4eb4767aa1bb89d06ed0bc37e260fc5ca321b061388f6fe36700fddeb","id":74241935,"location_subtype":"","month":"2019-05"},{"category":"shoplifting","location_type":"Force","location":{"latitude":"51.486609","street":{"id":679573,"name":"On or near Shopping Area"},"longitude":"0.284143"},"context":"","outcome_status":{"category":"Offender sent to prison","date":"2019-05"},"persistent_id":"6e12e48bc117b07c32da6d6e55268a9a52a915cb966d6af5e438f880dcc9e43a","id":74241938,"location_subtype":"","month":"2019-05"},{"category":"shoplifting","location_type":"Force","location":{"latitude":"51.489840","street":{"id":679528,"name":"On or near Parking Area"},"longitude":"0.281698"},"context":"","outcome_status":{"category":"Formal action is not in the public interest","date":"2019-05"},"persistent_id":"0c74a10fb41a37f85ff66686c02a3e82082245089067d1922843536649a511a3","id":74242418,"location_subtype":"","month":"2019-05"},{"category":"shoplifting","location_type":"Force","location":{"latitude":"51.487772","street":{"id":679572,"name":"On or near Shopping Area"},"longitude":"0.284490"},"context":"","outcome_status":{"category":"Offender given a caution","date":"2019-05"},"persistent_id":"9233fa0816d702ea7be7128f5c5298c15613bc10e82d1713fd8dfa82b31db6d4","id":74243917,"location_subtype":"","month":"2019-05"},{"category":"shoplifting","location_type":"Force","location":{"latitude":"51.491792","street":{"id":679550,"name":"On or near Supermarket"},"longitude":"0.294127"},"context":"","outcome_status":{"category":"Local resolution","date":"2019-05"},"persistent_id":"122ee5057cc8b8fe1800cba6096e720195ca705db7ac3fcca637460704dc4913","id":74244457,"location_subtype":"","month":"2019-05"},{"category":"shoplifting","location_type":"Force","location":{"latitude":"51.484852","street":{"id":679563,"name":"On or near Parking Area"},"longitude":"0.285222"},"context":"","outcome_status":{"category":"Local resolution","date":"2019-05"},"persistent_id":"e22a9473c6e51e8b201718f8c15a5e4ca22d984f39921b809bedae7dde8c9267","id":74244874,"location_subtype":"","month":"2019-05"},{"category":"shoplifting","location_type":"Force","location":{"latitude":"51.488728","street":{"id":679533,"name":"On or near Parking Area"},"longitude":"0.285272"},"context":"","outcome_status":{"category":"Investigation complete; no suspect identified","date":"2019-05"},"persistent_id":"d3128f18eed79a88af6cb42d8d5e640bf889bb53b9ac3a3bf231b5d17138db2b","id":74245846,"location_subtype":"","month":"2019-05"},{"category":"theft-from-the-person","location_type":"Force","location":{"latitude":"51.491792","street":{"id":679550,"name":"On or near Supermarket"},"longitude":"0.294127"},"context":"","outcome_status":{"category":"Investigation complete; no suspect identified","date":"2019-05"},"persistent_id":"2f42afa3c96d935ff0c1190c97ab321e6a329f1dfd956a0b70705925dc37546a","id":74236620,"location_subtype":"","month":"2019-05"},{"category":"theft-from-the-person","location_type":"Force","location":{"latitude":"51.482444","street":{"id":679372,"name":"On or near Parking Area"},"longitude":"0.280536"},"context":"","outcome_status":{"category":"Investigation complete; no suspect identified","date":"2019-05"},"persistent_id":"c79c8e6f0798e7be95761743ccd51a1ae4048993e76ceeb6a451d71e8345f458","id":74239927,"location_subtype":"","month":"2019-05"},{"category":"theft-from-the-person","location_type":"Force","location":{"latitude":"51.486609","street":{"id":679573,"name":"On or near Shopping Area"},"longitude":"0.284143"},"context":"","outcome_status":{"category":"Investigation complete; no suspect identified","date":"2019-05"},"persistent_id":"2e159cc1753658b161ac4623c1ba6f49e3667e5b52656b66c0aa1381238c18ea","id":74245324,"location_subtype":"","month":"2019-05"},{"category":"theft-from-the-person","location_type":"Force","location":{"latitude":"51.487772","street":{"id":679572,"name":"On or near Shopping Area"},"longitude":"0.284490"},"context":"","outcome_status":{"category":"Investigation complete; no suspect identified","date":"2019-05"},