[{"category":"anti-social-behaviour","location_type":"Force","location":{"latitude":"51.546887","street":{"id":967509,"name":"On or near Brondesbury Park"},"longitude":"-0.228677"},"context":"","outcome_status":null,"persistent_id":"","id":74280956,"location_subtype":"","month":"2019-05"},{"category":"anti-social-behaviour","location_type":"Force","location":{"latitude":"51.555047","street":{"id":967301,"name":"On or near Park Avenue North"},"longitude":"-0.230755"},"context":"","outcome_status":null,"persistent_id":"","id":74280962,"location_subtype":"","month":"2019-05"},{"category":"anti-social-behaviour","location_type":"Force","location":{"latitude":"51.555047","street":{"id":967301,"name":"On or near Park Avenue North"},"longitude":"-0.230755"},"context":"","outcome_status":null,"persistent_id":"","id":74280963,"location_subtype":"","month":"2019-05"},{"category":"anti-social-behaviour","location_type":"Force","location":{"latitude":"51.551274","street":{"id":967294,"name":"On or near Griffin Close"},"longitude":"-0.230353"},"context":"","outcome_status":null,"persistent_id":"","id":74280964,"location_subtype":"","month":"2019-05"},{"category":"anti-social-behaviour","location_type":"Force","location":{"latitude":"51.547863","street":{"id":967381,"name":"On or near Huddlestone Road"},"longitude":"-0.230774"},"context":"","outcome_status":null,"persistent_id":"","id":74280965,"location_subtype":"","month":"2019-05"},{"category":"anti-social-behaviour","location_type":"Force","location":{"latitude":"51.547863","street":{"id":967381,"name":"On or near Huddlestone Road"},"longitude":"-0.230774"},"context":"","outcome_status":null,"persistent_id":"","id":74280966,"location_subtype":"","month":"2019-05"},{"category":"anti-social-behaviour","location_type":"Force","location":{"latitude":"51.543679","street":{"id":965618,"name":"On or near Peter Avenue"},"longitude":"-0.231830"},"context":"","outcome_status":null,"persistent_id":"","id":74280967,"location_subtype":"","month":"2019-05"},{"category":"anti-social-behaviour","location_type":"Force","location":{"latitude":"51.558575","street":{"id":967310,"name":"On or near Campbell Gordon Way"},"longitude":"-0.231527"},"context":"","outcome_status":null,"persistent_id":"","id":74280970,"location_subtype":"","month":"2019-05"},{"category":"anti-social-behaviour","location_type":"Force","location":{"latitude":"51.552096","street":{"id":967299,"name":"On or near Sherrick Green Road"},"longitude":"-0.231793"},"context":"","outcome_status":null,"persistent_id":"","id":74280971,"location_subtype":"","month":"2019-05"},{"category":"anti-social-behaviour","location_type":"Force","location":{"latitude":"51.550118","street":{"id":967322,"name":"On or near Brenthurst Road"},"longitude":"-0.244447"},"context":"","outcome_status":null,"persistent_id":"","id":74281880,"location_subtype":"","month":"2019-05"},{"category":"anti-social-behaviour","location_type":"Force","location":{"latitude":"51.548793","street":{"id":967363,"name":"On or near White Hart Lane"},"longitude":"-0.247195"},"context":"","outcome_status":null,"persistent_id":"","id":74281907,"location_subtype":"","month":"2019-05"},{"category":"anti-social-behaviour","location_type":"Force","location":{"latitude":"51.559356","street":{"id":967227,"name":"On or near Birse Crescent"},"longitude":"-0.251838"},"context":"","outcome_status":null,"persistent_id":"","id":74281949,"location_subtype":"","month":"2019-05"},{"category":"anti-social-behaviour","location_type":"Force","location":{"latitude":"51.538812","street":{"id":965587,"name":"On or near Crownhill Road"},"longitude":"-0.246021"},"context":"","outcome_status":null,"persistent_id":"","id":74281889,"location_subtype":"","month":"2019-05"},{"category":"anti-social-behaviour","location_type":"Force","location":{"latitude":"51.541216","street":{"id":965579,"name":"On or near Fry Road"},"longitude":"-0.243866"},"context":"","outcome_status":null,"persistent_id":"","id":74281868,"location_subtype":"","month":"2019-05"},{"category":"anti-social-behaviour","location_type":"Force","location":{"latitude":"51.550616","street":{"id":967316,"name":"On or near Dudden Hill Lane"},"longitude":"-0.241052"},"context":"","outcome_status":null,"persistent_id":"","id":74281054,"location_subtype":"","month":"2019-05"},{"category":"anti-social-behaviour","location_type":"Force","location":{"latitude":"51.551998","street":{"id":967289,"name":"On or near Pedestrian Subway"},"longitude":"-0.239066"},"context":"","outcome_status":null,"persistent_id":"","id":74281051,"location_subtype":"","month":"2019-05"},{"category":"anti-social-behaviour","location_type":"Force","location":{"latitude":"51.551998","street":{"id":967289,"name":"On or near Pedestrian Subway"},"longitude":"-0.239066"},"context":"","outcome_status":null,"persistent_id":"","id":74281050,"location_subtype":"","month":"2019-05"},{"category":"anti-social-behaviour","location_type":"Force","location":{"latitude":"51.551998","street":{"id":967289,"name":"On or near Pedestrian Subway"},"longitude":"-0.239066"},"context":"","outcome_status":null,"persistent_id":"","id":74281049,"location_subtype":"","month":"2019-05"},{"category":"anti-social-behaviour","location_type":"Force","location":{"latitude":"51.551998","street":{"id":967289,"name":"On or near Pedestrian Subway"},"longitude":"-0.239066"},"context":"","outcome_status":null,"persistent_id":"","id":74281048,"location_subtype":"","month":"2019-05"},{"category":"anti-social-behaviour","location_type":"Force","location":{"latitude":"51.563329","street":{"id":972560,"name":"On or near Rylandes Road"},"longitude":"-0.239119"},"context":"","outcome_status":null,"persistent_id":"","id":74281040,"location_subtype":"","month":"2019-05"},{"category":"anti-social-behaviour","location_type":"Force","location":{"latitude":"51.564200","street":{"id":972574,"name":"On or near Brook Road"},"longitude":"-0.238999"},"context":"","outcome_status":null,"persistent_id":"","id":74281039,"location_subtype":"","month":"2019-05"},{"category":"anti-social-behaviour","location_type":"Force","location":{"latitude":"51.540583","street":{"id":965623,"name":"On or near Hersant Close"},"longitude":"-0.237012"},"context":"","outcome_status":null,"persistent_id":"","id":74281038,"location_subtype":"","month":"2019-05"},{"category":"anti-social-behaviour","location_type":"Force","location":{"latitude":"51.540583","street":{"id":965623,"name":"On or near Hersant Close"},"longitude":"-0.237012"},"context":"","outcome_status":null,"persistent_id":"","id":74281037,"location_subtype":"","month":"2019-05"},{"category":"anti-social-behaviour","location_type":"Force","location":{"latitude":"51.540583","street":{"id":965623,"name":"On or near Hersant Close"},"longitude":"-0.237012"},"context":"","outcome_status":null,"persistent_id":"","id":74281036,"location_subtype":"","month":"2019-05"},{"category":"anti-social-behaviour","location_type":"Force","location":{"latitude":"51.540583","street":{"id":965623,"name":"On or near Hersant Close"},"longitude":"-0.237012"},"context":"","outcome_status":null,"persistent_id":"","id":74281035,"location_subtype":"","month":"2019-05"},{"category":"anti-social-behaviour","location_type":"Force","location":{"latitude":"51.540583","street":{"id":965623,"name":"On or near Hersant Close"},"longitude":"-0.237012"},"context":"","outcome_status":null,"persistent_id":"","id":74281034,"location_subtype":"","month":"2019-05"},{"category":"anti-social-behaviour","location_type":"Force","location":{"latitude":"51.540583","street":{"id":965623,"name":"On or near Hersant Close"},"longitude":"-0.237012"},"context":"","outcome_status":null,"persistent_id":"","id":74281033,"location_subtype":"","month":"2019-05"},{"category":"anti-social-behaviour","location_type":"Force","location":{"latitude":"51.545912","street":{"id":965480,"name":"On or near Parking Area"},"longitude":"-0.228398"},"context":"","outcome_status":null,"persistent_id":"","id":74280951,"location_subtype":"","month":"2019-05"},{"category":"anti-social-behaviour","location_type":"Force","location":{"latitude":"51.560940","street":{"id":972520,"name":"On or near Mascotts Close"},"longitude":"-0.227352"},"context":"","outcome_status":null,"persistent_id":"","id":74280953,"location_subtype":"","month":"2019-05"},{"category":"anti-social-behaviour","location_type":"Force","location":{"latitude":"51.562763","street":{"id":972451,"name":"On or near Mount Road"},"longitude":"-0.226603"},"context":"","outcome_status":null,"persistent_id":"","id":74280954,"location_subtype":"","month":"2019-05"},{"category":"anti-social-behaviour","location_type":"Force","location":{"latitude":"51.562763","street":{"id":972451,"name":"On or near Mount Road"},"longitude":"-0.226603"},"context":"","outcome_status":null,"persistent_id":"","id":74280955,"location_subtype":"","month":"2019-05"},{"category":"anti-social-behaviour","location_type":"Force","location":{"latitude":"51.545620","street":{"id":965490,"name":"On or near Grange Road"},"longitude":"-0.229318"},"context":"","outcome_status":null,"persistent_id":"","id":74280957,"location_subtype":"","month":"2019-05"},{"category":"anti-social-behaviour","location_type":"Force","location":{"latitude":"51.540583","street":{"id":965623,"name":"On or near Hersant Close"},"longitude":"-0.237012"},"context":"","outcome_status":null,"persistent_id":"","id":74281031,"location_subtype":"","month":"2019-05"},{"category":"anti-social-behaviour","location_type":"Force","location":{"latitude":"51.560563","street":{"id":972592,"name":"On or near Hill Crest Gardens"},"longitude":"-0.239327"},"context":"","outcome_status":null,"persistent_id":"","id":74281030,"location_subtype":"","month":"2019-05"},{"category":"anti-social-behaviour","location_type":"Force","location":{"latitude":"51.547807","street":{"id":967388,"name":"On or near Bus\/coach Station"},"longitude":"-0.239026"},"context":"","outcome_status":null,"persistent_id":"","id":74281029,"location_subtype":"","month":"2019-05"},{"category":"anti-social-behaviour","location_type":"Force","location":{"latitude":"51.547807","street":{"id":967388,"name":"On or near Bus\/coach Station"},"longitude":"-0.239026"},"context":"","outcome_status":null,"persistent_id":"","id":74281028,"location_subtype":"","month":"2019-05"},{"category":"anti-social-behaviour","location_type":"Force","location":{"latitude":"51.547807","street":{"id":967388,"name":"On or near Bus\/coach Station"},"longitude":"-0.239026"},"context":"","outcome_status":null,"persistent_id":"","id":74281027,"location_subtype":"","month":"2019-05"},{"category":"anti-social-behaviour","location_type":"Force","location":{"latitude":"51.561823","street":{"id":972594,"name":"On or near Flowers Close"},"longitude":"-0.238211"},"context":"","outcome_status":null,"persistent_id":"","id":74281026,"location_subtype":"","month":"2019-05"},{"category":"anti-social-behaviour","location_type":"Force","location":{"latitude":"51.550654","street":{"id":967295,"name":"On or near Deacon Road"},"longitude":"-0.237560"},"context":"","outcome_status":null,"persistent_id":"","id":74281025,"location_subtype":"","month":"2019-05"},{"category":"anti-social-behaviour","location_type":"Force","location":{"latitude":"51.560654","street":{"id":972589,"name":"On or near Rose Croft Gardens"},"longitude":"-0.238227"},"context":"","outcome_status":null,"persistent_id":"","id":74281024,"location_subtype":"","month":"2019-05"},{"category":"anti-social-behaviour","location_type":"Force","location":{"latitude":"51.560654","street":{"id":972589,"name":"On or near Rose Croft Gardens"},"longitude":"-0.238227"},"context":"","outcome_status":null,"persistent_id":"","id":74281023,"location_subtype":"","month":"2019-05"},{"category":"anti-social-behaviour","location_type":"Force","location":{"latitude":"51.560654","street":{"id":972589,"name":"On or near Rose Croft Gardens"},"longitude":"-0.238227"},"context":"","outcome_status":null,"persistent_id":"","id":74281022,"location_subtype":"","month":"2019-05"},{"category":"anti-social-behaviour","location_type":"Force","location":{"latitude":"51.560654","street":{"id":972589,"name":"On or near Rose Croft Gardens"},"longitude":"-0.238227"},"context":"","outcome_status":null,"persistent_id":"","id":74281021,"location_subtype":"","month":"2019-05"},{"category":"anti-social-behaviour","location_type":"Force","location":{"latitude":"51.545015","street":{"id":965611,"name":"On or near Tower Road"},"longitude":"-0.238124"},"context":"","outcome_status":null,"persistent_id":"","id":74281018,"location_subtype":"","month":"2019-05"},{"category":"anti-social-behaviour","location_type":"Force","location":{"latitude":"51.550654","street":{"id":967295,"name":"On or near Deacon Road"},"longitude":"-0.237560"},"context":"","outcome_status":null,"persistent_id":"","id":74281017,"location_subtype":"","month":"2019-05"},{"category":"anti-social-behaviour","location_type":"Force","location":{"latitude":"51.550654","street":{"id":967295,"name":"On or near Deacon Road"},"longitude":"-0.237560"},"context":"","outcome_status":null,"persistent_id":"","id":74281016,"location_subtype":"","month":"2019-05"},{"category":"anti-social-behaviour","location_type":"Force","location":{"latitude":"51.553942","street":{"id":967304,"name":"On or near Hamilton Road"},"longitude":"-0.237938"},"context":"","outcome_status":null,"persistent_id":"","id":74281015,"location_subtype":"","month":"2019-05"},{"category":"anti-social-behaviour","location_type":"Force","location":{"latitude":"51.553942","street":{"id":967304,"name":"On or near Hamilton Road"},"longitude":"-0.237938"},"context":"","outcome_status":null,"persistent_id":"","id":74281014,"location_subtype":"","month":"2019-05"},{"category":"anti-social-behaviour","location_type":"Force","location":{"latitude":"51.553942","street":{"id":967304,"name":"On or near Hamilton Road"},"longitude":"-0.237938"},"context":"","outcome_status":null,"persistent_id":"","id":74281013,"location_subtype":"","month":"2019-05"},{"category":"anti-social-behaviour","location_type":"Force","location":{"latitude":"51.560979","street":{"id":972587,"name":"On or near Hawarden Hill"},"longitude":"-0.237118"},"context":"","outcome_status":null,"persistent_id":"","id":74281012,"location_subtype":"","month":"2019-05"},{"category":"anti-social-behaviour","location_type":"Force","location":{"latitude":"51.560979","street":{"id":972587,"name":"On or near Hawarden Hill"},"longitude":"-0.237118"},"context":"","outcome_status":null,"persistent_id":"","id":74281011,"location_subtype":"","month":"2019-05"},{"category":"anti-social-behaviour","location_type":"Force","location":{"latitude":"51.540583","street":{"id":965623,"name":"On or near Hersant Close"},"longitude":"-0.237012"},"context":"","outcome_status":null,"persistent_id":"","id":74281010,"location_subtype":"","month":"2019-05"},{"category":"anti-social-behaviour","location_type":"Force","location":{"latitude":"51.553138","street":{"id":967308,"name":"On or near Dewsbury Road"},"longitude":"-0.238330"},"context":"","outcome_status":null,"persistent_id":"","id":74281009,"location_subtype":"","month":"2019-05"},{"category":"anti-social-behaviour","location_type":"Force","location":{"latitude":"51.548071","street":{"id":967389,"name":"On or near Supermarket"},"longitude":"-0.236852"},"context":"","outcome_status":null,"persistent_id":"","id":74281008,"location_subtype":"","month":"2019-05"},{"category":"anti-social-behaviour","location_type":"Force","location":{"latitude":"51.548071","street":{"id":967389,"name":"On or near Supermarket"},"longitude":"-0.236852"},"context":"","outcome_status":null,"persistent_id":"","id":74281006,"location_subtype":"","month":"2019-05"},{"category":"anti-social-behaviour","location_type":"Force","location":{"latitude":"51.548071","street":{"id":967389,"name":"On or near Supermarket"},"longitude":"-0.236852"},"context":"","outcome_status":null,"persistent_id":"","id":74281005,"location_subtype":"","month":"2019-05"},{"category":"anti-social-behaviour","location_type":"Force","location":{"latitude":"51.548071","street":{"id":967389,"name":"On or near Supermarket"},"longitude":"-0.236852"},"context":"","outcome_status":null,"persistent_id":"","id":74281004,"location_subtype":"","month":"2019-05"},{"category":"anti-social-behaviour","location_type":"Force","location":{"latitude":"51.548071","street":{"id":967389,"name":"On or near Supermarket"},"longitude":"-0.236852"},"context":"","outcome_status":null,"persistent_id":"","id":74281003,"location_subtype":"","month":"2019-05"},{"category":"anti-social-behaviour","location_type":"Force","location":{"latitude":"51.548071","street":{"id":967389,"name":"On or near Supermarket"},"longitude":"-0.236852"},"context":"","outcome_status":null,"persistent_id":"","id":74281002,"location_subtype":"","month":"2019-05"},{"category":"anti-social-behaviour","location_type":"Force","location":{"latitude":"51.548071","street":{"id":967389,"name":"On or near Supermarket"},"longitude":"-0.236852"},"context":"","outcome_status":null,"persistent_id":"","id":74281001,"location_subtype":"","month":"2019-05"},{"category":"anti-social-behaviour","location_type":"Force","location":{"latitude":"51.548071","street":{"id":967389,"name":"On or near Supermarket"},"longitude":"-0.236852"},"context":"","outcome_status":null,"persistent_id":"","id":74281000,"location_subtype":"","month":"2019-05"},{"category":"anti-social-behaviour","location_type":"Force","location":{"latitude":"51.548071","street":{"id":967389,"name":"On or near Supermarket"},"longitude":"-0.236852"},"context":"","outcome_status":null,"persistent_id":"","id":74280999,"location_subtype":"","month":"2019-05"},{"category":"anti-social-behaviour","location_type":"Force","location":{"latitude":"51.548071","street":{"id":967389,"name":"On or near Supermarket"},"longitude":"-0.236852"},"context":"","outcome_status":null,"persistent_id":"","id":74280998,"location_subtype":"","month":"2019-05"},{"category":"anti-social-behaviour","location_type":"Force","location":{"latitude":"51.548071","street":{"id":967389,"name":"On or near Supermarket"},"longitude":"-0.236852"},"context":"","outcome_status":null,"persistent_id":"","id":74280997,"location_subtype":"","month":"2019-05"},{"category":"anti-social-behaviour","location_type":"Force","location":{"latitude":"51.564518","street":{"id":972562,"name":"On or near Paddock Road"},"longitude":"-0.236231"},"context":"","outcome_status":null,"persistent_id":"","id":74280996,"location_subtype":"","month":"2019-05"},{"category":"anti-social-behaviour","location_type":"Force","location":{"latitude":"51.540583","street":{"id":965623,"name":"On or near Hersant Close"},"longitude":"-0.237012"},"context":"","outcome_status":null,"persistent_id":"","id":74280992,"location_subtype":"","month":"2019-05"},{"category":"anti-social-behaviour","location_type":"Force","location":{"latitude":"51.563536","street":{"id":972579,"name":"On or near Ainsworth Close"},"longitude":"-0.236702"},"context":"","outcome_status":null,"persistent_id":"","id":74280991,"location_subtype":"","month":"2019-05"},{"category":"anti-social-behaviour","location_type":"Force","location":{"latitude":"51.540583","street":{"id":965623,"name":"On or near Hersant Close"},"longitude":"-0.237012"},"context":"","outcome_status":null,"persistent_id":"","id":74280990,"location_subtype":"","month":"2019-05"},{"category":"anti-social-behaviour","location_type":"Force","location":{"latitude":"51.547019","street":{"id":967377,"name":"On or near Strode Road"},"longitude":"-0.236244"},"context":"","outcome_status":null,"persistent_id":"","id":74280989,"location_subtype":"","month":"2019-05"},{"category":"anti-social-behaviour","location_type":"Force","location":{"latitude":"51.564518","street":{"id":972562,"name":"On or near Paddock Road"},"longitude":"-0.236231"},"context":"","outcome_status":null,"persistent_id":"","id":74280988,"location_subtype":"","month":"2019-05"},{"category":"anti-social-behaviour","location_type":"Force","location":{"latitude":"51.538016","street":{"id":965624,"name":"On or near Haycroft Gardens"},"longitude":"-0.235554"},"context":"","outcome_status":null,"persistent_id":"","id":74280987,"location_subtype":"","month":"2019-05"},{"category":"anti-social-behaviour","location_type":"Force","location":{"latitude":"51.548284","street":{"id":967497,"name":"On or near Chatsworth Road"},"longitude":"-0.220589"},"context":"","outcome_status":null,"persistent_id":"","id":74280906,"location_subtype":"","month":"2019-05"},{"category":"anti-social-behaviour","location_type":"Force","location":{"latitude":"51.547588","street":{"id":967504,"name":"On or near High Road"},"longitude":"-0.225117"},"context":"","outcome_status":null,"persistent_id":"","id":74280945,"location_subtype":"","month":"2019-05"},{"category":"anti-social-behaviour","location_type":"Force","location":{"latitude":"51.538016","street":{"id":965624,"name":"On or near Haycroft Gardens"},"longitude":"-0.235554"},"context":"","outcome_status":null,"persistent_id":"","id":74280986,"location_subtype":"","month":"2019-05"},{"category":"anti-social-behaviour","location_type":"Force","location":{"latitude":"51.540628","street":{"id":965610,"name":"On or near Uffington Road"},"longitude":"-0.234616"},"context":"","outcome_status":null,"persistent_id":"","id":74280985,"location_subtype":"","month":"2019-05"},{"category":"anti-social-behaviour","location_type":"Force","location":{"latitude":"51.555372","street":{"id":967302,"name":"On or near Kendal Road"},"longitude":"-0.235027"},"context":"","outcome_status":null,"persistent_id":"","id":74280983,"location_subtype":"","month":"2019-05"},{"category":"anti-social-behaviour","location_type":"Force","location":{"latitude":"51.548991","street":{"id":967378,"name":"On or near Sandringham Road"},"longitude":"-0.233471"},"context":"","outcome_status":null,"persistent_id":"","id":74280982,"location_subtype":"","month":"2019-05"},{"category":"anti-social-behaviour","location_type":"Force","location":{"latitude":"51.562265","street":{"id":972561,"name":"On or near Pippin Close"},"longitude":"-0.233519"},"context":"","outcome_status":null,"persistent_id":"","id":74280980,"location_subtype":"","month":"2019-05"},{"category":"anti-social-behaviour","location_type":"Force","location":{"latitude":"51.548991","street":{"id":967378,"name":"On or near Sandringham Road"},"longitude":"-0.233471"},"context":"","outcome_status":null,"persistent_id":"","id":74280979,"location_subtype":"","month":"2019-05"},{"category":"anti-social-behaviour","location_type":"Force","location":{"latitude":"51.541679","street":{"id":965617,"name":"On or near Peter Avenue"},"longitude":"-0.232182"},"context":"","outcome_status":null,"persistent_id":"","id":74280978,"location_subtype":"","month":"2019-05"},{"category":"anti-social-behaviour","location_type":"Force","location":{"latitude":"51.560683","street":{"id":972593,"name":"On or near Hill Close"},"longitude":"-0.232974"},"context":"","outcome_status":null,"persistent_id":"","id":74280977,"location_subtype":"","month":"2019-05"},{"category":"anti-social-behaviour","location_type":"Force","location":{"latitude":"51.548071","street":{"id":967389,"name":"On or near Supermarket"},"longitude":"-0.236852"},"context":"","outcome_status":null,"persistent_id":"","id":74281007,"location_subtype":"","month":"2019-05"},{"category":"anti-social-behaviour","location_type":"Force","location":{"latitude":"51.541216","street":{"id":965579,"name":"On or near Fry Road"},"longitude":"-0.243866"},"context":"","outcome_status":null,"persistent_id":"","id":74281867,"location_subtype":"","month":"2019-05"},{"category":"anti-social-behaviour","location_type":"Force","location":{"latitude":"51.562200","street":{"id":972534,"name":"On or near Vincent Gardens"},"longitude":"-0.242986"},"context":"","outcome_status":null,"persistent_id":"","id":74281874,"location_subtype":"","month":"2019-05"},{"category":"anti-social-behaviour","location_type":"Force","location":{"latitude":"51.556746","street":{"id":967348,"name":"On or near Lennox Gardens"},"longitude":"-0.244480"},"context":"","outcome_status":null,"persistent_id":"","id":74281875,"location_subtype":"","month":"2019-05"},{"category":"anti-social-behaviour","location_type":"Force","location":{"latitude":"51.545375","street":{"id":965561,"name":"On or near Roundwood Road"},"longitude":"-0.247167"},"context":"","outcome_status":null,"persistent_id":"","id":74281902,"location_subtype":"","month":"2019-05"},{"category":"anti-social-behaviour","location_type":"Force","location":{"latitude":"51.562200","street":{"id":972534,"name":"On or near Vincent Gardens"},"longitude":"-0.242986"},"context":"","outcome_status":null,"persistent_id":"","id":74281878,"location_subtype":"","month":"2019-05"},{"category":"anti-social-behaviour","location_type":"Force","location":{"latitude":"51.565914","street":{"id":972546,"name":"On or near Dawpool Road"},"longitude":"-0.244184"},"context":"","outcome_status":null,"persistent_id":"","id":74281879,"location_subtype":"","month":"2019-05"},{"category":"anti-social-behaviour","location_type":"Force","location":{"latitude":"51.539883","street":{"id":965576,"name":"On or near Harlesden Gardens"},"longitude":"-0.246095"},"context":"","outcome_status":null,"persistent_id":"","id":74281882,"location_subtype":"","month":"2019-05"},{"category":"anti-social-behaviour","location_type":"Force","location":{"latitude":"51.539883","street":{"id":965576,"name":"On or near Harlesden Gardens"},"longitude":"-0.246095"},"context":"","outcome_status":null,"persistent_id":"","id":74281883,"location_subtype":"","month":"2019-05"},{"category":"anti-social-behaviour","location_type":"Force","location":{"latitude":"51.539883","street":{"id":965576,"name":"On or near Harlesden Gardens"},"longitude":"-0.246095"},"context":"","outcome_status":null,"persistent_id":"","id":74281884,"location_subtype":"","month":"2019-05"},{"category":"anti-social-behaviour","location_type":"Force","location":{"latitude":"51.551249","street":{"id":967317,"name":"On or near Denzil Road"},"longitude":"-0.245499"},"context":"","outcome_status":null,"persistent_id":"","id":74281890,"location_subtype":"","month":"2019-05"},{"category":"anti-social-behaviour","location_type":"Force","location":{"latitude":"51.555641","street":{"id":967343,"name":"On or near Northview Crescent"},"longitude":"-0.246354"},"context":"","outcome_status":null,"persistent_id":"","id":74281891,"location_subtype":"","month":"2019-05"},{"category":"anti-social-behaviour","location_type":"Force","location":{"latitude":"51.552246","street":{"id":967339,"name":"On or near Severn Way"},"longitude":"-0.247221"},"context":"","outcome_status":null,"persistent_id":"","id":74281892,"location_subtype":"","month":"2019-05"},{"category":"anti-social-behaviour","location_type":"Force","location":{"latitude":"51.542155","street":{"id":965582,"name":"On or near Fawcett Road"},"longitude":"-0.247709"},"context":"","outcome_status":null,"persistent_id":"","id":74281898,"location_subtype":"","month":"2019-05"},{"category":"anti-social-behaviour","location_type":"Force","location":{"latitude":"51.542155","street":{"id":965582,"name":"On or near Fawcett Road"},"longitude":"-0.247709"},"context":"","outcome_status":null,"persistent_id":"","id":74281899,"location_subtype":"","month":"2019-05"},{"category":"anti-social-behaviour","location_type":"Force","location":{"latitude":"51.543676","street":{"id":965599,"name":"On or near Ambleside Road"},"longitude":"-0.246613"},"context":"","outcome_status":null,"persistent_id":"","id":74281900,"location_subtype":"","month":"2019-05"},{"category":"anti-social-behaviour","location_type":"Force","location":{"latitude":"51.556059","street":{"id":967347,"name":"On or near Mulgrave Road"},"longitude":"-0.242400"},"context":"","outcome_status":null,"persistent_id":"","id":74281858,"location_subtype":"","month":"2019-05"},{"category":"anti-social-behaviour","location_type":"Force","location":{"latitude":"51.553804","street":{"id":923813,"name":"On or near Aberdeen Road"},"longitude":"-0.241939"},"context":"","outcome_status":null,"persistent_id":"","id":74281848,"location_subtype":"","month":"2019-05"},{"category":"anti-social-behaviour","location_type":"Force","location":{"latitude":"51.537847","street":{"id":965558,"name":"On or near Springwell Avenue"},"longitude":"-0.242222"},"context":"","outcome_status":null,"persistent_id":"","id":74281850,"location_subtype":"","month":"2019-05"},{"category":"anti-social-behaviour","location_type":"Force","location":{"latitude":"51.537847","street":{"id":965558,"name":"On or near Springwell Avenue"},"longitude":"-0.242222"},"context":"","outcome_status":null,"persistent_id":"","id":74281851,"location_subtype":"","month":"2019-05"},{"category":"anti-social-behaviour","location_type":"Force","location":{"latitude":"51.541679","street":{"id":965572,"name":"On or near Longstone Avenue"},"longitude":"-0.242925"},"context":"","outcome_status":null,"persistent_id":"","id":74281857,"location_subtype":"","month":"2019-05"},{"category":"anti-social-behaviour","location_type":"Force","location":{"latitude":"51.550981","street":{"id":967210,"name":"On or near Kingfisher Way"},"longitude":"-0.259457"},"context":"","outcome_status":null,"persistent_id":"","id":74282857,"location_subtype":"","month":"2019-05"},{"category":"anti-social-behaviour","location_type":"Force","location":{"latitude":"51.551814","street":{"id":967212,"name":"On or near Herne Close"},"longitude":"-0.259296"},"context":"","outcome_status":null,"persistent_id":"","id":74282861,"location_subtype":"","month":"2019-05"},{"category":"anti-social-behaviour","location_type":"Force","location":{"latitude":"51.543676","street":{"id":965599,"name":"On or near Ambleside Road"},"longitude":"-0.246613"},"context":"","outcome_status":null,"persistent_id":"","id":74281903,"location_subtype":"","month":"2019-05"},{"category":"anti-social-behaviour","location_type":"Force","location":{"latitude":"51.543676","street":{"id":965599,"name":"On or near Ambleside Road"},"longitude":"-0.246613"},"context":"","outcome_status":null,"persistent_id":"","id":74281904,"location_subtype":"","month":"2019-05"},{"category":"anti-social-behaviour","location_type":"Force","location":{"latitude":"51.543676","street":{"id":965599,"name":"On or near Ambleside Road"},"longitude":"-0.246613"},"context":"","outcome_status":null,"persistent_id":"","id":74281905,"location_subtype":"","month":"2019-05"},{"category":"anti-social-behaviour","location_type":"Force","location":{"latitude":"51.548793","street":{"id":967363,"name":"On or near White Hart Lane"},"longitude":"-0.247195"},"context":"","outcome_status":null,"persistent_id":"","id":74281906,"location_subtype":"","month":"2019-05"},{"category":"anti-social-behaviour","location_type":"Force","location":{"latitude":"51.548793","street":{"id":967363,"name":"On or near White Hart Lane"},"longitude":"-0.247195"},"context":"","outcome_status":null,"persistent_id":"","id":74281908,"location_subtype":"","month":"2019-05"},{"category":"anti-social-behaviour","location_type":"Force","location":{"latitude":"51.547763","street":{"id":967366,"name":"On or near Ilex Road"},"longitude":"-0.247465"},"context":"","outcome_status":null,"persistent_id":"","id":74281909,"location_subtype":"","month":"2019-05"},{"category":"anti-social-behaviour","location_type":"Force","location":{"latitude":"51.547763","street":{"id":967366,"name":"On or near Ilex Road"},"longitude":"-0.247465"},"context":"","outcome_status":null,"persistent_id":"","id":74281910,"location_subtype":"","month":"2019-05"},{"category":"anti-social-behaviour","location_type":"Force","location":{"latitude":"51.547763","street":{"id":967366,"name":"On or near Ilex Road"},"longitude":"-0.247465"},"context":"","outcome_status":null,"persistent_id":"","id":74281911,"location_subtype":"","month":"2019-05"},{"category":"anti-social-behaviour","location_type":"Force","location":{"latitude":"51.563198","street":{"id":972543,"name":"On or near Kenwyn Drive"},"longitude":"-0.248387"},"context":"","outcome_status":null,"persistent_id":"","id":74281912,"location_subtype":"","month":"2019-05"},{"category":"anti-social-behaviour","location_type":"Force","location":{"latitude":"51.563198","street":{"id":972543,"name":"On or near Kenwyn Drive"},"longitude":"-0.248387"},"context":"","outcome_status":null,"persistent_id":"","id":74281913,"location_subtype":"","month":"2019-05"},{"category":"anti-social-behaviour","location_type":"Force","location":{"latitude":"51.543676","street":{"id":965599,"name":"On or near Ambleside Road"},"longitude":"-0.246613"},"context":"","outcome_status":null,"persistent_id":"","id":74281914,"location_subtype":"","month":"2019-05"},{"category":"anti-social-behaviour","location_type":"Force","location":{"latitude":"51.559810","street":{"id":967336,"name":"On or near Tanfield Avenue"},"longitude":"-0.246699"},"context":"","outcome_status":null,"persistent_id":"","id":74281916,"location_subtype":"","month":"2019-05"},{"category":"anti-social-behaviour","location_type":"Force","location":{"latitude":"51.539703","street":{"id":965595,"name":"On or near Burn's Road"},"longitude":"-0.248524"},"context":"","outcome_status":null,"persistent_id":"","id":74281917,"location_subtype":"","month":"2019-05"},{"category":"anti-social-behaviour","location_type":"Force","location":{"latitude":"51.539703","street":{"id":965595,"name":"On or near Burn's Road"},"longitude":"-0.248524"},"context":"","outcome_status":null,"persistent_id":"","id":74281918,"location_subtype":"","month":"2019-05"},{"category":"anti-social-behaviour","location_type":"Force","location":{"latitude":"51.556476","street":{"id":967345,"name":"On or near Neasden Lane"},"longitude":"-0.249885"},"context":"","outcome_status":null,"persistent_id":"","id":74281931,"location_subtype":"","month":"2019-05"},{"category":"anti-social-behaviour","location_type":"Force","location":{"latitude":"51.544417","street":{"id":965594,"name":"On or near Butler Road"},"longitude":"-0.248632"},"context":"","outcome_status":null,"persistent_id":"","id":74281919,"location_subtype":"","month":"2019-05"},{"category":"anti-social-behaviour","location_type":"Force","location":{"latitude":"51.544417","street":{"id":965594,"name":"On or near Butler Road"},"longitude":"-0.248632"},"context":"","outcome_status":null,"persistent_id":"","id":74281920,"location_subtype":"","month":"2019-05"},{"category":"anti-social-behaviour","location_type":"Force","location":{"latitude":"51.544417","street":{"id":965594,"name":"On or near Butler Road"},"longitude":"-0.248632"},"context":"","outcome_status":null,"persistent_id":"","id":74281921,"location_subtype":"","month":"2019-05"},{"category":"anti-social-behaviour","location_type":"Force","location":{"latitude":"51.557358","street":{"id":967349,"name":"On or near Leeland Way"},"longitude":"-0.248683"},"context":"","outcome_status":null,"persistent_id":"","id":74281922,"location_subtype":"","month":"2019-05"},{"category":"anti-social-behaviour","location_type":"Force","location":{"latitude":"51.550641","street":{"id":967315,"name":"On or near Knapp Close"},"longitude":"-0.249951"},"context":"","outcome_status":null,"persistent_id":"","id":74281925,"location_subtype":"","month":"2019-05"},{"category":"anti-social-behaviour","location_type":"Force","location":{"latitude":"51.541668","street":{"id":965581,"name":"On or near Fortunegate Road"},"longitude":"-0.250598"},"context":"","outcome_status":null,"persistent_id":"","id":74281926,"location_subtype":"","month":"2019-05"},{"category":"anti-social-behaviour","location_type":"Force","location":{"latitude":"51.541668","street":{"id":965581,"name":"On or near Fortunegate Road"},"longitude":"-0.250598"},"context":"","outcome_status":null,"persistent_id":"","id":74281927,"location_subtype":"","month":"2019-05"},{"category":"anti-social-behaviour","location_type":"Force","location":{"latitude":"51.558988","street":{"id":967332,"name":"On or near Parking Area"},"longitude":"-0.250049"},"context":"","outcome_status":null,"persistent_id":"","id":74281928,"location_subtype":"","month":"2019-05"},{"category":"anti-social-behaviour","location_type":"Force","location":{"latitude":"51.557566","street":{"id":967353,"name":"On or near Crispian Close"},"longitude":"-0.250002"},"context":"","outcome_status":null,"persistent_id":"","id":74281929,"location_subtype":"","month":"2019-05"},{"category":"anti-social-behaviour","location_type":"Force","location":{"latitude":"51.556476","street":{"id":967345,"name":"On or near Neasden Lane"},"longitude":"-0.249885"},"context":"","outcome_status":null,"persistent_id":"","id":74281930,"location_subtype":"","month":"2019-05"},{"category":"anti-social-behaviour","location_type":"Force","location":{"latitude":"51.547786","street":{"id":967368,"name":"On or near High Road"},"longitude":"-0.250219"},"context":"","outcome_status":null,"persistent_id":"","id":74281936,"location_subtype":"","month":"2019-05"},{"category":"anti-social-behaviour","location_type":"Force","location":{"latitude":"51.554889","street":{"id":967346,"name":"On or near Neasden Close"},"longitude":"-0.250206"},"context":"","outcome_status":null,"persistent_id":"","id":74281937,"location_subtype":"","month":"2019-05"},{"category":"anti-social-behaviour","location_type":"Force","location":{"latitude":"51.540876","street":{"id":965556,"name":"On or near St Mary's Road"},"longitude":"-0.250599"},"context":"","outcome_status":null,"persistent_id":"","id":74281938,"location_subtype":"","month":"2019-05"},{"category":"anti-social-behaviour","location_type":"Force","location":{"latitude":"51.542105","street":{"id":965605,"name":"On or near Glynfield Road"},"longitude":"-0.251590"},"context":"","outcome_status":null,"persistent_id":"","id":74281939,"location_subtype":"","month":"2019-05"},{"category":"anti-social-behaviour","location_type":"Force","location":{"latitude":"51.559356","street":{"id":967227,"name":"On or near Birse Crescent"},"longitude":"-0.251838"},"context":"","outcome_status":null,"persistent_id":"","id":74281945,"location_subtype":"","month":"2019-05"},{"category":"anti-social-behaviour","location_type":"Force","location":{"latitude":"51.559356","street":{"id":967227,"name":"On or near Birse Crescent"},"longitude":"-0.251838"},"context":"","outcome_status":null,"persistent_id":"","id":74281946,"location_subtype":"","month":"2019-05"},{"category":"anti-social-behaviour","location_type":"Force","location":{"latitude":"51.559356","street":{"id":967227,"name":"On or near Birse Crescent"},"longitude":"-0.251838"},"context":"","outcome_status":null,"persistent_id":"","id":74281947,"location_subtype":"","month":"2019-05"},{"category":"anti-social-behaviour","location_type":"Force","location":{"latitude":"51.559356","street":{"id":967227,"name":"On or near Birse Crescent"},"longitude":"-0.251838"},"context":"","outcome_status":null,"persistent_id":"","id":74281948,"location_subtype":"","month":"2019-05"},{"category":"anti-social-behaviour","location_type":"Force","location":{"latitude":"51.559356","street":{"id":967227,"name":"On or near Birse Crescent"},"longitude":"-0.251838"},"context":"","outcome_status":null,"persistent_id":"","id":74281950,"location_subtype":"","month":"2019-05"},{"category":"anti-social-behaviour","location_type":"Force","location":{"latitude":"51.559356","street":{"id":967227,"name":"On or near Birse Crescent"},"longitude":"-0.251838"},"context":"","outcome_status":null,"persistent_id":"","id":74281951,"location_subtype":"","month":"2019-05"},{"category":"anti-social-behaviour","location_type":"Force","location":{"latitude":"51.559356","street":{"id":967227,"name":"On or near Birse Crescent"},"longitude":"-0.251838"},"context":"","outcome_status":null,"persistent_id":"","id":74281952,"location_subtype":"","month":"2019-05"},{"category":"anti-social-behaviour","location_type":"Force","location":{"latitude":"51.559356","street":{"id":967227,"name":"On or near Birse Crescent"},"longitude":"-0.251838"},"context":"","outcome_status":null,"persistent_id":"","id":74281953,"location_subtype":"","month":"2019-05"},{"category":"anti-social-behaviour","location_type":"Force","location":{"latitude":"51.559356","street":{"id":967227,"name":"On or near Birse Crescent"},"longitude":"-0.251838"},"context":"","outcome_status":null,"persistent_id":"","id":74281954,"location_subtype":"","month":"2019-05"},{"category":"anti-social-behaviour","location_type":"Force","location":{"latitude":"51.559356","street":{"id":967227,"name":"On or near Birse Crescent"},"longitude":"-0.251838"},"context":"","outcome_status":null,"persistent_id":"","id":74281955,"location_subtype":"","month":"2019-05"},{"category":"anti-social-behaviour","location_type":"Force","location":{"latitude":"51.559356","street":{"id":967227,"name":"On or near Birse Crescent"},"longitude":"-0.251838"},"context":"","outcome_status":null,"persistent_id":"","id":74281956,"location_subtype":"","month":"2019-05"},{"category":"anti-social-behaviour","location_type":"Force","location":{"latitude":"51.559356","street":{"id":967227,"name":"On or near Birse Crescent"},"longitude":"-0.251838"},"context":"","outcome_status":null,"persistent_id":"","id":74281957,"location_subtype":"","month":"2019-05"},{"category":"anti-social-behaviour","location_type":"Force","location":{"latitude":"51.559356","street":{"id":967227,"name":"On or near Birse Crescent"},"longitude":"-0.251838"},"context":"","outcome_status":null,"persistent_id":"","id":74281958,"location_subtype":"","month":"2019-05"},{"category":"anti-social-behaviour","location_type":"Force","location":{"latitude":"51.559356","street":{"id":967227,"name":"On or near Birse Crescent"},"longitude":"-0.251838"},"context":"","outcome_status":null,"persistent_id":"","id":74281959,"location_subtype":"","month":"2019-05"},{"category":"anti-social-behaviour","location_type":"Force","location":{"latitude":"51.541237","street":{"id":965720,"name":"On or near Tunley Road"},"longitude":"-0.253109"},"context":"","outcome_status":null,"persistent_id":"","id":74281967,"location_subtype":"","month":"2019-05"},{"category":"anti-social-behaviour","location_type":"Force","location":{"latitude":"51.541237","street":{"id":965720,"name":"On or near Tunley Road"},"longitude":"-0.253109"},"context":"","outcome_status":null,"persistent_id":"","id":74281968,"location_subtype":"","month":"2019-05"},{"category":"anti-social-behaviour","location_type":"Force","location":{"latitude":"51.541237","street":{"id":965720,"name":"On or near Tunley Road"},"longitude":"-0.253109"},"context":"","outcome_status":null,"persistent_id":"","id":74281969,"location_subtype":"","month":"2019-05"},{"category":"anti-social-behaviour","location_type":"Force","location":{"latitude":"51.557680","street":{"id":967229,"name":"On or near Ballogie Avenue"},"longitude":"-0.252219"},"context":"","outcome_status":null,"persistent_id":"","id":74281972,"location_subtype":"","month":"2019-05"},{"category":"anti-social-behaviour","location_type":"Force","location":{"latitude":"51.557680","street":{"id":967229,"name":"On or near Ballogie Avenue"},"longitude":"-0.252219"},"context":"","outcome_status":null,"persistent_id":"","id":74281973,"location_subtype":"","month":"2019-05"},{"category":"anti-social-behaviour","location_type":"Force","location":{"latitude":"51.557680","street":{"id":967229,"name":"On or near Ballogie Avenue"},"longitude":"-0.252219"},"context":"","outcome_status":null,"persistent_id":"","id":74281974,"location_subtype":"","month":"2019-05"},{"category":"anti-social-behaviour","location_type":"Force","location":{"latitude":"51.557680","street":{"id":967229,"name":"On or near Ballogie Avenue"},"longitude":"-0.252219"},"context":"","outcome_status":null,"persistent_id":"","id":74281975,"location_subtype":"","month":"2019-05"},{"category":"anti-social-behaviour","location_type":"Force","location":{"latitude":"51.551061","street":{"id":967209,"name":"On or near Lynton Close"},"longitude":"-0.252805"},"context":"","outcome_status":null,"persistent_id":"","id":74281979,"location_subtype":"","month":"2019-05"},{"category":"anti-social-behaviour","location_type":"Force","location":{"latitude":"51.544695","street":{"id":965774,"name":"On or near Brittage Road"},"longitude":"-0.254015"},"context":"","outcome_status":null,"persistent_id":"","id":74281984,"location_subtype":"","month":"2019-05"},{"category":"anti-social-behaviour","location_type":"Force","location":{"latitude":"51.561083","street":{"id":972696,"name":"On or near Jackman Mews"},"longitude":"-0.253690"},"context":"","outcome_status":null,"persistent_id":"","id":74281985,"location_subtype":"","month":"2019-05"},{"category":"anti-social-behaviour","location_type":"Force","location":{"latitude":"51.561083","street":{"id":972696,"name":"On or near Jackman Mews"},"longitude":"-0.253690"},"context":"","outcome_status":null,"persistent_id":"","id":74281986,"location_subtype":"","month":"2019-05"},{"category":"anti-social-behaviour","location_type":"Force","location":{"latitude":"51.561083","street":{"id":972696,"name":"On or near Jackman Mews"},"longitude":"-0.253690"},"context":"","outcome_status":null,"persistent_id":"","id":74281987,"location_subtype":"","month":"2019-05"},{"category":"anti-social-behaviour","location_type":"Force","location":{"latitude":"51.561083","street":{"id":972696,"name":"On or near Jackman Mews"},"longitude":"-0.253690"},"context":"","outcome_status":null,"persistent_id":"","id":74281988,"location_subtype":"","month":"2019-05"},{"category":"anti-social-behaviour","location_type":"Force","location":{"latitude":"51.561083","street":{"id":972696,"name":"On or near Jackman Mews"},"longitude":"-0.253690"},"context":"","outcome_status":null,"persistent_id":"","id":74281989,"location_subtype":"","month":"2019-05"},{"category":"anti-social-behaviour","location_type":"Force","location":{"latitude":"51.561083","street":{"id":972696,"name":"On or near Jackman Mews"},"longitude":"-0.253690"},"context":"","outcome_status":null,"persistent_id":"","id":74281990,"location_subtype":"","month":"2019-05"},{"category":"anti-social-behaviour","location_type":"Force","location":{"latitude":"51.561083","street":{"id":972696,"name":"On or near Jackman Mews"},"longitude":"-0.253690"},"context":"","outcome_status":null,"persistent_id":"","id":74281991,"location_subtype":"","month":"2019-05"},{"category":"anti-social-behaviour","location_type":"Force","location":{"latitude":"51.561083","street":{"id":972696,"name":"On or near Jackman Mews"},"longitude":"-0.253690"},"context":"","outcome_status":null,"persistent_id":"","id":74281992,"location_subtype":"","month":"2019-05"},{"category":"anti-social-behaviour","location_type":"Force","location":{"latitude":"51.561083","street":{"id":972696,"name":"On or near Jackman Mews"},"longitude":"-0.253690"},"context":"","outcome_status":null,"persistent_id":"","id":74281993,"location_subtype":"","month":"2019-05"},{"category":"anti-social-behaviour","location_type":"Force","location":{"latitude":"51.560617","street":{"id":972689,"name":"On or near Winslow Close"},"longitude":"-0.254401"},"context":"","outcome_status":null,"persistent_id":"","id":74281997,"location_subtype":"","month":"2019-05"},{"category":"anti-social-behaviour","location_type":"Force","location":{"latitude":"51.546585","street":{"id":965753,"name":"On or near Gibbons Road"},"longitude":"-0.255919"},"context":"","outcome_status":null,"persistent_id":"","id":74282004,"location_subtype":"","month":"2019-05"},{"category":"anti-social-behaviour","location_type":"Force","location":{"latitude":"51.553906","street":{"id":967230,"name":"On or near Petrol Station"},"longitude":"-0.255437"},"context":"","outcome_status":null,"persistent_id":"","id":74282005,"location_subtype":"","month":"2019-05"},{"category":"anti-social-behaviour","location_type":"Force","location":{"latitude":"51.553906","street":{"id":967230,"name":"On or near Petrol Station"},"longitude":"-0.255437"},"context":"","outcome_status":null,"persistent_id":"","id":74282006,"location_subtype":"","month":"2019-05"},{"category":"anti-social-behaviour","location_type":"Force","location":{"latitude":"51.544282","street":{"id":965780,"name":"On or near Alric Avenue"},"longitude":"-0.257665"},"context":"","outcome_status":null,"persistent_id":"","id":74282016,"location_subtype":"","month":"2019-05"},{"category":"anti-social-behaviour","location_type":"Force","location":{"latitude":"51.553906","street":{"id":967230,"name":"On or near Petrol Station"},"longitude":"-0.255437"},"context":"","outcome_status":null,"persistent_id":"","id":74282023,"location_subtype":"","month":"2019-05"},{"category":"anti-social-behaviour","location_type":"Force","location":{"latitude":"51.550981","street":{"id":967210,"name":"On or near Kingfisher Way"},"longitude":"-0.259457"},"context":"","outcome_status":null,"persistent_id":"","id":74282026,"location_subtype":"","month":"2019-05"},{"category":"anti-social-behaviour","location_type":"Force","location":{"latitude":"51.551162","street":{"id":967288,"name":"On or near Pedestrian Subway"},"longitude":"-0.233098"},"context":"","outcome_status":null,"persistent_id":"","id":74280976,"location_subtype":"","month":"2019-05"},{"category":"anti-social-behaviour","location_type":"Force","location":{"latitude":"51.551162","street":{"id":967288,"name":"On or near Pedestrian Subway"},"longitude":"-0.233098"},"context":"","outcome_status":null,"persistent_id":"","id":74280975,"location_subtype":"","month":"2019-05"},{"category":"anti-social-behaviour","location_type":"Force","location":{"latitude":"51.551162","street":{"id":967288,"name":"On or near Pedestrian Subway"},"longitude":"-0.233098"},"context":"","outcome_status":null,"persistent_id":"","id":74280974,"location_subtype":"","month":"2019-05"},{"category":"anti-social-behaviour","location_type":"Force","location":{"latitude":"51.540583","street":{"id":965623,"name":"On or near Hersant Close"},"longitude":"-0.237012"},"context":"","outcome_status":null,"persistent_id":"","id":74281032,"location_subtype":"","month":"2019-05"},{"category":"anti-social-behaviour","location_type":"Force","location":{"latitude":"51.561469","street":{"id":972591,"name":"On or near Lane Close"},"longitude":"-0.231443"},"context":"","outcome_status":null,"persistent_id":"","id":74280973,"location_subtype":"","month":"2019-05"},{"category":"anti-social-behaviour","location_type":"Force","location":{"latitude":"51.549516","street":{"id":967290,"name":"On or near Windsor Road"},"longitude":"-0.231878"},"context":"","outcome_status":null,"persistent_id":"","id":74280972,"location_subtype":"","month":"2019-05"},{"category":"anti-social-behaviour","location_type":"Force","location":{"latitude":"51.558504","street":{"id":967426,"name":"On or near Hassop Road"},"longitude":"-0.218488"},"context":"","outcome_status":null,"persistent_id":"","id":74272956,"location_subtype":"","month":"2019-05"},{"category":"anti-social-behaviour","location_type":"Force","location":{"latitude":"51.558504","street":{"id":967426,"name":"On or near Hassop Road"},"longitude":"-0.218488"},"context":"","outcome_status":null,"persistent_id":"","id":74272957,"location_subtype":"","month":"2019-05"},{"category":"anti-social-behaviour","location_type":"Force","location":{"latitude":"51.558504","street":{"id":967426,"name":"On or near Hassop Road"},"longitude":"-0.218488"},"context":"","outcome_status":null,"persistent_id":"","id":74272958,"location_subtype":"","month":"2019-05"},{"category":"anti-social-behaviour","location_type":"Force","location":{"latitude":"51.558504","street":{"id":967426,"name":"On or near Hassop Road"},"longitude":"-0.218488"},"context":"","outcome_status":null,"persistent_id":"","id":74272959,"location_subtype":"","month":"2019-05"},{"category":"anti-social-behaviour","location_type":"Force","location":{"latitude":"51.554636","street":{"id":967435,"name":"On or near Chichele Road"},"longitude":"-0.216678"},"context":"","outcome_status":null,"persistent_id":"","id":74280197,"location_subtype":"","month":"2019-05"},{"category":"anti-social-behaviour","location_type":"Force","location":{"latitude":"51.554636","street":{"id":967435,"name":"On or near Chichele Road"},"longitude":"-0.216678"},"context":"","outcome_status":null,"persistent_id":"","id":74280198,"location_subtype":"","month":"2019-05"},{"category":"anti-social-behaviour","location_type":"Force","location":{"latitude":"51.554636","street":{"id":967435,"name":"On or near Chichele Road"},"longitude":"-0.216678"},"context":"","outcome_status":null,"persistent_id":"","id":74280199,"location_subtype":"","month":"2019-05"},{"category":"anti-social-behaviour","location_type":"Force","location":{"latitude":"51.554636","street":{"id":967435,"name":"On or near Chichele Road"},"longitude":"-0.216678"},"context":"","outcome_status":null,"persistent_id":"","id":74280200,"location_subtype":"","month":"2019-05"},{"category":"anti-social-behaviour","location_type":"Force","location":{"latitude":"51.554998","street":{"id":967409,"name":"On or near Rockhall Road"},"longitude":"-0.217385"},"context":"","outcome_status":null,"persistent_id":"","id":74280201,"location_subtype":"","month":"2019-05"},{"category":"anti-social-behaviour","location_type":"Force","location":{"latitude":"51.558504","street":{"id":967426,"name":"On or near Hassop Road"},"longitude":"-0.218488"},"context":"","outcome_status":null,"persistent_id":"","id":74280905,"location_subtype":"","month":"2019-05"},{"category":"anti-social-behaviour","location_type":"Force","location":{"latitude":"51.554998","street":{"id":967409,"name":"On or near Rockhall Road"},"longitude":"-0.217385"},"context":"","outcome_status":null,"persistent_id":"","id":74280902,"location_subtype":"","month":"2019-05"},{"category":"anti-social-behaviour","location_type":"Force","location":{"latitude":"51.550877","street":{"id":967444,"name":"On or near Walm Lane"},"longitude":"-0.219580"},"context":"","outcome_status":null,"persistent_id":"","id":74280907,"location_subtype":"","month":"2019-05"},{"category":"anti-social-behaviour","location_type":"Force","location":{"latitude":"51.550877","street":{"id":967444,"name":"On or near Walm Lane"},"longitude":"-0.219580"},"context":"","outcome_status":null,"persistent_id":"","id":74280908,"location_subtype":"","month":"2019-05"},{"category":"anti-social-behaviour","location_type":"Force","location":{"latitude":"51.550877","street":{"id":967444,"name":"On or near Walm Lane"},"longitude":"-0.219580"},"context":"","outcome_status":null,"persistent_id":"","id":74280909,"location_subtype":"","month":"2019-05"},{"category":"anti-social-behaviour","location_type":"Force","location":{"latitude":"51.557040","street":{"id":967438,"name":"On or near Ashford Road"},"longitude":"-0.218041"},"context":"","outcome_status":null,"persistent_id":"","id":74280911,"location_subtype":"","month":"2019-05"},{"category":"anti-social-behaviour","location_type":"Force","location":{"latitude":"51.558216","street":{"id":967411,"name":"On or near Pine Road"},"longitude":"-0.219091"},"context":"","outcome_status":null,"persistent_id":"","id":74280916,"location_subtype":"","month":"2019-05"},{"category":"anti-social-behaviour","location_type":"Force","location":{"latitude":"51.558504","street":{"id":967426,"name":"On or near Hassop Road"},"longitude":"-0.218488"},"context":"","outcome_status":null,"persistent_id":"","id":74280917,"location_subtype":"","month":"2019-05"},{"category":"anti-social-behaviour","location_type":"Force","location":{"latitude":"51.551253","street":{"id":967447,"name":"On or near Stanley Gardens"},"longitude":"-0.220647"},"context":"","outcome_status":null,"persistent_id":"","id":74280919,"location_subtype":"","month":"2019-05"},{"category":"anti-social-behaviour","location_type":"Force","location":{"latitude":"51.548284","street":{"id":967497,"name":"On or near Chatsworth Road"},"longitude":"-0.220589"},"context":"","outcome_status":null,"persistent_id":"","id":74280920,"location_subtype":"","month":"2019-05"},{"category":"anti-social-behaviour","location_type":"Force","location":{"latitude":"51.548284","street":{"id":967497,"name":"On or near Chatsworth Road"},"longitude":"-0.220589"},"context":"","outcome_status":null,"persistent_id":"","id":74280921,"location_subtype":"","month":"2019-05"},{"category":"anti-social-behaviour","location_type":"Force","location":{"latitude":"51.548284","street":{"id":967497,"name":"On or near Chatsworth Road"},"longitude":"-0.220589"},"context":"","outcome_status":null,"persistent_id":"","id":74280922,"location_subtype":"","month":"2019-05"},{"category":"anti-social-behaviour","location_type":"Force","location":{"latitude":"51.547913","street":{"id":967493,"name":"On or near Rutland Park"},"longitude":"-0.221599"},"context":"","outcome_status":null,"persistent_id":"","id":74280924,"location_subtype":"","month":"2019-05"},{"category":"anti-social-behaviour","location_type":"Force","location":{"latitude":"51.556573","street":{"id":967478,"name":"On or near Olive Road"},"longitude":"-0.222848"},"context":"","outcome_status":null,"persistent_id":"","id":74280925,"location_subtype":"","month":"2019-05"},{"category":"anti-social-behaviour","location_type":"Force","location":{"latitude":"51.549576","street":{"id":967446,"name":"On or near Station Parade"},"longitude":"-0.222154"},"context":"","outcome_status":null,"persistent_id":"","id":74280927,"location_subtype":"","month":"2019-05"},{"category":"anti-social-behaviour","location_type":"Force","location":{"latitude":"51.549576","street":{"id":967446,"name":"On or near Station Parade"},"longitude":"-0.222154"},"context":"","outcome_status":null,"persistent_id":"","id":74280928,"location_subtype":"","month":"2019-05"},{"category":"anti-social-behaviour","location_type":"Force","location":{"latitude":"51.543787","street":{"id":965465,"name":"On or near Sidmouth Road"},"longitude":"-0.222914"},"context":"","outcome_status":null,"persistent_id":"","id":74280930,"location_subtype":"","month":"2019-05"},{"category":"anti-social-behaviour","location_type":"Force","location":{"latitude":"51.549586","street":{"id":967445,"name":"On or near Station Parade"},"longitude":"-0.222197"},"context":"","outcome_status":null,"persistent_id":"","id":74280931,"location_subtype":"","month":"2019-05"},{"category":"anti-social-behaviour","location_type":"Force","location":{"latitude":"51.547044","street":{"id":967491,"name":"On or near Willesden Lane"},"longitude":"-0.223003"},"context":"","outcome_status":null,"persistent_id":"","id":74280932,"location_subtype":"","month":"2019-05"},{"category":"anti-social-behaviour","location_type":"Force","location":{"latitude":"51.547044","street":{"id":967491,"name":"On or near Willesden Lane"},"longitude":"-0.223003"},"context":"","outcome_status":null,"persistent_id":"","id":74280934,"location_subtype":"","month":"2019-05"},{"category":"anti-social-behaviour","location_type":"Force","location":{"latitude":"51.559859","street":{"id":972528,"name":"On or near Langton Road"},"longitude":"-0.223052"},"context":"","outcome_status":null,"persistent_id":"","id":74280935,"location_subtype":"","month":"2019-05"},{"category":"anti-social-behaviour","location_type":"Force","location":{"latitude":"51.547019","street":{"id":967505,"name":"On or near Heathfield Park"},"longitude":"-0.224331"},"context":"","outcome_status":null,"persistent_id":"","id":74280936,"location_subtype":"","month":"2019-05"},{"category":"anti-social-behaviour","location_type":"Force","location":{"latitude":"51.547019","street":{"id":967505,"name":"On or near Heathfield Park"},"longitude":"-0.224331"},"context":"","outcome_status":null,"persistent_id":"","id":74280937,"location_subtype":"","month":"2019-05"},{"category":"anti-social-behaviour","location_type":"Force","location":{"latitude":"51.561912","street":{"id":972448,"name":"On or near Shobroke Close"},"longitude":"-0.224443"},"context":"","outcome_status":null,"persistent_id":"","id":74280938,"location_subtype":"","month":"2019-05"},{"category":"anti-social-behaviour","location_type":"Force","location":{"latitude":"51.549175","street":{"id":967451,"name":"On or near St Pauls Avenue"},"longitude":"-0.225343"},"context":"","outcome_status":null,"persistent_id":"","id":74280941,"location_subtype":"","month":"2019-05"},{"category":"anti-social-behaviour","location_type":"Force","location":{"latitude":"51.549175","street":{"id":967451,"name":"On or near St Pauls Avenue"},"longitude":"-0.225343"},"context":"","outcome_status":null,"persistent_id":"","id":74280942,"location_subtype":"","month":"2019-05"},{"category":"anti-social-behaviour","location_type":"Force","location":{"latitude":"51.544623","street":{"id":965482,"name":"On or near Staverton Road"},"longitude":"-0.225838"},"context":"","outcome_status":null,"persistent_id":"","id":74280943,"location_subtype":"","month":"2019-05"},{"category":"anti-social-behaviour","location_type":"Force","location":{"latitude":"51.559795","street":{"id":972517,"name":"On or near Wotton Road"},"longitude":"-0.224800"},"context":"","outcome_status":null,"persistent_id":"","id":74280947,"location_subtype":"","month":"2019-05"},{"category":"anti-social-behaviour","location_type":"Force","location":{"latitude":"51.559795","street":{"id":972517,"name":"On or near Wotton Road"},"longitude":"-0.224800"},"context":"","outcome_status":null,"persistent_id":"","id":74280948,"location_subtype":"","month":"2019-05"},{"category":"anti-social-behaviour","location_type":"Force","location":{"latitude":"51.545912","street":{"id":965480,"name":"On or near Parking Area"},"longitude":"-0.228398"},"context":"","outcome_status":null,"persistent_id":"","id":74280950,"location_subtype":"","month":"2019-05"},{"category":"bicycle-theft","location_type":"Force","location":{"latitude":"51.558216","street":{"id":967411,"name":"On or near Pine Road"},"longitude":"-0.219091"},"context":"","outcome_status":{"category":"Status update unavailable","date":"2019-09"},"persistent_id":"5e3f43a527d3747300bec7ba2d00a04b0cf5f4facf44190492e650a653498c12","id":74321972,"location_subtype":"","month":"2019-05"},{"category":"bicycle-theft","location_type":"Force","location":{"latitude":"51.541216","street":{"id":965579,"name":"On or near Fry Road"},"longitude":"-0.243866"},"context":"","outcome_status":{"category":"Status update unavailable","date":"2019-09"},"persistent_id":"13d4a9788dab58fd49d20e93b03a2660e34fbc7134923e4cdc00db9bceed9777","id":74321867,"location_subtype":"","month":"2019-05"},{"category":"bicycle-theft","location_type":"Force","location":{"latitude":"51.544004","street":{"id":965578,"name":"On or near Goodson Road"},"longitude":"-0.250523"},"context":"","outcome_status":{"category":"Status update unavailable","date":"2019-09"},"persistent_id":"a8d30cabb75553e4679798c94cb0e34dd8e3109e4f96929dc11231eceef82006","id":74315060,"location_subtype":"","month":"2019-05"},{"category":"bicycle-theft","location_type":"Force","location":{"latitude":"51.540276","street":{"id":965584,"name":"On or near Drayton Road"},"longitude":"-0.243499"},"context":"","outcome_status":{"category":"Status update unavailable","date":"2019-09"},"persistent_id":"5a99cd5cb7e637c685c83b4a467b20da59649ef38aa05ef4824d4bfeb37d5f21","id":74345830,"location_subtype":"","month":"2019-05"},{"category":"bicycle-theft","location_type":"Force","location":{"latitude":"51.548071","street":{"id":967389,"name":"On or near Supermarket"},"longitude":"-0.236852"},"context":"","outcome_status":{"category":"Status update unavailable","date":"2019-09"},"persistent_id":"b99208380514242488a488758f0b8df976722f560d68b4fd2beb555f594ee98b","id":74333598,"location_subtype":"","month":"2019-05"},{"category":"burglary","location_type":"Force","location":{"latitude":"51.560573","street":{"id":972688,"name":"On or near Pedestrian Subway"},"longitude":"-0.253263"},"context":"","outcome_status":{"category":"Status update unavailable","date":"2019-09"},"persistent_id":"5ac27879bcade65460a03308b04393ba4f5182eb3f4f01b38539bfedda0a2a9a","id":74296123,"location_subtype":"","month":"2019-05"},{"category":"burglary","location_type":"Force","location":{"latitude":"51.555461","street":{"id":967476,"name":"On or near Wren Avenue"},"longitude":"-0.223007"},"context":"","outcome_status":{"category":"Status update unavailable","date":"2019-09"},"persistent_id":"52c59ed156737eab35def04ef639718cacecee49d42debda31cc883b182f3fe0","id":74294408,"location_subtype":"","month":"2019-05"},{"category":"burglary","location_type":"Force","location":{"latitude":"51.548066","street":{"id":967372,"name":"On or near Church Road"},"longitude":"-0.248535"},"context":"","outcome_status":{"category":"Status update unavailable","date":"2019-09"},"persistent_id":"bc456a1b625f16b2ee4b91e68d78e540cabf9e4d9a44ae17789cf7fc4674bf5c","id":74294845,"location_subtype":"","month":"2019-05"},{"category":"burglary","location_type":"Force","location":{"latitude":"51.553679","street":{"id":967309,"name":"On or near Cullingworth Road"},"longitude":"-0.234241"},"context":"","outcome_status":{"category":"Status update unavailable","date":"2019-09"},"persistent_id":"f012c67d927aef8f36670195b450e900322d657ea09902fbbc079fa65591e525","id":74309136,"location_subtype":"","month":"2019-05"},{"category":"burglary","location_type":"Force","location":{"latitude":"51.564518","street":{"id":972562,"name":"On or near Paddock Road"},"longitude":"-0.236231"},"context":"","outcome_status":{"category":"Status update unavailable","date":"2019-09"},"persistent_id":"1729b1b1961ad8ed913522e52619d2e91dbf3e680f52a519e3ac8b4f46985aa2","id":74338091,"location_subtype":"","month":"2019-05"},{"category":"burglary","location_type":"Force","location":{"latitude":"51.565154","street":{"id":972537,"name":"On or near Selsdon Road"},"longitude":"-0.241501"},"context":"","outcome_status":{"category":"Status update unavailable","date":"2019-09"},"persistent_id":"024ffb2add0c753400698090f042e4d331b7de24cb70bc7ee0ee45e80fc240e7","id":74360513,"location_subtype":"","month":"2019-05"},{"category":"burglary","location_type":"Force","location":{"latitude":"51.547496","street":{"id":967382,"name":"On or near High Road"},"longitude":"-0.235057"},"context":"","outcome_status":{"category":"Status update unavailable","date":"2019-09"},"persistent_id":"7b44e8e004ba246897b8e6095790bedaa3357eaafc0aceab0847b351d7781110","id":74360910,"location_subtype":"","month":"2019-05"},{"category":"burglary","location_type":"Force","location":{"latitude":"51.550170","street":{"id":967457,"name":"On or near Elvis Road"},"longitude":"-0.226357"},"context":"","outcome_status":{"category":"Status update unavailable","date":"2019-09"},"persistent_id":"0621534861850147558d159f6dae83de53adea2af43c1adbadfc7c1aa27d17ff","id":74357431,"location_subtype":"","month":"2019-05"},{"category":"burglary","location_type":"Force","location":{"latitude":"51.551274","street":{"id":967294,"name":"On or near Griffin Close"},"longitude":"-0.230353"},"context":"","outcome_status":{"category":"Status update unavailable","date":"2019-09"},"persistent_id":"88b4e8263774ec846885bd2c481a2c4dbbc4e1010db34712741f2a671802b482","id":74290866,"location_subtype":"","month":"2019-05"},{"category":"burglary","location_type":"Force","location":{"latitude":"51.547019","street":{"id":967505,"name":"On or near Heathfield Park"},"longitude":"-0.224331"},"context":"","outcome_status":{"category":"Status update unavailable","date":"2019-09"},"persistent_id":"eca460e83e41872dfc7eaf59088783e5770d2d9e3babd2af728048f8aad368b1","id":74296296,"location_subtype":"","month":"2019-05"},{"category":"burglary","location_type":"Force","location":{"latitude":"51.556152","street":{"id":967412,"name":"On or near Oaklands Road"},"longitude":"-0.217585"},"context":"","outcome_status":{"category":"Status update unavailable","date":"2019-09"},"persistent_id":"1a647f618499ae362361d1f0402e73b0437654835cdfb3fa6e8a554cdcbb53c2","id":74300905,"location_subtype":"","month":"2019-05"},{"category":"burglary","location_type":"Force","location":{"latitude":"51.540276","street":{"id":965584,"name":"On or near Drayton Road"},"longitude":"-0.243499"},"context":"","outcome_status":{"category":"Status update unavailable","date":"2019-09"},"persistent_id":"ba026987fed718309e393e5986581c84b7576155d9ff43d50f52daeea6e457c7","id":74300906,"location_subtype":"","month":"2019-05"},{"category":"burglary","location_type":"Force","location":{"latitude":"51.554654","street":{"id":967303,"name":"On or near Helena Road"},"longitude":"-0.232112"},"context":"","outcome_status":{"category":"Status update unavailable","date":"2019-09"},"persistent_id":"7865a614e7ee3de26ba613363fd3c67ae1a96e4d5ceb1ee43cd5f9331f6f7853","id":74302843,"location_subtype":"","month":"2019-05"},{"category":"burglary","location_type":"Force","location":{"latitude":"51.541559","street":{"id":965492,"name":"On or near Donnington Road"},"longitude":"-0.227168"},"context":"","outcome_status":{"category":"Status update unavailable","date":"2019-09"},"persistent_id":"5344e31cf8d005d66f88f7273e364ddfd2712ac9bebb6239bad0ebcb6de0f1da","id":74302902,"location_subtype":"","month":"2019-05"},{"category":"burglary","location_type":"Force","location":{"latitude":"51.562460","street":{"id":972449,"name":"On or near Pinemartin Close"},"longitude":"-0.224379"},"context":"","outcome_status":{"category":"Status update unavailable","date":"2019-09"},"persistent_id":"7d45fd29f42aac8bccf46773d1be9115c971550d72a7f9a0f5f1f82a5d9c4885","id":74303078,"location_subtype":"","month":"2019-05"},{"category":"burglary","location_type":"Force","location":{"latitude":"51.555144","street":{"id":967487,"name":"On or near Blackstone Road"},"longitude":"-0.220509"},"context":"","outcome_status":{"category":"Status update unavailable","date":"2019-09"},"persistent_id":"074d777d7a81bd6d5f6d83a20d51309c757e9d560ab9f5fd1b6dfeb244a8876f","id":74303097,"location_subtype":"","month":"2019-05"},{"category":"burglary","location_type":"Force","location":{"latitude":"51.565069","street":{"id":972570,"name":"On or near Crest Road"},"longitude":"-0.237580"},"context":"","outcome_status":{"category":"Status update unavailable","date":"2019-09"},"persistent_id":"172069aef48522f782717d6c0fb87c7d5761b87cea5ca5b7e659259fd7309371","id":74304171,"location_subtype":"","month":"2019-05"},{"category":"burglary","location_type":"Force","location":{"latitude":"51.562128","street":{"id":972557,"name":"On or near The Crescent"},"longitude":"-0.230379"},"context":"","outcome_status":{"category":"Status update unavailable","date":"2019-09"},"persistent_id":"b98fdbf5b18de9d321ab895fae2160603dcd38df1bfe804eb67180b26af4238b","id":74293739,"location_subtype":"","month":"2019-05"},{"category":"burglary","location_type":"Force","location":{"latitude":"51.548756","street":{"id":967510,"name":"On or near Acland Road"},"longitude":"-0.227985"},"context":"","outcome_status":{"category":"Status update unavailable","date":"2019-09"},"persistent_id":"2f33c316babeea402a9a8130c7b60b921837925f1f66409b82bea22294fefc21","id":74294872,"location_subtype":"","month":"2019-05"},{"category":"burglary","location_type":"Force","location":{"latitude":"51.541764","street":{"id":965754,"name":"On or near Fig Tree Close"},"longitude":"-0.255238"},"context":"","outcome_status":{"category":"Status update unavailable","date":"2019-09"},"persistent_id":"cfa4d6d232565dd7aa24280cdd5605768063744117c4b4b104f8e04af0a44272","id":74307135,"location_subtype":"","month":"2019-05"},{"category":"burglary","location_type":"Force","location":{"latitude":"51.562786","street":{"id":972539,"name":"On or near Randall Avenue"},"longitude":"-0.246108"},"context":"","outcome_status":{"category":"Status update unavailable","date":"2019-09"},"persistent_id":"009f83fc8cb0cbd9f15d0c059e3d10792a41bb4b0d87e3f665eb139684aef47a","id":74307252,"location_subtype":"","month":"2019-05"},{"category":"burglary","location_type":"Force","location":{"latitude":"51.554915","street":{"id":967337,"name":"On or near Southview Avenue"},"longitude":"-0.246469"},"context":"","outcome_status":{"category":"Status update unavailable","date":"2019-09"},"persistent_id":"e5fe912fd5ffeff0f486adb6d0d9c238b8daf1e516eeadec546c4b0f96634aec","id":74308589,"location_subtype":"","month":"2019-05"},{"category":"burglary","location_type":"Force","location":{"latitude":"51.543679","street":{"id":965618,"name":"On or near Peter Avenue"},"longitude":"-0.231830"},"context":"","outcome_status":{"category":"Status update unavailable","date":"2019-09"},"persistent_id":"431894bcc3e9c27e125f8f8a8002a576bba3e3ad054ad2319c3dae67aac58f17","id":74308617,"location_subtype":"","month":"2019-05"},{"category":"burglary","location_type":"Force","location":{"latitude":"51.545422","street":{"id":965515,"name":"On or near Honeyman Close"},"longitude":"-0.218019"},"context":"","outcome_status":{"category":"Status update unavailable","date":"2019-09"},"persistent_id":"06c3b55bd8a9bc46bf29f26c344337ebaa033822c0dc6bc1525d606932467b37","id":74320119,"location_subtype":"","month":"2019-05"},{"category":"burglary","location_type":"Force","location":{"latitude":"51.543787","street":{"id":965465,"name":"On or near Sidmouth Road"},"longitude":"-0.222914"},"context":"","outcome_status":{"category":"Status update unavailable","date":"2019-09"},"persistent_id":"7cc3d3f189552d490650372da5a358eeb42664f6fe6c7c34bcdbc462eb65259f","id":74310854,"location_subtype":"","month":"2019-05"},{"category":"burglary","location_type":"Force","location":{"latitude":"51.559283","street":{"id":967312,"name":"On or near Sports\/recreation Area"},"longitude":"-0.230143"},"context":"","outcome_status":{"category":"Status update unavailable","date":"2019-09"},"persistent_id":"d831d08df7882e3b4df93f6d9929957b23011b1979ea23a3cf3ec646837a6f2d","id":74311884,"location_subtype":"","month":"2019-05"},{"category":"burglary","location_type":"Force","location":{"latitude":"51.549175","street":{"id":967451,"name":"On or near St Pauls Avenue"},"longitude":"-0.225343"},"context":"","outcome_status":{"category":"Status update unavailable","date":"2019-09"},"persistent_id":"38a8e512e9b6dde1aed14668d18f3716494bd1e6b4ff28d38ad19e06a1ae9a9b","id":74312556,"location_subtype":"","month":"2019-05"},{"category":"burglary","location_type":"Force","location":{"latitude":"51.559920","street":{"id":967328,"name":"On or near Neasden Lane"},"longitude":"-0.251066"},"context":"","outcome_status":{"category":"Status update unavailable","date":"2019-09"},"persistent_id":"fe3d1dec2cf94ce34a31322a3877ba4f801d448e4d39e3396f561a79316b7ecb","id":74314875,"location_subtype":"","month":"2019-05"},{"category":"burglary","location_type":"Force","location":{"latitude":"51.554636","street":{"id":967435,"name":"On or near Chichele Road"},"longitude":"-0.216678"},"context":"","outcome_status":{"category":"Status update unavailable","date":"2019-09"},"persistent_id":"1ecca9e3fea6415937ee64fe6e0cb8f270f0bd41e9d30f8e99f550b92d63125f","id":74315836,"location_subtype":"","month":"2019-05"},{"category":"burglary","location_type":"Force","location":{"latitude":"51.565809","street":{"id":972558,"name":"On or near Tadworth Road"},"longitude":"-0.237811"},"context":"","outcome_status":{"category":"Investigation complete; no suspect identified","date":"2020-08"},"persistent_id":"8b98707e22b0fdc656eaaf6ecf5c2841e8d3dab6f255643e877245a4c90de0c9","id":74314201,"location_subtype":"","month":"2019-05"},{"category":"burglary","location_type":"Force","location":{"latitude":"51.545422","street":{"id":965515,"name":"On or near Honeyman Close"},"longitude":"-0.218019"},"context":"","outcome_status":{"category":"Status update unavailable","date":"2019-09"},"persistent_id":"8272e9fe5243495239a1d135ba0a03746acb999197b9f3e1d8e9ef5e35f6e3b9","id":74319107,"location_subtype":"","month":"2019-05"},{"category":"burglary","location_type":"Force","location":{"latitude":"51.545134","street":{"id":965586,"name":"On or near Curzon Crescent"},"longitude":"-0.249672"},"context":"","outcome_status":{"category":"Status update unavailable","date":"2019-09"},"persistent_id":"b27d7c830afe59396aadcc94cbb3e4bff8234d754804b5d254337abf25490c69","id":74319213,"location_subtype":"","month":"2019-05"},{"category":"burglary","location_type":"Force","location":{"latitude":"51.547044","street":{"id":967491,"name":"On or near Willesden Lane"},"longitude":"-0.223003"},"context":"","outcome_status":{"category":"Status update unavailable","date":"2019-09"},"persistent_id":"98a30c3b129ecddf7340e719e00df011b5918cc92c2b2a3bab9489b7b9fc9855","id":74331847,"location_subtype":"","month":"2019-05"},{"category":"burglary","location_type":"Force","location":{"latitude":"51.550309","street":{"id":967324,"name":"On or near Shopping Area"},"longitude":"-0.242189"},"context":"","outcome_status":{"category":"Status update unavailable","date":"2019-09"},"persistent_id":"d7a47c0fba9f1bd06854cbb6bc10f902e0fb5300483ed177de07582dced44742","id":74332173,"location_subtype":"","month":"2019-05"},{"category":"burglary","location_type":"Force","location":{"latitude":"51.543110","street":{"id":965626,"name":"On or near Harlesden Road"},"longitude":"-0.234621"},"context":"","outcome_status":{"category":"Status update unavailable","date":"2019-09"},"persistent_id":"71483fd784af39f6005569629052fbdfa2137c8c92990c1e86ce098a4f7ad6db","id":74332399,"location_subtype":"","month":"2019-05"},{"category":"burglary","location_type":"Force","location":{"latitude":"51.540628","street":{"id":965610,"name":"On or near Uffington Road"},"longitude":"-0.234616"},"context":"","outcome_status":{"category":"Status update unavailable","date":"2019-09"},"persistent_id":"17cde9cc068f9b763414a492ba87bdb645cdc522eb57d7bde140f91f94913fed","id":74332402,"location_subtype":"","month":"2019-05"},{"category":"burglary","location_type":"Force","location":{"latitude":"51.552096","street":{"id":967299,"name":"On or near Sherrick Green Road"},"longitude":"-0.231793"},"context":"","outcome_status":{"category":"Status update unavailable","date":"2019-09"},"persistent_id":"72778b29ca60cab6af52fef6fa5fce607fb6bcae9b8c2b747c49fe8172c7acdc","id":74326921,"location_subtype":"","month":"2019-05"},{"category":"burglary","location_type":"Force","location":{"latitude":"51.547788","street":{"id":967496,"name":"On or near Lydford Road"},"longitude":"-0.219902"},"context":"","outcome_status":{"category":"Status update unavailable","date":"2019-09"},"persistent_id":"65d9d984bb2f8d1201256b28b76d01f749f352cd9cdb88e97ddd52837ad681fa","id":74329008,"location_subtype":"","month":"2019-05"},{"category":"burglary","location_type":"Force","location":{"latitude":"51.564350","street":{"id":972450,"name":"On or near Oxgate Gardens"},"longitude":"-0.227494"},"context":"","outcome_status":{"category":"Status update unavailable","date":"2019-09"},"persistent_id":"5a2b1e21cf3fc6880c33bd1d12b603a06ceb50df81c32430572a6801f3a75ebb","id":74331128,"location_subtype":"","month":"2019-05"},{"category":"burglary","location_type":"Force","location":{"latitude":"51.565154","street":{"id":972537,"name":"On or near Selsdon Road"},"longitude":"-0.241501"},"context":"","outcome_status":{"category":"Status update unavailable","date":"2019-09"},"persistent_id":"61d694c3374f6228c4df4c9e32aff3f3b8148f5ab1655f4ab6fc893b93b5921b","id":74340893,"location_subtype":"","month":"2019-05"},{"category":"burglary","location_type":"Force","location":{"latitude":"51.547282","street":{"id":967500,"name":"On or near Richmond Avenue"},"longitude":"-0.226874"},"context":"","outcome_status":{"category":"Status update unavailable","date":"2019-09"},"persistent_id":"cd850fdf6c19de6e37c482d2519a732c9d3acbd6a97f2ee661a297da15a705c0","id":74341214,"location_subtype":"","month":"2019-05"},{"category":"burglary","location_type":"Force","location":{"latitude":"51.547588","street":{"id":967504,"name":"On or near High Road"},"longitude":"-0.225117"},"context":"","outcome_status":{"category":"Status update unavailable","date":"2019-09"},"persistent_id":"69727709a2cc84c45fe4f0e2333d2d0d1cf97162daf29ad746bc8f1ec17701d1","id":74338252,"location_subtype":"","month":"2019-05"},{"category":"burglary","location_type":"Force","location":{"latitude":"51.551278","street":{"id":967456,"name":"On or near Jeymer Avenue"},"longitude":"-0.227064"},"context":"","outcome_status":{"category":"Investigation complete; no suspect identified","date":"2020-05"},"persistent_id":"a576d109edc5c10b123fd360caeaf971a012180e28394f4f54da2073c3097511","id":74340191,"location_subtype":"","month":"2019-05"},{"category":"burglary","location_type":"Force","location":{"latitude":"51.552808","street":{"id":967485,"name":"On or near Cranhurst Road"},"longitude":"-0.223024"},"context":"","outcome_status":{"category":"Status update unavailable","date":"2019-09"},"persistent_id":"560a17e859eacca5d1965411457ce7d6551582bb127736e804d20f32a188ed64","id":74354091,"location_subtype":"","month":"2019-05"},{"category":"burglary","location_type":"Force","location":{"latitude":"51.547170","street":{"id":967390,"name":"On or near Police Station"},"longitude":"-0.230772"},"context":"","outcome_status":{"category":"Status update unavailable","date":"2019-09"},"persistent_id":"8ef6625bef977f2f98bd18fbea1a49c6b925331bd087fdbfc1e8d8ee9abb7df2","id":74354145,"location_subtype":"","month":"2019-05"},{"category":"burglary","location_type":"Force","location":{"latitude":"51.547282","street":{"id":967500,"name":"On or near Richmond Avenue"},"longitude":"-0.226874"},"context":"","outcome_status":{"category":"Status update unavailable","date":"2019-09"},"persistent_id":"3073796e4f6dd26192f3e9fe0ccc5f9cef8509d9cef72bde6efa3cfa9c20ba12","id":74349499,"location_subtype":"","month":"2019-05"},{"category":"burglary","location_type":"Force","location":{"latitude":"51.556152","street":{"id":967412,"name":"On or near Oaklands Road"},"longitude":"-0.217585"},"context":"","outcome_status":{"category":"Status update unavailable","date":"2019-09"},"persistent_id":"446e6ab75c0bed1ab7a2f87595574d8b89b77a058c73d11baa41b602057d4390","id":74352020,"location_subtype":"","month":"2019-05"},{"category":"burglary","location_type":"Force","location":{"latitude":"51.556152","street":{"id":967412,"name":"On or near Oaklands Road"},"longitude":"-0.217585"},"context":"","outcome_status":{"category":"Status update unavailable","date":"2019-09"},"persistent_id":"446e6ab75c0bed1ab7a2f87595574d8b89b77a058c73d11baa41b602057d4390","id":74352021,"location_subtype":"","month":"2019-05"},{"category":"burglary","location_type":"Force","location":{"latitude":"51.545620","street":{"id":965490,"name":"On or near Grange Road"},"longitude":"-0.229318"},"context":"","outcome_status":{"category":"Status update unavailable","date":"2019-09"},"persistent_id":"acc65637972c76e857cb023027bf300739d8e3f56ad1092b5456d6f4e0e822a2","id":74371576,"location_subtype":"","month":"2019-05"},{"category":"burglary","location_type":"Force","location":{"latitude":"51.548173","street":{"id":967492,"name":"On or near Walm Lane"},"longitude":"-0.222714"},"context":"","outcome_status":{"category":"Status update unavailable","date":"2019-09"},"persistent_id":"f2600763ff11b9b6f5e51892e9e76a8b7e99ee86bba88bbec92e4ed6f2d17369","id":74372659,"location_subtype":"","month":"2019-05"},{"category":"burglary","location_type":"Force","location":{"latitude":"51.560563","street":{"id":972592,"name":"On or near Hill Crest Gardens"},"longitude":"-0.239327"},"context":"","outcome_status":{"category":"Investigation complete; no suspect identified","date":"2020-06"},"persistent_id":"2082f9702e7a7e3ed606ffbc4843d4b70addbeadc4dccafa716963dccf204de7","id":74359659,"location_subtype":"","month":"2019-05"},{"category":"burglary","location_type":"Force","location":{"latitude":"51.560507","street":{"id":972691,"name":"On or near Vicarage Way"},"longitude":"-0.256035"},"context":"","outcome_status":{"category":"Status update unavailable","date":"2019-09"},"persistent_id":"72bc864130bebb17744102bf94d7491675eb14cf5f1b28a447a0391615f45252","id":74359889,"location_subtype":"","month":"2019-05"},{"category":"burglary","location_type":"Force","location":{"latitude":"51.548756","street":{"id":967510,"name":"On or near Acland Road"},"longitude":"-0.227985"},"context":"","outcome_status":{"category":"Status update unavailable","date":"2019-09"},"persistent_id":"1d9c4a99430757846825998b803544238247e1db916c43e984bffe7423a2ae80","id":74357439,"location_subtype":"","month":"2019-05"},{"category":"burglary","location_type":"Force","location":{"latitude":"51.550317","street":{"id":967454,"name":"On or near Lennon Road"},"longitude":"-0.224780"},"context":"","outcome_status":{"category":"Status update unavailable","date":"2019-09"},"persistent_id":"82d9be1f50510dfb4b3e94f17b80b6d0422941aaaebb699bc27aa8debe409909","id":74362468,"location_subtype":"","month":"2019-05"},{"category":"burglary","location_type":"Force","location":{"latitude":"51.545076","street":{"id":965523,"name":"On or near Brondesbury Park"},"longitude":"-0.218321"},"context":"","outcome_status":{"category":"Status update unavailable","date":"2019-09"},"persistent_id":"cb6daf4e61e2d5f60d696bce70ddc88313444cf16e36b810f57792ac7afc6a0b","id":74362710,"location_subtype":"","month":"2019-05"},{"category":"burglary","location_type":"Force","location":{"latitude":"51.552893","street":{"id":967469,"name":"On or near Gay Close"},"longitude":"-0.228617"},"context":"","outcome_status":{"category":"Status update unavailable","date":"2019-09"},"persistent_id":"cfd9b21f14b8ecdc9e1186af1905710414a67ba7d56b7d475d472907f2b53efa","id":74363126,"location_subtype":"","month":"2019-05"},{"category":"burglary","location_type":"Force","location":{"latitude":"51.551191","street":{"id":967211,"name":"On or near Kestrel Close"},"longitude":"-0.259738"},"context":"","outcome_status":{"category":"Status update unavailable","date":"2019-09"},"persistent_id":"1ea29c3e53cd345a38ce1db3d9ed17eff9927ec95e0dedab1ff3d6a96b75dccf","id":74352871,"location_subtype":"","month":"2019-05"},{"category":"burglary","location_type":"Force","location":{"latitude":"51.541763","street":{"id":965743,"name":"On or near Inman Road"},"longitude":"-0.253363"},"context":"","outcome_status":{"category":"Status update unavailable","date":"2019-09"},"persistent_id":"280519262353f16416dd9bb7fdd73ae1cb7f13cd3af99c86ebf9bc889dda942d","id":74353013,"location_subtype":"","month":"2019-05"},{"category":"burglary","location_type":"Force","location":{"latitude":"51.550847","street":{"id":967453,"name":"On or near Park Avenue"},"longitude":"-0.228322"},"context":"","outcome_status":{"category":"Status update unavailable","date":"2019-09"},"persistent_id":"b10c442a39feb54bacfcce1c184cbef88709875c1ae8431612ad416028ba338c","id":74353502,"location_subtype":"","month":"2019-05"},{"category":"burglary","location_type":"Force","location":{"latitude":"51.543393","street":{"id":965499,"name":"On or near Bryan Avenue"},"longitude":"-0.228380"},"context":"","outcome_status":{"category":"Court result unavailable","date":"2020-05"},"persistent_id":"a14f80208d72df9e1dd50e014f3d169f372c59109b0c61bc17aa7c713c262886","id":74309214,"location_subtype":"","month":"2019-05"},{"category":"criminal-damage-arson","location_type":"Force","location":{"latitude":"51.553774","street":{"id":967488,"name":"On or near Astley Avenue"},"longitude":"-0.220880"},"context":"","outcome_status":{"category":"Status update unavailable","date":"2019-09"},"persistent_id":"4605a179ceb9416da1a2b9fae96ac11258b81523446d4eadce8d39f6c13b782c","id":74294050,"location_subtype":"","month":"2019-05"},{"category":"criminal-damage-arson","location_type":"Force","location":{"latitude":"51.551536","street":{"id":967449,"name":"On or near Cranhurst Road"},"longitude":"-0.223319"},"context":"","outcome_status":{"category":"Offender fined","date":"2019-05"},"persistent_id":"30ec94e6ad35cee60418c19e24c64ad6104adff35a6c56377efdb9d961f919f2","id":74293915,"location_subtype":"","month":"2019-05"},{"category":"criminal-damage-arson","location_type":"Force","location":{"latitude":"51.553774","street":{"id":967488,"name":"On or near Astley Avenue"},"longitude":"-0.220880"},"context":"","outcome_status":{"category":"Offender sent to prison","date":"2019-05"},"persistent_id":"4605a179ceb9416da1a2b9fae96ac11258b81523446d4eadce8d39f6c13b782c","id":74294051,"location_subtype":"","month":"2019-05"},{"category":"criminal-damage-arson","location_type":"Force","location":{"latitude":"51.559920","street":{"id":967328,"name":"On or near Neasden Lane"},"longitude":"-0.251066"},"context":"","outcome_status":{"category":"Local resolution","date":"2019-05"},"persistent_id":"47771e6e4299bb10416fec7c5ee7a6f78ad8b74fe0be797060033c28e04f7eb3","id":74327817,"location_subtype":"","month":"2019-05"},{"category":"criminal-damage-arson","location_type":"Force","location":{"latitude":"51.562460","street":{"id":972449,"name":"On or near Pinemartin Close"},"longitude":"-0.224379"},"context":"","outcome_status":{"category":"Status update unavailable","date":"2019-09"},"persistent_id":"4227e3830443eba80b4eb9c34c26ee14133d9b863b65e399839d9b0549647813","id":74303217,"location_subtype":"","month":"2019-05"},{"category":"criminal-damage-arson","location_type":"Force","location":{"latitude":"51.559920","street":{"id":967328,"name":"On or near Neasden Lane"},"longitude":"-0.251066"},"context":"","outcome_status":{"category":"Status update unavailable","date":"2019-09"},"persistent_id":"8fd761b13a702c3f99237feb3dafa32596533acd1a07cc9cdb9c4c18ea4a6042","id":74303264,"location_subtype":"","month":"2019-05"},{"category":"criminal-damage-arson","location_type":"Force","location":{"latitude":"51.547763","street":{"id":967366,"name":"On or near Ilex Road"},"longitude":"-0.247465"},"context":"","outcome_status":{"category":"Investigation complete; no suspect identified","date":"2020-03"},"persistent_id":"8c02d9d8165a32c8f3ec71e366d3a84343e6438924d003ae2f499fb2debadc7c","id":74358956,"location_subtype":"","month":"2019-05"},{"category":"criminal-damage-arson","location_type":"Force","location":{"latitude":"51.554053","street":{"id":967436,"name":"On or near Chichele Road"},"longitude":"-0.217335"},"context":"","outcome_status":{"category":"Status update unavailable","date":"2019-09"},"persistent_id":"4617d3b32b1c98df022843c290d2e3380d251faebd99aa64c2e7197c954d1d67","id":74329293,"location_subtype":"","month":"2019-05"},{"category":"criminal-damage-arson","location_type":"Force","location":{"latitude":"51.560979","street":{"id":972587,"name":"On or near Hawarden Hill"},"longitude":"-0.237118"},"context":"","outcome_status":{"category":"Status update unavailable","date":"2019-09"},"persistent_id":"5f5718b6d7be51f0bf7259ec45e06010def2d974a0f94e814f67c3a20835a5f5","id":74329756,"location_subtype":"","month":"2019-05"},{"category":"criminal-damage-arson","location_type":"Force","location":{"latitude":"51.548445","street":{"id":967373,"name":"On or near Beaconsfield Road"},"longitude":"-0.242564"},"context":"","outcome_status":{"category":"Status update unavailable","date":"2019-09"},"persistent_id":"4024acc49a17caf9e20aed35ff9429e5b74e85e72d04670f7842d4e1d6930de5","id":74332133,"location_subtype":"","month":"2019-05"},{"category":"criminal-damage-arson","location_type":"Force","location":{"latitude":"51.550939","street":{"id":967450,"name":"On or near Blenheim Gardens"},"longitude":"-0.221928"},"context":"","outcome_status":{"category":"Status update unavailable","date":"2019-09"},"persistent_id":"e526e0dc8ea71322a15132957db43f72ccae16ef853b9e66f2f1de08a2451d0e","id":74297891,"location_subtype":"","month":"2019-05"},{"category":"criminal-damage-arson","location_type":"Force","location":{"latitude":"51.562989","street":{"id":972565,"name":"On or near Midwood Close"},"longitude":"-0.233246"},"context":"","outcome_status":{"category":"Status update unavailable","date":"2019-09"},"persistent_id":"64f49cc98f2dfcff576cd055dbcefa097dbe3fe64db1e4d7d14c32d533da7a74","id":74330843,"location_subtype":"","month":"2019-05"},{"category":"criminal-damage-arson","location_type":"Force","location":{"latitude":"51.540583","street":{"id":965623,"name":"On or near Hersant Close"},"longitude":"-0.237012"},"context":"","outcome_status":{"category":"Status update unavailable","date":"2019-09"},"persistent_id":"f9fc1f2100f8a4f7400fa84838d5c1d82e6da5edab8890cb42753638369ff5e7","id":74310845,"location_subtype":"","month":"2019-05"},{"category":"criminal-damage-arson","location_type":"Force","location":{"latitude":"51.547496","street":{"id":967382,"name":"On or near High Road"},"longitude":"-0.235057"},"context":"","outcome_status":{"category":"Status update unavailable","date":"2019-09"},"persistent_id":"a762980d2d010c56e7936b5273dd6dbeddd8082377a3cd024a3e9f088ca84b0f","id":74331381,"location_subtype":"","month":"2019-05"},{"category":"criminal-damage-arson","location_type":"Force","location":{"latitude":"51.561401","street":{"id":972524,"name":"On or near Broadfield Close"},"longitude":"-0.226310"},"context":"","outcome_status":{"category":"Status update unavailable","date":"2019-09"},"persistent_id":"4b0f7902e7b566993ffc754884276364779e4c5db1a85a83e62c182661c679c9","id":74291215,"location_subtype":"","month":"2019-05"},{"category":"criminal-damage-arson","location_type":"Force","location":{"latitude":"51.554933","street":{"id":967350,"name":"On or near Lancaster Road"},"longitude":"-0.240482"},"context":"","outcome_status":{"category":"Status update unavailable","date":"2019-09"},"persistent_id":"8619e6d8be2885d61e1392eb7e8229c29d00b4658d61ab3fa691fcaaaee7dd0e","id":74312902,"location_subtype":"","month":"2019-05"},{"category":"criminal-damage-arson","location_type":"Force","location":{"latitude":"51.561207","street":{"id":972701,"name":"On or near Supermarket"},"longitude":"-0.252330"},"context":"","outcome_status":{"category":"Investigation complete; no suspect identified","date":"2020-03"},"persistent_id":"ac5b876864271fc05250f455cbd82deb696cfa9adeb5951e7cdb138cc2d31ae2","id":74341005,"location_subtype":"","month":"2019-05"},{"category":"criminal-damage-arson","location_type":"Force","location":{"latitude":"51.555636","street":{"id":967463,"name":"On or near Oman Avenue"},"longitude":"-0.226837"},"context":"","outcome_status":{"category":"Status update unavailable","date":"2019-09"},"persistent_id":"531f85a24ea27f85d3ac270834bdacaa289ad52fcddee56361ee852c9fd48018","id":74296229,"location_subtype":"","month":"2019-05"},{"category":"criminal-damage-arson","location_type":"Force","location":{"latitude":"51.547776","street":{"id":967369,"name":"On or near Glebe Road"},"longitude":"-0.241147"},"context":"","outcome_status":{"category":"Status update unavailable","date":"2019-09"},"persistent_id":"6e89269612b01a98cd256ab600654bffe9ab53ad2c6346df1bb76de9b6efc3e8","id":74358518,"location_subtype":"","month":"2019-05"},{"category":"criminal-damage-arson","location_type":"Force","location":{"latitude":"51.540209","street":{"id":965559,"name":"On or near Sellons Avenue"},"longitude":"-0.244453"},"context":"","outcome_status":{"category":"Status update unavailable","date":"2019-09"},"persistent_id":"0a2b898825fc981b4c13a9ac647bd38fdde7c72f0ac23909224e8ac0baa1f746","id":74309588,"location_subtype":"","month":"2019-05"},{"category":"criminal-damage-arson","location_type":"Force","location":{"latitude":"51.550317","street":{"id":967454,"name":"On or near Lennon Road"},"longitude":"-0.224780"},"context":"","outcome_status":{"category":"Investigation complete; no suspect identified","date":"2020-03"},"persistent_id":"11db37216c5826b4bb0b458e95d6f56a45ae8973cfe7bb31d47db0faf9625d97","id":74358983,"location_subtype":"","month":"2019-05"},{"category":"criminal-damage-arson","location_type":"Force","location":{"latitude":"51.548991","street":{"id":967378,"name":"On or near Sandringham Road"},"longitude":"-0.233471"},"context":"","outcome_status":{"category":"Status update unavailable","date":"2019-09"},"persistent_id":"7bcb15e743e6f71a1bf1faba883dac40b3796cf0575310c32022d28fce9a6d08","id":74363978,"location_subtype":"","month":"2019-05"},{"category":"criminal-damage-arson","location_type":"Force","location":{"latitude":"51.554053","street":{"id":967436,"name":"On or near Chichele Road"},"longitude":"-0.217335"},"context":"","outcome_status":{"category":"Status update unavailable","date":"2019-09"},"persistent_id":"e9d1f45b60374019e5c2f26ba7b82fa8fb88eaab9d7d35b5ad1b420cb5663e14","id":74311708,"location_subtype":"","month":"2019-05"},{"category":"criminal-damage-arson","location_type":"Force","location":{"latitude":"51.560563","street":{"id":972592,"name":"On or near Hill Crest Gardens"},"longitude":"-0.239327"},"context":"","outcome_status":{"category":"Status update unavailable","date":"2019-09"},"persistent_id":"c96dfa4f9f91b97f7b48e78064991058075c6a367603d3622317c41a16d2baf9","id":74341835,"location_subtype":"","month":"2019-05"},{"category":"criminal-damage-arson","location_type":"Force","location":{"latitude":"51.553602","street":{"id":967358,"name":"On or near Petrol Station"},"longitude":"-0.244110"},"context":"","outcome_status":{"category":"Status update unavailable","date":"2019-09"},"persistent_id":"9df6efaa43cc9fd01885ef2477eaf3011587c69902c47f23c19b56ccf67435bb","id":74344060,"location_subtype":"","month":"2019-05"},{"category":"criminal-damage-arson","location_type":"Force","location":{"latitude":"51.550742","street":{"id":967203,"name":"On or near Yeats Close"},"longitude":"-0.253711"},"context":"","outcome_status":{"category":"Status update unavailable","date":"2019-09"},"persistent_id":"cbded6cb32dd9d81a2b6a4e4359e9874a60729cad3fbc3a70ab247154abd3947","id":74297890,"location_subtype":"","month":"2019-05"},{"category":"criminal-damage-arson","location_type":"Force","location":{"latitude":"51.560346","street":{"id":972530,"name":"On or near Shopping Area"},"longitude":"-0.220811"},"context":"","outcome_status":{"category":"Offender given a caution","date":"2019-05"},"persistent_id":"89b6605821768bf768687000405be29f24f61d9cce48d68fa7fd36ceb6cbb04e","id":74353552,"location_subtype":"","month":"2019-05"},{"category":"criminal-damage-arson","location_type":"Force","location":{"latitude":"51.548479","street":{"id":967380,"name":"On or near Preston Place"},"longitude":"-0.237067"},"context":"","outcome_status":{"category":"Status update unavailable","date":"2019-09"},"persistent_id":"a825a0aa40b12e651d34b8a8ecf57be7d45e4d698fcea2553477615d8d5b9fd3","id":74344081,"location_subtype":"","month":"2019-05"},{"category":"criminal-damage-arson","location_type":"Force","location":{"latitude":"51.552808","street":{"id":967485,"name":"On or near Cranhurst Road"},"longitude":"-0.223024"},"context":"","outcome_status":{"category":"Status update unavailable","date":"2019-09"},"persistent_id":"fe24c9dad4326c178b9affec6acdc112bdfbed6356ed1974bb13f52ea177caca","id":74344639,"location_subtype":"","month":"2019-05"},{"category":"criminal-damage-arson","location_type":"Force","location":{"latitude":"51.563468","street":{"id":972535,"name":"On or near Tanfield Avenue"},"longitude":"-0.244798"},"context":"","outcome_status":{"category":"Investigation complete; no suspect identified","date":"2020-04"},"persistent_id":"c27793af36beeb9a491c61bdd4b1ed8082c7a5f19ce0c982c6ab78d2dbc520ce","id":74324678,"location_subtype":"","month":"2019-05"},{"category":"criminal-damage-arson","location_type":"Force","location":{"latitude":"51.540129","street":{"id":965557,"name":"On or near St John's Avenue"},"longitude":"-0.247528"},"context":"","outcome_status":{"category":"Investigation complete; no suspect identified","date":"2020-03"},