[{"category":"anti-social-behaviour","location_type":"Force","location":{"latitude":"51.531176","street":{"id":962820,"name":"On or near South Close"},"longitude":"0.151619"},"context":"","outcome_status":null,"persistent_id":"","id":74276809,"location_subtype":"","month":"2019-05"},{"category":"anti-social-behaviour","location_type":"Force","location":{"latitude":"51.532610","street":{"id":962900,"name":"On or near Parking Area"},"longitude":"0.132683"},"context":"","outcome_status":null,"persistent_id":"","id":74277688,"location_subtype":"","month":"2019-05"},{"category":"anti-social-behaviour","location_type":"Force","location":{"latitude":"51.537512","street":{"id":962953,"name":"On or near Ford Road"},"longitude":"0.148904"},"context":"","outcome_status":null,"persistent_id":"","id":74276831,"location_subtype":"","month":"2019-05"},{"category":"anti-social-behaviour","location_type":"Force","location":{"latitude":"51.535066","street":{"id":962839,"name":"On or near Hospital"},"longitude":"0.152307"},"context":"","outcome_status":null,"persistent_id":"","id":74276808,"location_subtype":"","month":"2019-05"},{"category":"anti-social-behaviour","location_type":"Force","location":{"latitude":"51.538144","street":{"id":962951,"name":"On or near Hatfield Road"},"longitude":"0.137902"},"context":"","outcome_status":null,"persistent_id":"","id":74276889,"location_subtype":"","month":"2019-05"},{"category":"anti-social-behaviour","location_type":"Force","location":{"latitude":"51.539246","street":{"id":962823,"name":"On or near Rectory Road"},"longitude":"0.154351"},"context":"","outcome_status":null,"persistent_id":"","id":74276800,"location_subtype":"","month":"2019-05"},{"category":"anti-social-behaviour","location_type":"Force","location":{"latitude":"51.531830","street":{"id":962885,"name":"On or near Ballards Road"},"longitude":"0.155673"},"context":"","outcome_status":null,"persistent_id":"","id":74276795,"location_subtype":"","month":"2019-05"},{"category":"anti-social-behaviour","location_type":"Force","location":{"latitude":"51.531830","street":{"id":962885,"name":"On or near Ballards Road"},"longitude":"0.155673"},"context":"","outcome_status":null,"persistent_id":"","id":74276794,"location_subtype":"","month":"2019-05"},{"category":"anti-social-behaviour","location_type":"Force","location":{"latitude":"51.530059","street":{"id":962845,"name":"On or near Third Avenue"},"longitude":"0.160491"},"context":"","outcome_status":null,"persistent_id":"","id":74276782,"location_subtype":"","month":"2019-05"},{"category":"anti-social-behaviour","location_type":"Force","location":{"latitude":"51.530059","street":{"id":962845,"name":"On or near Third Avenue"},"longitude":"0.160491"},"context":"","outcome_status":null,"persistent_id":"","id":74276781,"location_subtype":"","month":"2019-05"},{"category":"anti-social-behaviour","location_type":"Force","location":{"latitude":"51.535569","street":{"id":962907,"name":"On or near Studley Road"},"longitude":"0.131149"},"context":"","outcome_status":null,"persistent_id":"","id":74277702,"location_subtype":"","month":"2019-05"},{"category":"anti-social-behaviour","location_type":"Force","location":{"latitude":"51.535567","street":{"id":962959,"name":"On or near Dagenham Avenue"},"longitude":"0.139166"},"context":"","outcome_status":null,"persistent_id":"","id":74276865,"location_subtype":"","month":"2019-05"},{"category":"anti-social-behaviour","location_type":"Force","location":{"latitude":"51.526474","street":{"id":962567,"name":"On or near Mardyke Close"},"longitude":"0.166218"},"context":"","outcome_status":null,"persistent_id":"","id":74277894,"location_subtype":"","month":"2019-05"},{"category":"anti-social-behaviour","location_type":"Force","location":{"latitude":"51.536917","street":{"id":962903,"name":"On or near Urswick Road"},"longitude":"0.133187"},"context":"","outcome_status":null,"persistent_id":"","id":74277685,"location_subtype":"","month":"2019-05"},{"category":"anti-social-behaviour","location_type":"Force","location":{"latitude":"51.535567","street":{"id":962959,"name":"On or near Dagenham Avenue"},"longitude":"0.139166"},"context":"","outcome_status":null,"persistent_id":"","id":74276864,"location_subtype":"","month":"2019-05"},{"category":"anti-social-behaviour","location_type":"Force","location":{"latitude":"51.530192","street":{"id":962974,"name":"On or near Petrol Station"},"longitude":"0.143946"},"context":"","outcome_status":null,"persistent_id":"","id":74276852,"location_subtype":"","month":"2019-05"},{"category":"anti-social-behaviour","location_type":"Force","location":{"latitude":"51.536701","street":{"id":962929,"name":"On or near Rowdowns Road"},"longitude":"0.145030"},"context":"","outcome_status":null,"persistent_id":"","id":74276850,"location_subtype":"","month":"2019-05"},{"category":"anti-social-behaviour","location_type":"Force","location":{"latitude":"51.533385","street":{"id":962970,"name":"On or near Baden Powell Close"},"longitude":"0.137045"},"context":"","outcome_status":null,"persistent_id":"","id":74276898,"location_subtype":"","month":"2019-05"},{"category":"anti-social-behaviour","location_type":"Force","location":{"latitude":"51.531310","street":{"id":962931,"name":"On or near Ripple Road"},"longitude":"0.143782"},"context":"","outcome_status":null,"persistent_id":"","id":74276843,"location_subtype":"","month":"2019-05"},{"category":"anti-social-behaviour","location_type":"Force","location":{"latitude":"51.539007","street":{"id":962960,"name":"On or near Dagenham Avenue"},"longitude":"0.145788"},"context":"","outcome_status":null,"persistent_id":"","id":74276838,"location_subtype":"","month":"2019-05"},{"category":"anti-social-behaviour","location_type":"Force","location":{"latitude":"51.532610","street":{"id":962900,"name":"On or near Parking Area"},"longitude":"0.132683"},"context":"","outcome_status":null,"persistent_id":"","id":74277687,"location_subtype":"","month":"2019-05"},{"category":"anti-social-behaviour","location_type":"Force","location":{"latitude":"51.536917","street":{"id":962903,"name":"On or near Urswick Road"},"longitude":"0.133187"},"context":"","outcome_status":null,"persistent_id":"","id":74277686,"location_subtype":"","month":"2019-05"},{"category":"anti-social-behaviour","location_type":"Force","location":{"latitude":"51.534017","street":{"id":962961,"name":"On or near D'arcy Gardens"},"longitude":"0.146735"},"context":"","outcome_status":null,"persistent_id":"","id":74276837,"location_subtype":"","month":"2019-05"},{"category":"anti-social-behaviour","location_type":"Force","location":{"latitude":"51.533647","street":{"id":962950,"name":"On or near Heathway"},"longitude":"0.148275"},"context":"","outcome_status":null,"persistent_id":"","id":74276833,"location_subtype":"","month":"2019-05"},{"category":"anti-social-behaviour","location_type":"Force","location":{"latitude":"51.537512","street":{"id":962953,"name":"On or near Ford Road"},"longitude":"0.148904"},"context":"","outcome_status":null,"persistent_id":"","id":74276832,"location_subtype":"","month":"2019-05"},{"category":"anti-social-behaviour","location_type":"Force","location":{"latitude":"51.534818","street":{"id":962930,"name":"On or near Ron Todd Close"},"longitude":"0.149167"},"context":"","outcome_status":null,"persistent_id":"","id":74276821,"location_subtype":"","month":"2019-05"},{"category":"bicycle-theft","location_type":"BTP","location":{"latitude":"51.526096","street":{"id":1489671,"name":"Dagenham Dock (station)"},"longitude":"0.153038"},"context":"","outcome_status":{"category":"Status update unavailable","date":"2019-09"},"persistent_id":"","id":88717251,"location_subtype":"STATION","month":"2019-05"},{"category":"bicycle-theft","location_type":"Force","location":{"latitude":"51.539109","street":{"id":962819,"name":"On or near Vicarage Road"},"longitude":"0.155469"},"context":"","outcome_status":{"category":"Status update unavailable","date":"2019-09"},"persistent_id":"84bb5fe9c132935a2537d59b3ebbfe9d5cb6b0a09e89bf4772b36b9971561e2e","id":74295590,"location_subtype":"","month":"2019-05"},{"category":"bicycle-theft","location_type":"Force","location":{"latitude":"51.533385","street":{"id":962970,"name":"On or near Baden Powell Close"},"longitude":"0.137045"},"context":"","outcome_status":{"category":"Status update unavailable","date":"2019-09"},"persistent_id":"b290cdf71e66ed2671687e3d8e5a7b19989a4916a5c6f43d0c6035aa6b98d7fc","id":74302727,"location_subtype":"","month":"2019-05"},{"category":"bicycle-theft","location_type":"Force","location":{"latitude":"51.533385","street":{"id":962970,"name":"On or near Baden Powell Close"},"longitude":"0.137045"},"context":"","outcome_status":{"category":"Status update unavailable","date":"2019-09"},"persistent_id":"b290cdf71e66ed2671687e3d8e5a7b19989a4916a5c6f43d0c6035aa6b98d7fc","id":74302728,"location_subtype":"","month":"2019-05"},{"category":"bicycle-theft","location_type":"Force","location":{"latitude":"51.533053","street":{"id":963031,"name":"On or near Gale Street"},"longitude":"0.127095"},"context":"","outcome_status":{"category":"Status update unavailable","date":"2019-09"},"persistent_id":"fa17f146ad37feeccdaedd3208c3229ec3873e6e8a0dac86dc75d5c89d426b42","id":74345098,"location_subtype":"","month":"2019-05"},{"category":"bicycle-theft","location_type":"Force","location":{"latitude":"51.535569","street":{"id":962907,"name":"On or near Studley Road"},"longitude":"0.131149"},"context":"","outcome_status":{"category":"Status update unavailable","date":"2019-09"},"persistent_id":"3a1f68bb6cf0b2632faec709e06aad08a6e290980171f691ecbaceb427cdd345","id":74302627,"location_subtype":"","month":"2019-05"},{"category":"bicycle-theft","location_type":"Force","location":{"latitude":"51.531785","street":{"id":962975,"name":"On or near Sports\/recreation Area"},"longitude":"0.145852"},"context":"","outcome_status":{"category":"Status update unavailable","date":"2019-09"},"persistent_id":"f5ab85e809901a750a1216ff75b4f7a8b757a25208a5966a6087dda1b7957043","id":74336183,"location_subtype":"","month":"2019-05"},{"category":"bicycle-theft","location_type":"Force","location":{"latitude":"51.531310","street":{"id":962931,"name":"On or near Ripple Road"},"longitude":"0.143782"},"context":"","outcome_status":{"category":"Status update unavailable","date":"2019-09"},"persistent_id":"d48d39fb85060b95bc6b9fd413bb6cfc9b6b211844f5c28419043ece72fd5aee","id":74299930,"location_subtype":"","month":"2019-05"},{"category":"bicycle-theft","location_type":"Force","location":{"latitude":"51.533414","street":{"id":962878,"name":"On or near Ballards Close"},"longitude":"0.157565"},"context":"","outcome_status":{"category":"Status update unavailable","date":"2019-09"},"persistent_id":"c32ec7eb7ebc00a15aa474a524c375b4ab5d54fa85e8104a74db361a526fb5a7","id":74360579,"location_subtype":"","month":"2019-05"},{"category":"bicycle-theft","location_type":"Force","location":{"latitude":"51.533385","street":{"id":962970,"name":"On or near Baden Powell Close"},"longitude":"0.137045"},"context":"","outcome_status":{"category":"Status update unavailable","date":"2019-09"},"persistent_id":"47ceb3417e7b2903f9b0587ca7423f81832ab8a97b4394fe69006eaea8db28dd","id":74317895,"location_subtype":"","month":"2019-05"},{"category":"burglary","location_type":"Force","location":{"latitude":"51.535362","street":{"id":962827,"name":"On or near Morland Road"},"longitude":"0.151355"},"context":"","outcome_status":{"category":"Status update unavailable","date":"2019-09"},"persistent_id":"99534a875f978da52e111997585e304771ce78b5cac39cdec3aa4f3a3efd63f5","id":74334878,"location_subtype":"","month":"2019-05"},{"category":"burglary","location_type":"Force","location":{"latitude":"51.532719","street":{"id":962971,"name":"On or near Baddow Close"},"longitude":"0.149846"},"context":"","outcome_status":{"category":"Status update unavailable","date":"2019-09"},"persistent_id":"af98809e45c527db3cc4590c6a74a3d4d56e8034dc7d1d1d8df9748c24350a50","id":74327712,"location_subtype":"","month":"2019-05"},{"category":"burglary","location_type":"Force","location":{"latitude":"51.535362","street":{"id":962827,"name":"On or near Morland Road"},"longitude":"0.151355"},"context":"","outcome_status":{"category":"Status update unavailable","date":"2019-09"},"persistent_id":"ab9d12a7295f5d42f47816fd09303f3e5daffedf214c65e7836bd3f9472cc00b","id":74320477,"location_subtype":"","month":"2019-05"},{"category":"burglary","location_type":"Force","location":{"latitude":"51.539324","street":{"id":962943,"name":"On or near Langhorne Road"},"longitude":"0.150576"},"context":"","outcome_status":{"category":"Status update unavailable","date":"2019-09"},"persistent_id":"4c5f397a10a34fbedd59b94f78a29c1a47113798ba1fcee155b78cbc615bc5a5","id":74332630,"location_subtype":"","month":"2019-05"},{"category":"burglary","location_type":"Force","location":{"latitude":"51.530059","street":{"id":962845,"name":"On or near Third Avenue"},"longitude":"0.160491"},"context":"","outcome_status":{"category":"Status update unavailable","date":"2019-09"},"persistent_id":"21122b350e441c27b240c65d3d925b2c5eae007985d8ddaae98a37e941b5556e","id":74323887,"location_subtype":"","month":"2019-05"},{"category":"burglary","location_type":"Force","location":{"latitude":"51.535340","street":{"id":962917,"name":"On or near Elstow Gardens"},"longitude":"0.134382"},"context":"","outcome_status":{"category":"Status update unavailable","date":"2019-09"},"persistent_id":"11e394ae4d947570796bef2d017f1c1fb500bae568a0ec60c067521da0f7c48f","id":74362667,"location_subtype":"","month":"2019-05"},{"category":"burglary","location_type":"Force","location":{"latitude":"51.534818","street":{"id":962930,"name":"On or near Ron Todd Close"},"longitude":"0.149167"},"context":"","outcome_status":{"category":"Investigation complete; no suspect identified","date":"2020-03"},"persistent_id":"2e3ba086378727c8f5431fb7c643615791d1fbbfa80b02b632bc4fecb54fd7a5","id":74363513,"location_subtype":"","month":"2019-05"},{"category":"burglary","location_type":"Force","location":{"latitude":"51.535362","street":{"id":962827,"name":"On or near Morland Road"},"longitude":"0.151355"},"context":"","outcome_status":{"category":"Status update unavailable","date":"2019-09"},"persistent_id":"c97e22c70917d63b125985e9b12aa545d6d8dc1c5c44c7475d2641054e642f5c","id":74325374,"location_subtype":"","month":"2019-05"},{"category":"burglary","location_type":"Force","location":{"latitude":"51.534843","street":{"id":962910,"name":"On or near Romsey Road"},"longitude":"0.131533"},"context":"","outcome_status":{"category":"Status update unavailable","date":"2019-09"},"persistent_id":"069447a5a8e5bd3d240fbca0c92601fc407342a162c84a4e7462877c7f35b9b4","id":74310893,"location_subtype":"","month":"2019-05"},{"category":"burglary","location_type":"Force","location":{"latitude":"51.533385","street":{"id":962970,"name":"On or near Baden Powell Close"},"longitude":"0.137045"},"context":"","outcome_status":{"category":"Status update unavailable","date":"2019-09"},"persistent_id":"87f590cee5f8bcc3b5e43c2bf25e869d2447d451e72ffa41a0f064e491c19360","id":74336884,"location_subtype":"","month":"2019-05"},{"category":"burglary","location_type":"Force","location":{"latitude":"51.536383","street":{"id":962948,"name":"On or near Heathway"},"longitude":"0.148173"},"context":"","outcome_status":{"category":"Status update unavailable","date":"2019-09"},"persistent_id":"cf0c8aa8e606f83a3d8079a0074faf8020a6e5d389aa32459587286f41c1e2a1","id":74332038,"location_subtype":"","month":"2019-05"},{"category":"burglary","location_type":"Force","location":{"latitude":"51.532908","street":{"id":962934,"name":"On or near Nutbrowne Road"},"longitude":"0.146871"},"context":"","outcome_status":{"category":"Status update unavailable","date":"2019-09"},"persistent_id":"deda785fe17c6eabdcdf1ab17a31d2324a622c0a42d19b0982cff1b658994ad6","id":74328738,"location_subtype":"","month":"2019-05"},{"category":"burglary","location_type":"Force","location":{"latitude":"51.532719","street":{"id":962971,"name":"On or near Baddow Close"},"longitude":"0.149846"},"context":"","outcome_status":{"category":"Status update unavailable","date":"2019-09"},"persistent_id":"e7b643e4091814671d2514b2e19fa307a9de6c2ff37e5834c688e682af64f40e","id":74328363,"location_subtype":"","month":"2019-05"},{"category":"burglary","location_type":"Force","location":{"latitude":"51.534017","street":{"id":962961,"name":"On or near D'arcy Gardens"},"longitude":"0.146735"},"context":"","outcome_status":{"category":"Status update unavailable","date":"2019-09"},"persistent_id":"1c0df14fdfb4cf8262c6ecdf2ffd3dc2813a256b610ae87188d79d58f3d2b6ec","id":74328317,"location_subtype":"","month":"2019-05"},{"category":"burglary","location_type":"Force","location":{"latitude":"51.531330","street":{"id":962822,"name":"On or near Review Road"},"longitude":"0.154481"},"context":"","outcome_status":{"category":"Status update unavailable","date":"2019-09"},"persistent_id":"43749e4e5be16995646d64c595be05ff60158f96a473b6a607e2263c5082f0d0","id":74294102,"location_subtype":"","month":"2019-05"},{"category":"burglary","location_type":"Force","location":{"latitude":"51.532712","street":{"id":962968,"name":"On or near Burdetts Road"},"longitude":"0.142377"},"context":"","outcome_status":{"category":"Status update unavailable","date":"2019-09"},"persistent_id":"f779d639a52f59993d6aece0d5435e7aa98e680d2a59710804cd11cb68f96744","id":74295212,"location_subtype":"","month":"2019-05"},{"category":"burglary","location_type":"Force","location":{"latitude":"51.530769","street":{"id":962876,"name":"On or near Beam Avenue"},"longitude":"0.161015"},"context":"","outcome_status":{"category":"Status update unavailable","date":"2019-09"},"persistent_id":"626a5ed11240966fa685003aa22d9f47ac7934c354944bbd4477853ef5664bb5","id":74297275,"location_subtype":"","month":"2019-05"},{"category":"burglary","location_type":"Force","location":{"latitude":"51.539324","street":{"id":962943,"name":"On or near Langhorne Road"},"longitude":"0.150576"},"context":"","outcome_status":{"category":"Status update unavailable","date":"2019-09"},"persistent_id":"4c5f397a10a34fbedd59b94f78a29c1a47113798ba1fcee155b78cbc615bc5a5","id":74332629,"location_subtype":"","month":"2019-05"},{"category":"criminal-damage-arson","location_type":"Force","location":{"latitude":"51.536462","street":{"id":962973,"name":"On or near Armstead Walk"},"longitude":"0.150239"},"context":"","outcome_status":{"category":"Status update unavailable","date":"2019-09"},"persistent_id":"fdb1aed6bba26e5f6a982042a36a76657bd67dc3035f026c82addecd0337d0da","id":74354826,"location_subtype":"","month":"2019-05"},{"category":"criminal-damage-arson","location_type":"Force","location":{"latitude":"51.533476","street":{"id":962952,"name":"On or near Goresbrook Road"},"longitude":"0.140928"},"context":"","outcome_status":{"category":"Status update unavailable","date":"2019-09"},"persistent_id":"7f8063ee3fcdd6b5f427a0d31ecdfeaa5ac63613620a8667f59eb1e32f1a3508","id":74303225,"location_subtype":"","month":"2019-05"},{"category":"criminal-damage-arson","location_type":"Force","location":{"latitude":"51.531834","street":{"id":962999,"name":"On or near Pedestrian Subway"},"longitude":"0.128869"},"context":"","outcome_status":{"category":"Status update unavailable","date":"2019-09"},"persistent_id":"719406ec555ab5bdbe6b39ffc70fcd1e2557edee6c700c435b4bcefa7cc6a481","id":74304622,"location_subtype":"","month":"2019-05"},{"category":"criminal-damage-arson","location_type":"Force","location":{"latitude":"51.534843","street":{"id":962910,"name":"On or near Romsey Road"},"longitude":"0.131533"},"context":"","outcome_status":{"category":"Status update unavailable","date":"2019-09"},"persistent_id":"12831be5f69501a169736bd31d1e76807fe0091cea247ce4b5f41fe355aec448","id":74344178,"location_subtype":"","month":"2019-05"},{"category":"criminal-damage-arson","location_type":"Force","location":{"latitude":"51.537928","street":{"id":962911,"name":"On or near Polesworth Road"},"longitude":"0.132009"},"context":"","outcome_status":{"category":"Status update unavailable","date":"2019-09"},"persistent_id":"6fa1de63f9d118655e79c83e5e0e58b450901b1e349752d7eff017e4db3ed7c6","id":74311168,"location_subtype":"","month":"2019-05"},{"category":"criminal-damage-arson","location_type":"Force","location":{"latitude":"51.531104","street":{"id":962936,"name":"On or near Morrison Road"},"longitude":"0.135886"},"context":"","outcome_status":{"category":"Status update unavailable","date":"2019-09"},"persistent_id":"bd1329397ebaad66f20b8cf4c3ce3e9a721fff6ef53817f31de8fb9ba3093bcb","id":74366736,"location_subtype":"","month":"2019-05"},{"category":"criminal-damage-arson","location_type":"Force","location":{"latitude":"51.528551","street":{"id":962892,"name":"On or near Lower Mardyke Avenue"},"longitude":"0.167701"},"context":"","outcome_status":{"category":"Status update unavailable","date":"2019-09"},"persistent_id":"c00229861c17655719c2cdafea5bcdc1c2283321ef3de935860f7d4f07cc4852","id":74321691,"location_subtype":"","month":"2019-05"},{"category":"criminal-damage-arson","location_type":"Force","location":{"latitude":"51.526474","street":{"id":962567,"name":"On or near Mardyke Close"},"longitude":"0.166218"},"context":"","outcome_status":{"category":"Status update unavailable","date":"2019-09"},"persistent_id":"5bf89e84f3d8852b30efe3ddcc80508ea4e67de93faeebb4c06524ccbc288ba3","id":74295557,"location_subtype":"","month":"2019-05"},{"category":"criminal-damage-arson","location_type":"Force","location":{"latitude":"51.528164","street":{"id":962889,"name":"On or near Oval Road South"},"longitude":"0.159378"},"context":"","outcome_status":{"category":"Investigation complete; no suspect identified","date":"2020-04"},"persistent_id":"67d50e010aa85388cb7cfb94249cf52ce723ef39184f99afb84888d0dadb20d8","id":74323120,"location_subtype":"","month":"2019-05"},{"category":"drugs","location_type":"Force","location":{"latitude":"51.535332","street":{"id":962883,"name":"On or near Sports\/recreation Area"},"longitude":"0.160856"},"context":"","outcome_status":{"category":"Local resolution","date":"2019-05"},"persistent_id":"3c3cbb67e7fc5cc5af3ddbc6b25c23bd91f6122fccda4a667e290bbbc26c300e","id":74312493,"location_subtype":"","month":"2019-05"},{"category":"drugs","location_type":"Force","location":{"latitude":"51.532061","street":{"id":923848,"name":"On or near Oval Road North"},"longitude":"0.160226"},"context":"","outcome_status":{"category":"Court result unavailable","date":"2019-12"},"persistent_id":"f898cb8a91548ddd8c828882d5a2f1707c82a3cd62776655a07ca318078fe314","id":74327966,"location_subtype":"","month":"2019-05"},{"category":"drugs","location_type":"Force","location":{"latitude":"51.539652","street":{"id":962942,"name":"On or near Lloyd Road"},"longitude":"0.145962"},"context":"","outcome_status":{"category":"Local resolution","date":"2019-06"},"persistent_id":"73916a637ffe7f1b64d935574ae794b5d2b94e5196aea78da8ed387324ced08c","id":74327889,"location_subtype":"","month":"2019-05"},{"category":"drugs","location_type":"Force","location":{"latitude":"51.533414","street":{"id":962878,"name":"On or near Ballards Close"},"longitude":"0.157565"},"context":"","outcome_status":{"category":"Status update unavailable","date":"2019-09"},"persistent_id":"d50ea5ace992d7ff77a029ef567f44383148a2ddae6afcb15200d982a89c0fe4","id":74304566,"location_subtype":"","month":"2019-05"},{"category":"drugs","location_type":"Force","location":{"latitude":"51.528164","street":{"id":962889,"name":"On or near Oval Road South"},"longitude":"0.159378"},"context":"","outcome_status":{"category":"Investigation complete; no suspect identified","date":"2020-03"},"persistent_id":"e22caacfb484aec14d58408c348f4c531073e6265a82dc010db53cc3ac0dff54","id":74295427,"location_subtype":"","month":"2019-05"},{"category":"drugs","location_type":"Force","location":{"latitude":"51.534914","street":{"id":962835,"name":"On or near Sports\/recreation Area"},"longitude":"0.153223"},"context":"","outcome_status":{"category":"Local resolution","date":"2019-09"},"persistent_id":"ec6b8ab5d49b8e4e1a98266a14a5c489cba1ffcbe5490f64e1d8f23239d10e3a","id":74331501,"location_subtype":"","month":"2019-05"},{"category":"other-theft","location_type":"Force","location":{"latitude":"51.526076","street":{"id":962561,"name":"On or near Choats Manor Way"},"longitude":"0.140869"},"context":"","outcome_status":{"category":"Status update unavailable","date":"2019-09"},"persistent_id":"1e20d0443bdd318a416269c5d1439d08b71513081a637b15288a2f0f8466cd4e","id":74333987,"location_subtype":"","month":"2019-05"},{"category":"other-theft","location_type":"Force","location":{"latitude":"51.530059","street":{"id":962845,"name":"On or near Third Avenue"},"longitude":"0.160491"},"context":"","outcome_status":{"category":"Status update unavailable","date":"2019-09"},"persistent_id":"6fa1a9a8d0de31343332edf8269f8821709026ed1862527e37f6ad612be6f039","id":74332583,"location_subtype":"","month":"2019-05"},{"category":"other-theft","location_type":"Force","location":{"latitude":"51.540213","street":{"id":962940,"name":"On or near Manning Road"},"longitude":"0.150647"},"context":"","outcome_status":{"category":"Investigation complete; no suspect identified","date":"2020-03"},"persistent_id":"036650f2c5a2325919ea87c5a6430fcccb0f3358031520f5e09e64144f139733","id":74292501,"location_subtype":"","month":"2019-05"},{"category":"other-theft","location_type":"Force","location":{"latitude":"51.532610","street":{"id":962900,"name":"On or near Parking Area"},"longitude":"0.132683"},"context":"","outcome_status":{"category":"Investigation complete; no suspect identified","date":"2020-03"},"persistent_id":"c090ca97d59643c57ee97bb45f56cede0e521f87e39f1b0b2b0b13a0466ba091","id":74298243,"location_subtype":"","month":"2019-05"},{"category":"other-theft","location_type":"Force","location":{"latitude":"51.532719","street":{"id":962971,"name":"On or near Baddow Close"},"longitude":"0.149846"},"context":"","outcome_status":{"category":"Status update unavailable","date":"2019-09"},"persistent_id":"329c3eb46dd723035d559b32b2ae3686df4cf1b88efa2e240da941e091b6d052","id":74323624,"location_subtype":"","month":"2019-05"},{"category":"other-theft","location_type":"Force","location":{"latitude":"51.530769","street":{"id":962876,"name":"On or near Beam Avenue"},"longitude":"0.161015"},"context":"","outcome_status":{"category":"Status update unavailable","date":"2019-09"},"persistent_id":"a98cce5954c1186c954358f4cad8b77d5309a9649ee1553f55691a4bee9078e3","id":74365179,"location_subtype":"","month":"2019-05"},{"category":"other-theft","location_type":"Force","location":{"latitude":"51.539997","street":{"id":962947,"name":"On or near Hedgemans Road"},"longitude":"0.144810"},"context":"","outcome_status":{"category":"Status update unavailable","date":"2019-09"},"persistent_id":"28a739db00379983d3d9b35d56903e9022c72c28495eab3303e474a42819591c","id":74366318,"location_subtype":"","month":"2019-05"},{"category":"other-theft","location_type":"Force","location":{"latitude":"51.529975","street":{"id":962976,"name":"On or near Supermarket"},"longitude":"0.142061"},"context":"","outcome_status":{"category":"Court result unavailable","date":"2019-11"},"persistent_id":"8a4ed4500246de2facf7064a0aeb0151fff16e10986726d6c54c2b86eb3a9195","id":74300754,"location_subtype":"","month":"2019-05"},{"category":"other-theft","location_type":"Force","location":{"latitude":"51.528785","street":{"id":962896,"name":"On or near Petrol Station"},"longitude":"0.155976"},"context":"","outcome_status":{"category":"Status update unavailable","date":"2019-09"},"persistent_id":"564f5a05afcb710c76ddc52895ae133451a1004578641ecd038b063e9374d460","id":74296212,"location_subtype":"","month":"2019-05"},{"category":"other-theft","location_type":"Force","location":{"latitude":"51.516495","street":{"id":962562,"name":"On or near Perry Road"},"longitude":"0.145969"},"context":"","outcome_status":{"category":"Investigation complete; no suspect identified","date":"2020-03"},"persistent_id":"887e0d2f13c5701156452f20af511074f13600906668021702517b41c51367e5","id":74345066,"location_subtype":"","month":"2019-05"},{"category":"other-theft","location_type":"Force","location":{"latitude":"51.528164","street":{"id":962889,"name":"On or near Oval Road South"},"longitude":"0.159378"},"context":"","outcome_status":{"category":"Status update unavailable","date":"2019-09"},"persistent_id":"34b43d8de38cc37bed43db359001df49b1ae81585776df513fcba24f7d20a658","id":74298663,"location_subtype":"","month":"2019-05"},{"category":"other-theft","location_type":"Force","location":{"latitude":"51.533385","street":{"id":962970,"name":"On or near Baden Powell Close"},"longitude":"0.137045"},"context":"","outcome_status":{"category":"Status update unavailable","date":"2019-09"},"persistent_id":"2246da7d59f07583f910503f1a793b4f14d24f9562a164d09761744e70680db6","id":74344393,"location_subtype":"","month":"2019-05"},{"category":"other-theft","location_type":"Force","location":{"latitude":"51.526076","street":{"id":962561,"name":"On or near Choats Manor Way"},"longitude":"0.140869"},"context":"","outcome_status":{"category":"Status update unavailable","date":"2019-09"},"persistent_id":"1cce3e27c7845f987dfcc3bd75bde8f7ff42ef1a6f163435a0c466174fd2d0fc","id":74334665,"location_subtype":"","month":"2019-05"},{"category":"other-theft","location_type":"Force","location":{"latitude":"51.532992","street":{"id":962949,"name":"On or near Heathway"},"longitude":"0.148201"},"context":"","outcome_status":{"category":"Status update unavailable","date":"2019-09"},"persistent_id":"649b82d45853e9e1d7e7385df0805e94364e6594b9638656be948ff82f471740","id":74336355,"location_subtype":"","month":"2019-05"},{"category":"other-theft","location_type":"Force","location":{"latitude":"51.526076","street":{"id":962561,"name":"On or near Choats Manor Way"},"longitude":"0.140869"},"context":"","outcome_status":{"category":"Status update unavailable","date":"2019-09"},"persistent_id":"fdb69f48cc881b2352f837dd57cf960df1d27aa3bd3199bec10a8ee25793282f","id":74336321,"location_subtype":"","month":"2019-05"},{"category":"other-theft","location_type":"Force","location":{"latitude":"51.526474","street":{"id":962567,"name":"On or near Mardyke Close"},"longitude":"0.166218"},"context":"","outcome_status":{"category":"Investigation complete; no suspect identified","date":"2020-07"},"persistent_id":"908f31170d4c41af5678ffc47e67783aa90176427eeb2fa6f81ebeac79448825","id":74325859,"location_subtype":"","month":"2019-05"},{"category":"other-theft","location_type":"Force","location":{"latitude":"51.533385","street":{"id":962970,"name":"On or near Baden Powell Close"},"longitude":"0.137045"},"context":"","outcome_status":{"category":"Status update unavailable","date":"2019-09"},"persistent_id":"7b96d8302460ba7d7e66d03adba4aa13b57f9f571bc5d87cd0e343ef78a8cfe6","id":74336064,"location_subtype":"","month":"2019-05"},{"category":"other-theft","location_type":"Force","location":{"latitude":"51.528785","street":{"id":962896,"name":"On or near Petrol Station"},"longitude":"0.155976"},"context":"","outcome_status":{"category":"Status update unavailable","date":"2019-09"},"persistent_id":"b5be99affd8be8e5cfb4c954f6e71f35ae0cafc565bec1f2e687ec75d32d2196","id":74318663,"location_subtype":"","month":"2019-05"},{"category":"possession-of-weapons","location_type":"Force","location":{"latitude":"51.533385","street":{"id":962970,"name":"On or near Baden Powell Close"},"longitude":"0.137045"},"context":"","outcome_status":{"category":"Investigation complete; no suspect identified","date":"2020-03"},"persistent_id":"41fdeeaec749a183e4db1fccebbf7eb2cda05e0e4c813056ac6555fcc9b1281d","id":74305396,"location_subtype":"","month":"2019-05"},{"category":"possession-of-weapons","location_type":"Force","location":{"latitude":"51.533321","street":{"id":962926,"name":"On or near Starmans Close"},"longitude":"0.139032"},"context":"","outcome_status":{"category":"Investigation complete; no suspect identified","date":"2020-05"},"persistent_id":"b8082e65584f527d9cdd47774fd39716e36f9b0dcc1d302f96d27936017d6e5d","id":74321975,"location_subtype":"","month":"2019-05"},{"category":"public-order","location_type":"Force","location":{"latitude":"51.536587","street":{"id":962937,"name":"On or near Morgan Close"},"longitude":"0.148832"},"context":"","outcome_status":{"category":"Offender fined","date":"2019-05"},"persistent_id":"6c39a09ab8fc9a330e4fd9de12b340ddd6246ff462d347e9ab091b2e5d7d9df1","id":74295083,"location_subtype":"","month":"2019-05"},{"category":"public-order","location_type":"Force","location":{"latitude":"51.530192","street":{"id":962974,"name":"On or near Petrol Station"},"longitude":"0.143946"},"context":"","outcome_status":{"category":"Status update unavailable","date":"2019-09"},"persistent_id":"898221002e073dac1a12e8c9ae1da80202412c91463e292b7c75e5bd203bcdce","id":74329569,"location_subtype":"","month":"2019-05"},{"category":"public-order","location_type":"Force","location":{"latitude":"51.519971","street":{"id":923854,"name":"On or near Hindmans Way"},"longitude":"0.140813"},"context":"","outcome_status":{"category":"Status update unavailable","date":"2019-09"},"persistent_id":"4695b91dca3827443ce0e1a14c81d88b84186df719d9dfb12e6df238b3400c31","id":74326486,"location_subtype":"","month":"2019-05"},{"category":"public-order","location_type":"Force","location":{"latitude":"51.535569","street":{"id":962907,"name":"On or near Studley Road"},"longitude":"0.131149"},"context":"","outcome_status":{"category":"Investigation complete; no suspect identified","date":"2020-03"},"persistent_id":"6a8d9e248869ff4be4aacbac86f7b9df897c4cebc6d7d08eb3d25008ec08f68a","id":74332705,"location_subtype":"","month":"2019-05"},{"category":"public-order","location_type":"Force","location":{"latitude":"51.539997","street":{"id":962947,"name":"On or near Hedgemans Road"},"longitude":"0.144810"},"context":"","outcome_status":{"category":"Status update unavailable","date":"2019-09"},"persistent_id":"4415b5f2e30265564da4bd36e03e9e098e9f39e6a1cbdcc623842fcf0c3abb63","id":74344289,"location_subtype":"","month":"2019-05"},{"category":"public-order","location_type":"Force","location":{"latitude":"51.535569","street":{"id":962907,"name":"On or near Studley Road"},"longitude":"0.131149"},"context":"","outcome_status":{"category":"Status update unavailable","date":"2019-09"},"persistent_id":"c557ea3f1d478c914875999e93d74f0af310c831cbd8ffaf2d254d197d5b8249","id":74356489,"location_subtype":"","month":"2019-05"},{"category":"public-order","location_type":"Force","location":{"latitude":"51.535606","street":{"id":962905,"name":"On or near Thetford Road"},"longitude":"0.132102"},"context":"","outcome_status":{"category":"Status update unavailable","date":"2019-09"},"persistent_id":"86f1c4b3f909b7722cb75648e28b936771a9ac6a3cf339531b095cd4c6b5239e","id":74343986,"location_subtype":"","month":"2019-05"},{"category":"public-order","location_type":"Force","location":{"latitude":"51.537043","street":{"id":962904,"name":"On or near Urswick Gardens"},"longitude":"0.133164"},"context":"","outcome_status":{"category":"Status update unavailable","date":"2019-09"},"persistent_id":"2e73a00fd518efe6354f8b79313ccbb8f9828f16dcd11015f74ed1ea8cca95da","id":74305798,"location_subtype":"","month":"2019-05"},{"category":"robbery","location_type":"Force","location":{"latitude":"51.534114","street":{"id":962821,"name":"On or near School Road"},"longitude":"0.154209"},"context":"","outcome_status":{"category":"Investigation complete; no suspect identified","date":"2020-03"},"persistent_id":"e33064422df93f2f5f5dba2a94adb13a77775ebcbac8bacc9e52dec7d290d3f2","id":74344609,"location_subtype":"","month":"2019-05"},{"category":"robbery","location_type":"Force","location":{"latitude":"51.536462","street":{"id":962973,"name":"On or near Armstead Walk"},"longitude":"0.150239"},"context":"","outcome_status":{"category":"Status update unavailable","date":"2019-09"},"persistent_id":"9028cac77f44175443300f2ef65541f64ea0a2b1e6142f2c14a8c00b3d9ea5fd","id":74322569,"location_subtype":"","month":"2019-05"},{"category":"robbery","location_type":"Force","location":{"latitude":"51.528164","street":{"id":962889,"name":"On or near Oval Road South"},"longitude":"0.159378"},"context":"","outcome_status":{"category":"Status update unavailable","date":"2019-09"},"persistent_id":"7acb66781ea7be285423173a9d843101395e409d24ac1791e0e143a8e9d9e44b","id":74316170,"location_subtype":"","month":"2019-05"},{"category":"robbery","location_type":"Force","location":{"latitude":"51.533385","street":{"id":962970,"name":"On or near Baden Powell Close"},"longitude":"0.137045"},"context":"","outcome_status":{"category":"Investigation complete; no suspect identified","date":"2020-03"},"persistent_id":"b271b7e66c457d0470cc8e62bc6b1bae851f815853cbc611c57a49dd5d303e29","id":74345142,"location_subtype":"","month":"2019-05"},{"category":"robbery","location_type":"Force","location":{"latitude":"51.528164","street":{"id":962889,"name":"On or near Oval Road South"},"longitude":"0.159378"},"context":"","outcome_status":{"category":"Investigation complete; no suspect identified","date":"2020-03"},"persistent_id":"7acb66781ea7be285423173a9d843101395e409d24ac1791e0e143a8e9d9e44b","id":74316171,"location_subtype":"","month":"2019-05"},{"category":"robbery","location_type":"Force","location":{"latitude":"51.537143","street":{"id":962834,"name":"On or near Bluebird Lane"},"longitude":"0.152305"},"context":"","outcome_status":{"category":"Investigation complete; no suspect identified","date":"2020-03"},"persistent_id":"f28caeab2813c254913e3dac5116adf571f38cb434594cee328f17999af8f0bf","id":74331651,"location_subtype":"","month":"2019-05"},{"category":"robbery","location_type":"Force","location":{"latitude":"51.533385","street":{"id":962970,"name":"On or near Baden Powell Close"},"longitude":"0.137045"},"context":"","outcome_status":{"category":"Investigation complete; no suspect identified","date":"2020-03"},"persistent_id":"f58be414c86714246e89ea92804f718b5470e9339b3501d097d302610cf160ab","id":74311502,"location_subtype":"","month":"2019-05"},{"category":"robbery","location_type":"Force","location":{"latitude":"51.538781","street":{"id":962828,"name":"On or near Manning Road"},"longitude":"0.151257"},"context":"","outcome_status":{"category":"Status update unavailable","date":"2019-09"},"persistent_id":"3f239d52a059324c714a1e8398ad73935678802eea6e783f1754d7c5f482161b","id":74328079,"location_subtype":"","month":"2019-05"},{"category":"robbery","location_type":"Force","location":{"latitude":"51.531785","street":{"id":962975,"name":"On or near Sports\/recreation Area"},"longitude":"0.145852"},"context":"","outcome_status":{"category":"Status update unavailable","date":"2019-09"},"persistent_id":"2101b6d993649515704331d88ff47ca8051c3c070751997f9f70d021057e4054","id":74364749,"location_subtype":"","month":"2019-05"},{"category":"robbery","location_type":"Force","location":{"latitude":"51.537512","street":{"id":962953,"name":"On or near Ford Road"},"longitude":"0.148904"},"context":"","outcome_status":{"category":"Status update unavailable","date":"2019-09"},"persistent_id":"91dc590328aab4ec504bb4ca753fb9ae0abf34bcee8aec2b1ad377c52e14cc49","id":74329906,"location_subtype":"","month":"2019-05"},{"category":"robbery","location_type":"Force","location":{"latitude":"51.531176","street":{"id":962820,"name":"On or near South Close"},"longitude":"0.151619"},"context":"","outcome_status":{"category":"Investigation complete; no suspect identified","date":"2020-04"},"persistent_id":"4b6d657802edf3e2cb3b69ce518257c549ee46898b65b773eb38959dc58b1ba1","id":74333454,"location_subtype":"","month":"2019-05"},{"category":"robbery","location_type":"Force","location":{"latitude":"51.531063","street":{"id":962862,"name":"On or near Crosby Road"},"longitude":"0.156776"},"context":"","outcome_status":{"category":"Investigation complete; no suspect identified","date":"2020-04"},"persistent_id":"17c727189cf29be352cadfc7d1505886ae8d824ba3116f0bdeed21e9fff91552","id":74292485,"location_subtype":"","month":"2019-05"},{"category":"robbery","location_type":"Force","location":{"latitude":"51.538781","street":{"id":962828,"name":"On or near Manning Road"},"longitude":"0.151257"},"context":"","outcome_status":{"category":"Status update unavailable","date":"2019-09"},"persistent_id":"76fac362583720a0fccd7bb0025a44af2641fe43f4919f4f98edef469508468a","id":74294888,"location_subtype":"","month":"2019-05"},{"category":"robbery","location_type":"Force","location":{"latitude":"51.536383","street":{"id":962948,"name":"On or near Heathway"},"longitude":"0.148173"},"context":"","outcome_status":{"category":"Investigation complete; no suspect identified","date":"2020-03"},"persistent_id":"9e54741c947d7c3c06cf05419391f6809b2db87dd475a3b34bbe9bf87ed9b881","id":74359006,"location_subtype":"","month":"2019-05"},{"category":"robbery","location_type":"Force","location":{"latitude":"51.531785","street":{"id":962975,"name":"On or near Sports\/recreation Area"},"longitude":"0.145852"},"context":"","outcome_status":{"category":"Investigation complete; no suspect identified","date":"2020-06"},"persistent_id":"099950cf77926b41e409331e8192b2f533e6cb6ecc61578ff306403997014935","id":74330180,"location_subtype":"","month":"2019-05"},{"category":"shoplifting","location_type":"Force","location":{"latitude":"51.529975","street":{"id":962976,"name":"On or near Supermarket"},"longitude":"0.142061"},"context":"","outcome_status":{"category":"Status update unavailable","date":"2019-09"},"persistent_id":"98b131d132d5e1e0490d6f9749a3a84b3e204ba2d6fd780b99196676efcff13d","id":74331303,"location_subtype":"","month":"2019-05"},{"category":"shoplifting","location_type":"Force","location":{"latitude":"51.529975","street":{"id":962976,"name":"On or near Supermarket"},"longitude":"0.142061"},"context":"","outcome_status":{"category":"Status update unavailable","date":"2019-09"},"persistent_id":"9f5d9fe70e4d5049c1362d809a03ffbef8d429491e0f522ee77b7644b4814a9c","id":74291451,"location_subtype":"","month":"2019-05"},{"category":"shoplifting","location_type":"Force","location":{"latitude":"51.532992","street":{"id":962949,"name":"On or near Heathway"},"longitude":"0.148201"},"context":"","outcome_status":{"category":"Status update unavailable","date":"2019-09"},"persistent_id":"071b5343b6e7b18bf43f87c7fb8a2852cc3c1ad582a8f020d8e37d143c9e57b7","id":74297104,"location_subtype":"","month":"2019-05"},{"category":"shoplifting","location_type":"Force","location":{"latitude":"51.530192","street":{"id":962974,"name":"On or near Petrol Station"},"longitude":"0.143946"},"context":"","outcome_status":{"category":"Status update unavailable","date":"2019-09"},"persistent_id":"ecf34d62a525cf18b563491d4e38d1ce3b1f54ed6d64234b98c3a83410883be1","id":74332598,"location_subtype":"","month":"2019-05"},{"category":"shoplifting","location_type":"Force","location":{"latitude":"51.531785","street":{"id":962975,"name":"On or near Sports\/recreation Area"},"longitude":"0.145852"},"context":"","outcome_status":{"category":"Status update unavailable","date":"2019-09"},"persistent_id":"b88659fec34eacd6c18be866684b8cecbc940c3dc54cd172529b56635f2ac0d4","id":74329957,"location_subtype":"","month":"2019-05"},{"category":"shoplifting","location_type":"Force","location":{"latitude":"51.529975","street":{"id":962976,"name":"On or near Supermarket"},"longitude":"0.142061"},"context":"","outcome_status":{"category":"Investigation complete; no suspect identified","date":"2020-03"},"persistent_id":"4080408aa6ad6e05c5a1f0efb29600ea20956b0b6d68167d100c54c53e71259b","id":74334909,"location_subtype":"","month":"2019-05"},{"category":"shoplifting","location_type":"Force","location":{"latitude":"51.529975","street":{"id":962976,"name":"On or near Supermarket"},"longitude":"0.142061"},"context":"","outcome_status":{"category":"Court result unavailable","date":"2020-03"},"persistent_id":"fc479cb8e2290da787963fcd445c1c8091596c05c0eb6cf1d8ad55afd47e43e9","id":74344948,"location_subtype":"","month":"2019-05"},{"category":"shoplifting","location_type":"Force","location":{"latitude":"51.530192","street":{"id":962974,"name":"On or near Petrol Station"},"longitude":"0.143946"},"context":"","outcome_status":{"category":"Status update unavailable","date":"2019-09"},"persistent_id":"2cc8c146340f38776ed5449db2391454a6573fa3c47f9511055f71b725645fd7","id":74322198,"location_subtype":"","month":"2019-05"},{"category":"shoplifting","location_type":"Force","location":{"latitude":"51.530192","street":{"id":962974,"name":"On or near Petrol Station"},"longitude":"0.143946"},"context":"","outcome_status":{"category":"Status update unavailable","date":"2019-09"},"persistent_id":"e8b8fe39eca9bf5d1df7f50b561b41a615ea3fd1d69de148b58d5aea074f92e1","id":74361000,"location_subtype":"","month":"2019-05"},{"category":"shoplifting","location_type":"Force","location":{"latitude":"51.530192","street":{"id":962974,"name":"On or near Petrol Station"},"longitude":"0.143946"},"context":"","outcome_status":{"category":"Investigation complete; no suspect identified","date":"2020-03"},"persistent_id":"39013086d7aa6dbb806e3c69f02ab1ce9e9f45b630a4384206fe32ac19e5dfb9","id":74304055,"location_subtype":"","month":"2019-05"},{"category":"theft-from-the-person","location_type":"Force","location":{"latitude":"51.539007","street":{"id":962960,"name":"On or near Dagenham Avenue"},"longitude":"0.145788"},"context":"","outcome_status":{"category":"Status update unavailable","date":"2019-09"},"persistent_id":"03bf1271c8ffd8d73c7793e5605f523b5d4b1cde64fb185ff08f01a0a0401ebc","id":74326620,"location_subtype":"","month":"2019-05"},{"category":"theft-from-the-person","location_type":"Force","location":{"latitude":"51.527228","street":{"id":962887,"name":"On or near South Street"},"longitude":"0.168229"},"context":"","outcome_status":{"category":"Status update unavailable","date":"2019-09"},"persistent_id":"5d3c9bfe13f905cfba46038e3aed1b9ea43ad3df77ff6449414b87ba1a6f9def","id":74357664,"location_subtype":"","month":"2019-05"},{"category":"theft-from-the-person","location_type":"Force","location":{"latitude":"51.539007","street":{"id":962960,"name":"On or near Dagenham Avenue"},"longitude":"0.145788"},"context":"","outcome_status":{"category":"Status update unavailable","date":"2019-09"},"persistent_id":"60a08955bfac00317a3573aa03410cb5783f2f8cd56610f6db8a66a11d189b80","id":74343826,"location_subtype":"","month":"2019-05"},{"category":"theft-from-the-person","location_type":"Force","location":{"latitude":"51.539109","street":{"id":962819,"name":"On or near Vicarage Road"},"longitude":"0.155469"},"context":"","outcome_status":{"category":"Investigation complete; no suspect identified","date":"2020-03"},"persistent_id":"c9a6c698c5bca7fe99566c78070390b5645baca7b83a5b0818ed6d7c9b13902e","id":74293365,"location_subtype":"","month":"2019-05"},{"category":"theft-from-the-person","location_type":"Force","location":{"latitude":"51.531176","street":{"id":962820,"name":"On or near South Close"},"longitude":"0.151619"},"context":"","outcome_status":{"category":"Investigation complete; no suspect identified","date":"2020-03"},"persistent_id":"83af10f2d558d6a6609cf8731d6179963c318838e721e993249f614518a7f08d","id":74304270,"location_subtype":"","month":"2019-05"},{"category":"vehicle-crime","location_type":"Force","location":{"latitude":"51.519971","street":{"id":923854,"name":"On or near Hindmans Way"},"longitude":"0.140813"},"context":"","outcome_status":{"category":"Status update unavailable","date":"2019-09"},"persistent_id":"86ae6f138c855d991087a9cdb3f936de8970921395e00dd9d2b8268aa074731e","id":74364471,"location_subtype":"","month":"2019-05"},{"category":"vehicle-crime","location_type":"Force","location":{"latitude":"51.533476","street":{"id":962952,"name":"On or near Goresbrook Road"},"longitude":"0.140928"},"context":"","outcome_status":{"category":"Status update unavailable","date":"2019-09"},"persistent_id":"aa6c013855ab3401f1fa233a9c2fb844773ffc0c87b638087f228f8620c65445","id":74313237,"location_subtype":"","month":"2019-05"},{"category":"vehicle-crime","location_type":"Force","location":{"latitude":"51.526474","street":{"id":962567,"name":"On or near Mardyke Close"},"longitude":"0.166218"},"context":"","outcome_status":{"category":"Status update unavailable","date":"2019-09"},"persistent_id":"ffc5370b710ef6546e7722d5f2b6435c445ad8c2c054fe22de36e0de6d2d1c4a","id":74303573,"location_subtype":"","month":"2019-05"},{"category":"vehicle-crime","location_type":"Force","location":{"latitude":"51.533385","street":{"id":962970,"name":"On or near Baden Powell Close"},"longitude":"0.137045"},"context":"","outcome_status":{"category":"Status update unavailable","date":"2019-09"},"persistent_id":"2fb28e649726bfad7da9fe80f00793d2e50737a6596078e5a47cc676f0f4fdfb","id":74335134,"location_subtype":"","month":"2019-05"},{"category":"vehicle-crime","location_type":"Force","location":{"latitude":"51.534975","street":{"id":962916,"name":"On or near Elstow Road"},"longitude":"0.134639"},"context":"","outcome_status":{"category":"Investigation complete; no suspect identified","date":"2020-03"},"persistent_id":"0d09e44f921c09eb18ca671fef153962bd49ce68776b846f3de284f16275d8b5","id":74347478,"location_subtype":"","month":"2019-05"},{"category":"vehicle-crime","location_type":"Force","location":{"latitude":"51.529975","street":{"id":962976,"name":"On or near Supermarket"},"longitude":"0.142061"},"context":"","outcome_status":{"category":"Status update unavailable","date":"2019-09"},"persistent_id":"245242a9d72e1c7b453e870cb1eb1b58c11de8aa949de30d5519e5a67aedb2e3","id":74297563,"location_subtype":"","month":"2019-05"},{"category":"vehicle-crime","location_type":"Force","location":{"latitude":"51.519971","street":{"id":923854,"name":"On or near Hindmans Way"},"longitude":"0.140813"},"context":"","outcome_status":{"category":"Status update unavailable","date":"2019-09"},"persistent_id":"d0c44b0e3a432efcd76b5b12da8608a04e1f4bba1c60b31cd1d601ce0e7c0eeb","id":74366742,"location_subtype":"","month":"2019-05"},{"category":"vehicle-crime","location_type":"Force","location":{"latitude":"51.535567","street":{"id":962959,"name":"On or near Dagenham Avenue"},"longitude":"0.139166"},"context":"","outcome_status":{"category":"Status update unavailable","date":"2019-09"},"persistent_id":"533a392c52776d4ea083b55b40781b8d7bfabe4b9214c1cb4b76f96cf477369f","id":74296399,"location_subtype":"","month":"2019-05"},{"category":"vehicle-crime","location_type":"Force","location":{"latitude":"51.531839","street":{"id":962920,"name":"On or near Pedestrian Subway"},"longitude":"0.148320"},"context":"","outcome_status":{"category":"Status update unavailable","date":"2019-09"},"persistent_id":"0cb012f32a53cd33d47f885d06da53bf45bee97c61fc1d4a74ee3c9d4e26a51f","id":74333865,"location_subtype":"","month":"2019-05"},{"category":"vehicle-crime","location_type":"Force","location":{"latitude":"51.529975","street":{"id":962976,"name":"On or near Supermarket"},"longitude":"0.142061"},"context":"","outcome_status":{"category":"Status update unavailable","date":"2019-09"},"persistent_id":"c65bba4903aeea4e36775ce71b7e47a75072b34e803a8849c29273712a62e5e7","id":74306700,"location_subtype":"","month":"2019-05"},{"category":"vehicle-crime","location_type":"Force","location":{"latitude":"51.528551","street":{"id":962892,"name":"On or near Lower Mardyke Avenue"},"longitude":"0.167701"},"context":"","outcome_status":{"category":"Status update unavailable","date":"2019-09"},"persistent_id":"f258672bfe5092e9ea3af392a2d31655bb824931d1e5a3f8341690ee1d0c6123","id":74321254,"location_subtype":"","month":"2019-05"},{"category":"vehicle-crime","location_type":"Force","location":{"latitude":"51.531839","street":{"id":962920,"name":"On or near Pedestrian Subway"},"longitude":"0.148320"},"context":"","outcome_status":{"category":"Status update unavailable","date":"2019-09"},"persistent_id":"5cc8c0861d0c9e1553e53a829a7d403db881f8511f5e38c8fee486fc0a553a96","id":74295551,"location_subtype":"","month":"2019-05"},{"category":"vehicle-crime","location_type":"Force","location":{"latitude":"51.540217","street":{"id":962965,"name":"On or near Church Elm Lane"},"longitude":"0.150431"},"context":"","outcome_status":{"category":"Status update unavailable","date":"2019-09"},"persistent_id":"ab6d7fe42ee773fe34f46f7bc63149d84ea7d1eb5ec57be3c85be1598429eaef","id":74306307,"location_subtype":"","month":"2019-05"},{"category":"vehicle-crime","location_type":"Force","location":{"latitude":"51.530192","street":{"id":962974,"name":"On or near Petrol Station"},"longitude":"0.143946"},"context":"","outcome_status":{"category":"Status update unavailable","date":"2019-09"},"persistent_id":"a887f29c012fee7e07a97ab81b28d8f69271bbb06d7d5a560b195315b8718baa","id":74324663,"location_subtype":"","month":"2019-05"},{"category":"vehicle-crime","location_type":"Force","location":{"latitude":"51.538203","street":{"id":962919,"name":"On or near Cartwright Road"},"longitude":"0.141106"},"context":"","outcome_status":{"category":"Status update unavailable","date":"2019-09"},"persistent_id":"a3201dad9efed5c6f088db2fab345a4e19b894c9720bfd67958770e997e5062d","id":74330325,"location_subtype":"","month":"2019-05"},{"category":"vehicle-crime","location_type":"Force","location":{"latitude":"51.531839","street":{"id":962920,"name":"On or near Pedestrian Subway"},"longitude":"0.148320"},"context":"","outcome_status":{"category":"Status update unavailable","date":"2019-09"},"persistent_id":"33f30adbe63f5ca4834bd443c34af4f7cb2dd36ed6d98fdbdf71a517d48e2d02","id":74291237,"location_subtype":"","month":"2019-05"},{"category":"vehicle-crime","location_type":"Force","location":{"latitude":"51.531330","street":{"id":962822,"name":"On or near Review Road"},"longitude":"0.154481"},"context":"","outcome_status":{"category":"Status update unavailable","date":"2019-09"},"persistent_id":"1b928e3c7261cbfdbc641f72a97e648a4ece672924149166d4078f806fdeaa52","id":74312204,"location_subtype":"","month":"2019-05"},{"category":"vehicle-crime","location_type":"Force","location":{"latitude":"51.539007","street":{"id":962960,"name":"On or near Dagenham Avenue"},"longitude":"0.145788"},"context":"","outcome_status":{"category":"Status update unavailable","date":"2019-09"},"persistent_id":"b5650420275700017a3d0f2b04e36827281ad9b4c97451ae856e9a2f9cc9c9f7","id":74305382,"location_subtype":"","month":"2019-05"},{"category":"vehicle-crime","location_type":"Force","location":{"latitude":"51.537806","street":{"id":962913,"name":"On or near Lullington Road"},"longitude":"0.134729"},"context":"","outcome_status":{"category":"Status update unavailable","date":"2019-09"},"persistent_id":"86f2bb5e49282d9a47930793a3ce3a428632ce3c4e622f92d918ee668629a310","id":74313568,"location_subtype":"","month":"2019-05"},{"category":"vehicle-crime","location_type":"Force","location":{"latitude":"51.528164","street":{"id":962889,"name":"On or near Oval Road South"},"longitude":"0.159378"},"context":"","outcome_status":{"category":"Status update unavailable","date":"2019-09"},"persistent_id":"6c3f8a21da0ed70124fdf4f1e6385adafb6cd2772f61ee4519267ff52f50d3ef","id":74323060,"location_subtype":"","month":"2019-05"},{"category":"vehicle-crime","location_type":"Force","location":{"latitude":"51.535066","street":{"id":962839,"name":"On or near Hospital"},"longitude":"0.152307"},"context":"","outcome_status":{"category":"Status update unavailable","date":"2019-09"},"persistent_id":"cd94bd360cf849eb4140f271c68d7efd636ce6eaedfe318ea8eaf5600362d9e8","id":74304793,"location_subtype":"","month":"2019-05"},{"category":"vehicle-crime","location_type":"Force","location":{"latitude":"51.530192","street":{"id":962974,"name":"On or near Petrol Station"},"longitude":"0.143946"},"context":"","outcome_status":{"category":"Status update unavailable","date":"2019-09"},"persistent_id":"d4c140f33ab26e0c703f729f8b6df4fc745590a5bcd64f6d29c360a988d655ba","id":74348827,"location_subtype":"","month":"2019-05"},{"category":"vehicle-crime","location_type":"Force","location":{"latitude":"51.527345","street":{"id":962890,"name":"On or near East Entrance"},"longitude":"0.160896"},"context":"","outcome_status":{"category":"Status update unavailable","date":"2019-09"},"persistent_id":"1c0e86aa94aab0405238c1ea6d13a726b458a42084e3249ebd4a1d55aa904cc1","id":74313483,"location_subtype":"","month":"2019-05"},{"category":"vehicle-crime","location_type":"Force","location":{"latitude":"51.516495","street":{"id":962562,"name":"On or near Perry Road"},"longitude":"0.145969"},"context":"","outcome_status":{"category":"Local resolution","date":"2019-08"},"persistent_id":"0b82d87b42eacd10c389e8f76915c2b864731efccfe8f646284fc2641db37ffa","id":74322732,"location_subtype":"","month":"2019-05"},{"category":"vehicle-crime","location_type":"Force","location":{"latitude":"51.533385","street":{"id":962970,"name":"On or near Baden Powell Close"},"longitude":"0.137045"},"context":"","outcome_status":{"category":"Status update unavailable","date":"2019-09"},"persistent_id":"f07387ba7eb75f8ef868b49c1c6562570029edac6be13af64e0b9b706fbebecc","id":74338518,"location_subtype":"","month":"2019-05"},{"category":"vehicle-crime","location_type":"Force","location":{"latitude":"51.531350","street":{"id":962935,"name":"On or near New Road"},"longitude":"0.149955"},"context":"","outcome_status":{"category":"Status update unavailable","date":"2019-09"},"persistent_id":"32a2b38caf9348f53243008d7792b3d890a87d390256947f08f3e27ae8d3eb13","id":74290690,"location_subtype":"","month":"2019-05"},{"category":"vehicle-crime","location_type":"Force","location":{"latitude":"51.531839","street":{"id":962920,"name":"On or near Pedestrian Subway"},"longitude":"0.148320"},"context":"","outcome_status":{"category":"Status update unavailable","date":"2019-09"},"persistent_id":"6e9c35d9143f1cfbc47cd1fff459449608aabe707763e5b10cc5b7789505df13","id":74333155,"location_subtype":"","month":"2019-05"},{"category":"vehicle-crime","location_type":"Force","location":{"latitude":"51.538144","street":{"id":962951,"name":"On or near Hatfield Road"},"longitude":"0.137902"},"context":"","outcome_status":{"category":"Court case unable to proceed","date":"2019-05"},"persistent_id":"f014be920b2b68572c124b0de3755bfdd01141307f666cb218bb6ced235bf836","id":74344284,"location_subtype":"","month":"2019-05"},{"category":"vehicle-crime","location_type":"Force","location":{"latitude":"51.531176","street":{"id":962820,"name":"On or near South Close"},"longitude":"0.151619"},"context":"","outcome_status":{"category":"Status update unavailable","date":"2019-09"},"persistent_id":"65422a3ff0ac6f294118ac48c4fe9d872aa73c3a0207369b1e1cbdcd968c58d8","id":74333738,"location_subtype":"","month":"2019-05"},{"category":"vehicle-crime","location_type":"Force","location":{"latitude":"51.533414","street":{"id":962878,"name":"On or near Ballards Close"},"longitude":"0.157565"},"context":"","outcome_status":{"category":"Status update unavailable","date":"2019-09"},"persistent_id":"4ffea12d19494c5836d6387eae376640e6eec2ab8c4a26d0b9771f61e2dcb8fa","id":74322711,"location_subtype":"","month":"2019-05"},{"category":"vehicle-crime","location_type":"Force","location":{"latitude":"51.527345","street":{"id":962890,"name":"On or near East Entrance"},"longitude":"0.160896"},"context":"","outcome_status":{"category":"Status update unavailable","date":"2019-09"},"persistent_id":"604cbd5f371b58372cdf81fe74ba7936b68a4496213db0536b81b687be5d2140","id":74344806,"location_subtype":"","month":"2019-05"},{"category":"vehicle-crime","location_type":"Force","location":{"latitude":"51.529975","street":{"id":962976,"name":"On or near Supermarket"},"longitude":"0.142061"},"context":"","outcome_status":{"category":"Status update unavailable","date":"2019-09"},"persistent_id":"3944b42794e4cdcd1a2b92886a57d9cb70e3207caa14d86ec98d4719b5cffcb4","id":74340114,"location_subtype":"","month":"2019-05"},{"category":"vehicle-crime","location_type":"Force","location":{"latitude":"51.527712","street":{"id":962980,"name":"On or near Choats Manor Way"},"longitude":"0.142388"},"context":"","outcome_status":{"category":"Status update unavailable","date":"2019-09"},"persistent_id":"2354281f159e228362cfa9199d20bf7bb601b8801b432a175ea7188a39436ae4","id":74340537,"location_subtype":"","month":"2019-05"},{"category":"violent-crime","location_type":"Force","location":{"latitude":"51.532992","street":{"id":962949,"name":"On or near Heathway"},"longitude":"0.148201"},"context":"","outcome_status":{"category":"Offender given community sentence","date":"2019-05"},"persistent_id":"071b5343b6e7b18bf43f87c7fb8a2852cc3c1ad582a8f020d8e37d143c9e57b7","id":74297219,"location_subtype":"","month":"2019-05"},{"category":"violent-crime","location_type":"Force","location":{"latitude":"51.537806","street":{"id":962913,"name":"On or near Lullington Road"},"longitude":"0.134729"},"context":"","outcome_status":{"category":"Court result unavailable","date":"2019-11"},"persistent_id":"77928dc4d2b89afdab2a8e9e89472b0a002784f4d622cd4d6980254a041850a6","id":74331932,"location_subtype":"","month":"2019-05"},{"category":"violent-crime","location_type":"Force","location":{"latitude":"51.539652","street":{"id":962925,"name":"On or near Talbot Road"},"longitude":"0.144001"},"context":"","outcome_status":{"category":"Status update unavailable","date":"2019-09"},"persistent_id":"ae668eb97cc7e8c757f12dc13815ab2398495bb6adcc50ce35152586c1c7eedd","id":74360176,"location_subtype":"","month":"2019-05"},{"category":"violent-crime","location_type":"Force","location":{"latitude":"51.537143","street":{"id":962834,"name":"On or near Bluebird Lane"},"longitude":"0.152305"},"context":"","outcome_status":{"category":"Investigation complete; no suspect identified","date":"2020-04"},"persistent_id":"b0f3554e8fe3fa0995758a10f1fd9d7f17b4e8cd753db03b260bbc3c87a48193","id":74306634,"location_subtype":"","month":"2019-05"},{"category":"violent-crime","location_type":"Force","location":{"latitude":"51.535569","street":{"id":962907,"name":"On or near Studley Road"},"longitude":"0.131149"},"context":"","outcome_status":{"category":"Status update unavailable","date":"2019-09"},"persistent_id":"beae91212a60e0ffa456d6aa4769640e5a064646df609ee0da710aa08c55fe03","id":74321906,"location_subtype":"","month":"2019-05"},{"category":"violent-crime","location_type":"Force","location":{"latitude":"51.533414","street":{"id":962878,"name":"On or near Ballards Close"},"longitude":"0.157565"},"context":"","outcome_status":{"category":"Status update unavailable","date":"2019-09"},"persistent_id":"6c9abd98474443ba6f46138069f481e460ec6481611af5e87b4012105557a706","id":74320833,"location_subtype":"","month":"2019-05"},{"category":"violent-crime","location_type":"Force","location":{"latitude":"51.531063","street":{"id":962862,"name":"On or near Crosby Road"},"longitude":"0.156776"},"context":"","outcome_status":{"category":"Status update unavailable","date":"2019-09"},"persistent_id":"b1f2170da8fc5c4ae6bff06d141420d41d5e852f3fc5ca49550223fa88431902","id":74363951,"location_subtype":"","month":"2019-05"},{"category":"violent-crime","location_type":"Force","location":{"latitude":"51.538754","street":{"id":962826,"name":"On or near Moss Road"},"longitude":"0.153736"},"context":"","outcome_status":{"category":"Status update unavailable","date":"2019-09"},"persistent_id":"accc91d298090c255722f485b769876ea8b4926be92c12646f32775e3cec9f74","id":74344553,"location_subtype":"","month":"2019-05"},{"category":"violent-crime","location_type":"Force","location":{"latitude":"51.534818","street":{"id":962930,"name":"On or near Ron Todd Close"},"longitude":"0.149167"},"context":"","outcome_status":{"category":"Offender given a caution","date":"2019-05"},"persistent_id":"7e46e3486876d4b3aba6e2880025b43f7cf8f13ef79d24d8fbaeb7f19427c453","id":74348142,"location_subtype":"","month":"2019-05"},{"category":"violent-crime","location_type":"Force","location":{"latitude":"51.536770","street":{"id":962964,"name":"On or near Comyns Road"},"longitude":"0.147182"},"context":"","outcome_status":{"category":"Court result unavailable","date":"2019-11"},"persistent_id":"0257390c74fd9a03b4306e7b0e31cd0353a2631aa72601ce69eb50d051050198","id":74297125,"location_subtype":"","month":"2019-05"},{"category":"violent-crime","location_type":"Force","location":{"latitude":"51.539007","street":{"id":962960,"name":"On or near Dagenham Avenue"},"longitude":"0.145788"},"context":"","outcome_status":{"category":"Investigation complete; no suspect identified","date":"2020-03"},"persistent_id":"f734ba2ad246badeea33243bb4a727453c0d25764c6ebc64f27b9c5fdd271d51","id":74344055,"location_subtype":"","month":"2019-05"},{"category":"violent-crime","location_type":"Force","location":{"latitude":"51.535627","street":{"id":963026,"name":"On or near Langley Crescent"},"longitude":"0.127489"},"context":"","outcome_status":{"category":"Status update unavailable","date":"2019-09"},"persistent_id":"9497cd641ba22c8987db1c99f4f34a554adce9021717949350cdd688c0cb0b67","id":74326653,"location_subtype":"","month":"2019-05"},{"category":"violent-crime","location_type":"Force","location":{"latitude":"51.531939","street":{"id":962967,"name":"On or near Butteridges Close"},"longitude":"0.142831"},"context":"","outcome_status":{"category":"Investigation complete; no suspect identified","date":"2020-03"},"persistent_id":"071cc59b4299458053ffd7691330e06836bf0c53fc67b11a9b866b4f1a10350f","id":74327028,"location_subtype":"","month":"2019-05"},{"category":"violent-crime","location_type":"Force","location":{"latitude":"51.531063","street":{"id":962862,"name":"On or near Crosby Road"},"longitude":"0.156776"},"context":"","outcome_status":{"category":"Investigation complete; no suspect identified","date":"2020-03"},"persistent_id":"b8e7da8a319bdff1f757fd29967869be656c9627500ab2e71864567767fa7d47","id":74335052,"location_subtype":"","month":"2019-05"},{"category":"violent-crime","location_type":"Force","location":{"latitude":"51.516495","street":{"id":962562,"name":"On or near Perry Road"},"longitude":"0.145969"},"context":"","outcome_status":{"category":"Investigation complete; no suspect identified","date":"2020-03"},"persistent_id":"a3e41ebb40b222e81a60e3528dd85bdd2804b2695eda4fe734b1f43712858155","id":74322344,"location_subtype":"","month":"2019-05"},{"category":"violent-crime","location_type":"Force","location":{"latitude":"51.529975","street":{"id":962976,"name":"On or near Supermarket"},"longitude":"0.142061"},"context":"","outcome_status":{"category":"Investigation complete; no suspect identified","date":"2020-03"},"persistent_id":"7864f6361b180b85cd05531f0e8976cb0a31afbfe2d346975a76ed75ff3c2893","id":74313098,"location_subtype":"","month":"2019-05"},{"category":"violent-crime","location_type":"Force","location":{"latitude":"51.532061","street":{"id":923848,"name":"On or near Oval Road North"},"longitude":"0.160226"},"context":"","outcome_status":{"category":"Investigation complete; no suspect identified","date":"2020-03"},"persistent_id":"782ca39890c47d8264ac40d88b1f86bc9834925007476632ac116a9e4361b41e","id":74318614,"location_subtype":"","month":"2019-05"},{"category":"violent-crime","location_type":"Force","location":{"latitude":"51.533414","street":{"id":962878,"name":"On or near Ballards Close"},"longitude":"0.157565"},"context":"","outcome_status":{"category":"Investigation complete; no suspect identified","date":"2020-03"},"persistent_id":"47afffb8a0a23ad752d15a4daa501b8be5c2817966dc3113b75769c97271f409","id":74291752,"location_subtype":"","month":"2019-05"},{"category":"violent-crime","location_type":"Force","location":{"latitude":"51.539007","street":{"id":962960,"name":"On or near Dagenham Avenue"},"longitude":"0.145788"},"context":"","outcome_status":{"category":"Investigation complete; no suspect identified","date":"2020-03"},"persistent_id":"41e648101b9c3b842f952fd7263556e27fffbd4c7dfbff2404e56e9378733674","id":74297444,"location_subtype":"","month":"2019-05"},{"category":"violent-crime","location_type":"Force","location":{"latitude":"51.531350","street":{"id":962935,"name":"On or near New Road"},"longitude":"0.149955"},"context":"","outcome_status":{"category":"Investigation complete; no suspect identified","date":"2020-03"},"persistent_id":"47333849de4ffa35e541ac71f18af2cdb4ec83d07c80f59073a92eb9000d8b69","id":74316374,"location_subtype":"","month":"2019-05"},{"category":"violent-crime","location_type":"Force","location":{"latitude":"51.533385","street":{"id":962970,"name":"On or near Baden Powell Close"},"longitude":"0.137045"},"context":"","outcome_status":{"category":"Investigation complete; no suspect identified","date":"2020-03"},"persistent_id":"9ed083acc8a55e0c006429319424c9460e1da733e3b20249c1e3be19a0b4c776","id":74329728,"location_subtype":"","month":"2019-05"},{"category":"violent-crime","location_type":"Force","location":{"latitude":"51.534914","street":{"id":962835,"name":"On or near Sports\/recreation Area"},"longitude":"0.153223"},"context":"","outcome_status":{"category":"Investigation complete; no suspect identified","date":"2020-03"},"persistent_id":"bc9f48144c0c2c05d986964c222a616516e629a6546fdd3910fd1a57635688bb","id":74363037,"location_subtype":"","month":"2019-05"},{"category":"violent-crime","location_type":"Force","location":{"latitude":"51.532992","street":{"id":962949,"name":"On or near Heathway"},"longitude":"0.148201"},"context":"","outcome_status":{"category":"Status update unavailable","date":"2019-09"},"persistent_id":"071b5343b6e7b18bf43f87c7fb8a2852cc3c1ad582a8f020d8e37d143c9e57b7","id":74297218,"location_subtype":"","month":"2019-05"},{"category":"violent-crime","location_type":"Force","location":{"latitude":"51.530769","street":{"id":962876,"name":"On or near Beam Avenue"},"longitude":"0.161015"},"context":"","outcome_status":{"category":"Investigation complete; no suspect identified","date":"2020-03"},"persistent_id":"981f8fa5ceef47b5890c1e3c7a8b3ad2da09cbb2a0875b6a45d5706a56415410","id":74311402,"location_subtype":"","month":"2019-05"},{"category":"violent-crime","location_type":"Force","location":{"latitude":"51.535448","street":{"id":962972,"name":"On or near Arnold Road"},"longitude":"0.147178"},"context":"","outcome_status":{"category":"Status update unavailable","date":"2019-09"},"persistent_id":"ecc7b1d54641ce47551fb844bec4d1d60f0107e273dffdc29103ae311c4e4873","id":74332176,"location_subtype":"","month":"2019-05"},{"category":"violent-crime","location_type":"Force","location":{"latitude":"51.531785","street":{"id":962975,"name":"On or near Sports\/recreation Area"},"longitude":"0.145852"},"context":"","outcome_status":{"category":"Investigation complete; no suspect identified","date":"2020-03"},"persistent_id":"0acc4399fc7017d04af19706a5f7e0c48b873752fdaa1ed9067a84fa4e48bf02","id":74327021,"location_subtype":"","month":"2019-05"},{"category":"violent-crime","location_type":"Force","location":{"latitude":"51.534914","street":{"id":962835,"name":"On or near Sports\/recreation Area"},"longitude":"0.153223"},"context":"","outcome_status":{"category":"Investigation complete; no suspect identified","date":"2020-03"},"persistent_id":"39a05bb8d9da7a1cb299e1bcb510be337a4c22243c0783c298fa7ba745278b8f","id":74319036,"location_subtype":"","month":"2019-05"},{"category":"violent-crime","location_type":"Force","location":{"latitude":"51.536770","street":{"id":962964,"name":"On or near Comyns Road"},"longitude":"0.147182"},"context":"","outcome_status":{"category":"Investigation complete; no suspect identified","date":"2020-03"},"persistent_id":"e2127363c135f15fc58dfa65d6e20c1978884bd213cdd7d836da19d783b47a8d","id":74318664,"location_subtype":"","month":"2019-05"},{"category":"violent-crime","location_type":"Force","location":{"latitude":"51.539324","street":{"id":962943,"name":"On or near Langhorne Road"},"longitude":"0.150576"},"context":"","outcome_status":{"category":"Status update unavailable","date":"2019-09"},"persistent_id":"d28fbc3e79b46b4ca80cc4333aff68e593f32af0dcadc951d7c0f665c264aa4a","id":74315659,"location_subtype":"","month":"2019-05"},{"category":"violent-crime","location_type":"Force","location":{"latitude":"51.533476","street":{"id":962952,"name":"On or near Goresbrook Road"},"longitude":"0.140928"},"context":"","outcome_status":{"category":"Investigation complete; no suspect identified","date":"2020-04"},"persistent_id":"f38ff930e8983e72c9c0f08e231161dba063bbde439abca2ef87557f2c0d6f98","id":74328238,"location_subtype":"","month":"2019-05"},{"category":"violent-crime","location_type":"Force","location":{"latitude":"51.540213","street":{"id":962940,"name":"On or near Manning Road"},"longitude":"0.150647"},"context":"","outcome_status":{"category":"Investigation complete; no suspect identified","date":"2020-03"},"persistent_id":"777ddd4a1f4ddd19d61e1a4fed1b5889d4b1c1847711e86bf42779fdafbd36bc","id":74315252,"location_subtype":"","month":"2019-05"},{"category":"violent-crime","location_type":"Force","location":{"latitude":"51.531176","street":{"id":962820,"name":"On or near South Close"},"longitude":"0.151619"},"context":"","outcome_status":{"category":"Status update unavailable","date":"2019-09"},"persistent_id":"20d018d56a981be2ae2c19a3a8506ad762af964adade6f720937daa7cce000bb","id":74314353,"location_subtype":"","month":"2019-05"},{"category":"violent-crime","location_type":"Force","location":{"latitude":"51.532610","street":{"id":962900,"name":"On or near Parking Area"},"longitude":"0.132683"},"context":"","outcome_status":{"category":"Status update unavailable","date":"2019-09"},"persistent_id":"e4a803c6ff0c55c3faf7a4997519fb4298d1f723f97c4796f94857b3222ced06","id":74310522,"location_subtype":"","month":"2019-05"},{"category":"violent-crime","location_type":"Force","location":{"latitude":"51.539652","street":{"id":962942,"name":"On or near Lloyd Road"},"longitude":"0.145962"},"context":"","outcome_status":{"category":"Status update unavailable","date":"2019-09"},"persistent_id":"62bbebee1b9708d88cfe4785c6ac4f43002bbf4651fbeb3ae86becfa2003edb6","id":74325463,"location_subtype":"","month":"2019-05"},{"category":"violent-crime","location_type":"Force","location":{"latitude":"51.533414","street":{"id":962878,"name":"On or near Ballards Close"},"longitude":"0.157565"},"context":"","outcome_status":{"category":"Investigation complete; no suspect identified","date":"2020-03"},"persistent_id":"763f1569e516138c90b0d3dea7c8d54f9587b19ae29708f5e817d60c982b9907","id":74289992,"location_subtype":"","month":"2019-05"},{"category":"violent-crime","location_type":"Force","location":{"latitude":"51.531063","street":{"id":962862,"name":"On or near Crosby Road"},"longitude":"0.156776"},"context":"","outcome_status":{"category":"Status update unavailable","date":"2019-09"},"persistent_id":"42b1b8bbe24edbbce5e543ecb8f33ba862f6c462957554cbfb24d3841e623ae7","id":74330451,"location_subtype":"","month":"2019-05"},{"category":"violent-crime","location_type":"Force","location":{"latitude":"51.539652","street":{"id":962925,"name":"On or near Talbot Road"},"longitude":"0.144001"},"context":"","outcome_status":{"category":"Status update unavailable","date":"2019-09"},"persistent_id":"9ffa74de96f6e561a97ce24144b370379a7f53abe2855137314ce768c9e2f55e","id":74323742,"location_subtype":"","month":"2019-05"},{"category":"violent-crime","location_type":"Force","location":{"latitude":"51.537806","street":{"id":962913,"name":"On or near Lullington Road"},"longitude":"0.134729"},"context":"","outcome_status":{"category":"Status update unavailable","date":"2019-09"},"persistent_id":"65a4c66ce2bdebd583930cd1ce4e5573aedf1ceb9244deee236411d25ecda4fb","id":74331507,"location_subtype":"","month":"2019-05"},{"category":"violent-crime","location_type":"Force","location":{"latitude":"51.534975","street":{"id":962916,"name":"On or near Elstow Road"},"longitude":"0.134639"},"context":"","outcome_status":{"category":"Unable to prosecute suspect","date":"2019-07"},"persistent_id":"2e6c475662ae777f161f45dd32616b8d1de624c5ce10d0e98cbf5dea5fbe7762","id":74236054,"location_subtype":"","month":"2019-05"},{"category":"violent-crime","location_type":"Force","location":{"latitude":"51.531176","street":{"id":962820,"name":"On or near South Close"},"longitude":"0.151619"},"context":"","outcome_status":{"category":"Status update unavailable","date":"2019-09"},"persistent_id":"f5029e217bd919cab1596679c320f608cd9f9ca46ded6cb8bfe95615de3d34d2","id":74309355,"location_subtype":"","month":"2019-05"},{"category":"violent-crime","location_type":"Force","location":{"latitude":"51.532061","street":{"id":923848,"name":"On or near Oval Road North"},"longitude":"0.160226"},"context":"","outcome_status":{"category":"Status update unavailable","date":"2019-09"},"persistent_id":"d96a50059c9b57c0ca0500b0005ca88bd27f8e61ba1cffc53b161d3e1382772f","id":74293959,"location_subtype":"","month":"2019-05"},{"category":"violent-crime","location_type":"Force","location":{"latitude":"51.533414","street":{"id":962878,"name":"On or near Ballards Close"},"longitude":"0.157565"},"context":"","outcome_status":{"category":"Status update unavailable","date":"2019-09"},"persistent_id":"47afffb8a0a23ad752d15a4daa501b8be5c2817966dc3113b75769c97271f409","id":74291751,"location_subtype":"","month":"2019-05"},{"category":"violent-crime","location_type":"Force","location":{"latitude":"51.534099","street":{"id":962958,"name":"On or near Digby Gardens"},"longitude":"0.149609"},"context":"","outcome_status":{"category":"Status update unavailable","date":"2019-09"},"persistent_id":"88ce97312c77651a0272939b4f65a438164d6af1d8177a0618056c02f8fea24b","id":74344295,"location_subtype":"","month":"2019-05"},{"category":"violent-crime","location_type":"Force","location":{"latitude":"51.533053","street":{"id":963031,"name":"On or near Gale Street"},"longitude":"0.127095"},"context":"","outcome_status":{"category":"Investigation complete; no suspect identified","date":"2020-04"},"persistent_id":"bc77e17a9fc28f063b756ea4876c6b791dbae891823c6c4c4b5da64ce93f3eb4","id":74304086,"location_subtype":"","month":"2019-05"},{"category":"violent-crime","location_type":"Force","location":{"latitude":"51.535066","street":{"id":962839,"name":"On or near Hospital"},"longitude":"0.152307"},"context":"","outcome_status":{"category":"Status update unavailable","date":"2019-09"},"persistent_id":"e9a97383171b903cba80e72c9173460eefa4d8191705793568943b7435211312","id":74344592,"location_subtype":"","month":"2019-05"},{"category":"violent-crime","location_type":"Force","location":{"latitude":"51.538203","street":{"id":962919,"name":"On or near Cartwright Road"},"longitude":"0.141106"},"context":"","outcome_status":{"category":"Status update unavailable","date":"2019-09"},"persistent_id":"4c8bcc4e264f44a69129fee063664af89712881077f82e195476fc07efd758b0","id":74337498,"location_subtype":"","month":"2019-05"},{"category":"violent-crime","location_type":"Force","location":{"latitude":"51.539109","street":{"id":962819,"name":"On or near Vicarage Road"},"longitude":"0.155469"},"context":"","outcome_status":{"category":"Investigation complete; no suspect identified","date":"2020-10"},"persistent_id":"f0edc20483f1cbf2d73d150a742ea89f60b78912504452b63d5c162e0ef3e02d","id":74337602,"location_subtype":"","month":"2019-05"},{"category":"violent-crime","location_type":"Force","location":{"latitude":"51.538203","street":{"id":962919,"name":"On or near Cartwright Road"},"longitude":"0.141106"},"context":"","outcome_status":{"category":"Court result unavailable","date":"2019-12"},"persistent_id":"4c8bcc4e264f44a69129fee063664af89712881077f82e195476fc07efd758b0","id":74337604,"location_subtype":"","month":"2019-05"},{"category":"violent-crime","location_type":"Force","location":{"latitude":"51.534975","street":{"id":962916,"name":"On or near Elstow Road"},"longitude":"0.134639"},"context":"","outcome_status":{"category":"Status update unavailable","date":"2019-09"},"persistent_id":"e47def0617238a4785a4dae1d90c247cc07df28a7951845a1cc41bd064e72c53","id":74338601,"location_subtype":"","month":"2019-05"},{"category":"violent-crime","location_type":"Force","location":{"latitude":"51.533476","street":{"id":962952,"name":"On or near Goresbrook Road"},"longitude":"0.140928"},"context":"","outcome_status":{"category":"Status update unavailable","date":"2019-09"},"persistent_id":"e1790695c9cd2ef60dde6d131a774d4de1a84818c5805d49f34638419a8de2f1","id":74355969,"location_subtype":"","month":"2019-05"},{"category":"violent-crime","location_type":"Force","location":{"latitude":"51.536462","street":{"id":962973,"name":"On or near Armstead Walk"},"longitude":"0.150239"},"context":"","outcome_status":{"category":"Status update unavailable","date":"2019-09"},"persistent_id":"3260315c83308ba6a3faa5058e911d2805f0ecc165cce820f8bf6ce4d406ec80","id":74298086,"location_subtype":"","month":"2019-05"},{"category":"violent-crime","location_type":"Force","location":{"latitude":"51.531063","street":{"id":962862,"name":"On or near Crosby Road"},"longitude":"0.156776"},"context":"","outcome_status":{"category":"Status update unavailable","date":"2019-09"},"persistent_id":"9b6a6e64b683ec35af3815ce1946bd39c0358d1a513b7498d922eefc6c006de0","id":74320476,"location_subtype":"","month":"2019-05"},{"category":"violent-crime","location_type":"Force","location":{"latitude":"51.527345","street":{"id":962890,"name":"On or near East Entrance"},"longitude":"0.160896"},"context":"","outcome_status":{"category":"Status update unavailable","date":"2019-09"},"persistent_id":"d128f9c045e556f46d36553566d932c2329b898e8d216de8570016bd79358047","id":74295923,"location_subtype":"","month":"2019-05"},{"category":"violent-crime","location_type":"Force","location":{"latitude":"51.533414","street":{"id":962878,"name":"On or near Ballards Close"},"longitude":"0.157565"},"context":"","outcome_status":{"category":"Status update unavailable","date":"2019-09"},"persistent_id":"a4decf28856843b0e386fbb17840d5d98a02279927d7fa6984e962139a95e377","id":74321199,"location_subtype":"","month":"2019-05"},{"category":"violent-crime","location_type":"Force","location":{"latitude":"51.516495","street":{"id":962562,"name":"On or near Perry Road"},"longitude":"0.145969"},"context":"","outcome_status":{"category":"Status update unavailable","date":"2019-09"},"persistent_id":"a3e41ebb40b222e81a60e3528dd85bdd2804b2695eda4fe734b1f43712858155","id":74321791,"location_subtype":"","month":"2019-05"},{"category":"violent-crime","location_type":"Force","location":{"latitude":"51.526082","street":{"id":962570,"name":"On or near Petrol Station"},"longitude":"0.167454"},"context":"","outcome_status":{"category":"Investigation complete; no suspect identified","date":"2020-04"},"persistent_id":"14a4d78f1f62b08f9542d36cb284b309d9a455b31500761aeb31fca3650364a5","id":74298286,"location_subtype":"","month":"2019-05"},{"category":"violent-crime","location_type":"Force","location":{"latitude":"51.532061","street":{"id":923848,"name":"On or near Oval Road North"},"longitude":"0.160226"},"context":"","outcome_status":{"category":"Status update unavailable","date":"2019-09"},"persistent_id":"565083dfdfa12d94024e32a2498af5f371aff2f13f74886ae0062ad735d88700","id":74347627,"location_subtype":"","month":"2019-05"},{"category":"violent-crime","location_type":"Force","location":{"latitude":"51.532992","street":{"id":962949,"name":"On or near Heathway"},"longitude":"0.148201"},"context":"","outcome_status":{"category":"Status update unavailable","date":"2019-09"},"persistent_id":"20cbb7d779273f8076cdb8634b3b83c28a469c2918d810a51bbbcd029db406ab","id":74347857,"location_subtype":"","month":"2019-05"},{"category":"violent-crime","location_type":"Force","location":{"latitude":"51.534114","street":{"id":962821,"name":"On or near School Road"},"longitude":"0.154209"},"context":"","outcome_status":{"category":"Status update unavailable","date":"2019-09"},"persistent_id":"f2cfeeb930bc56263e892720bcf106397e3545cbd29a9bda80e9d2c1e92d2ca8","id":74348051,"location_subtype":"","month":"2019-05"},{"category":"violent-crime","location_type":"Force","location":{"latitude":"51.532992","street":{"id":962949,"name":"On or near Heathway"},"longitude":"0.148201"},"context":"","outcome_status":{"category":"Status update unavailable","date":"2019-09"},"persistent_id":"995f2795ced88b6bdb8b9e4ad39cd9598ec37bddc19abacf414a2861ece1e0af","id":74351853,"location_subtype":"","month":"2019-05"},{"category":"violent-crime","location_type":"Force","location":{"latitude":"51.527228","street":{"id":962887,"name":"On or near South Street"},"longitude":"0.168229"},"context":"","outcome_status":{"category":"Status update unavailable","date":"2019-09"},"persistent_id":"58a845ade6d643a806b59d913b1f8fefd35a8598da131cbf99e6920bdd69b470","id":74371809,"location_subtype":"","month":"2019-05"},{"category":"violent-crime","location_type":"Force","location":{"latitude":"51.537982","street":{"id":962912,"name":"On or near Nuneaton Road"},"longitude":"0.133006"},"context":"","outcome_status":{"category":"Local resolution","date":"2019-05"},"persistent_id":"41fff660743402d4fb6e5c6955813526baf5b9a26e830ecac9ede3f0df17c9a5","id":74359588,"location_subtype":"","month":"2019-05"},{"category":"violent-crime","location_type":"Force","location":{"latitude":"51.531350","street":{"id":962935,"name":"On or near New Road"},"longitude":"0.149955"},"context":"","outcome_status":{"category":"Court result unavailable","date":"2019-11"},"persistent_id":"312955cf4a04a52ed8195cc373013f1c9767ea4efb88647b12900756bb3f5fae","id":74294542,"location_subtype":"","month":"2019-05"},{"category":"violent-crime","location_type":"Force","location":{"latitude":"51.533418","street":{"id":962824,"name":"On or near Orchard Road"},"longitude":"0.153902"},"context":"","outcome_status":{"category":"Status update unavailable","date":"2019-09"},"persistent_id":"36d7f152366069e94eff937d8d1e52c1156fb175e753a68d3992b131af4c704c","id":74331765,"location_subtype":"","month":"2019-05"},{"category":"violent-crime","location_type":"Force","location":{"latitude":"51.535448","street":{"id":962972,"name":"On or near Arnold Road"},"longitude":"0.147178"},"context":"","outcome_status":{"category":"Status update unavailable","date":"2019-09"},"persistent_id":"ecc7b1d54641ce47551fb844bec4d1d60f0107e273dffdc29103ae311c4e4873","id":74332175,"location_subtype":"","month":"2019-05"},{"category":"other-crime","location_type":"Force","location":{"latitude":"51.530192","street":{"id":962974,"name":"On or near Petrol Station"},"longitude":"0.143946"},"context":"","outcome_status":{"category":"Investigation complete; no suspect identified","date":"2020-04"},"persistent_id":"281f2bdfdb0006b1d1b2608108282a4c5a1b57004c8658d859614778a28ef206","id":74328605,"location_subtype":"","month":"2019-05"}]