[{"category":"anti-social-behaviour","location_type":"Force","location":{"latitude":"51.651950","street":{"id":789122,"name":"On or near Shakespeare Drive"},"longitude":"-0.274978"},"context":"","outcome_status":null,"persistent_id":"","id":75224973,"location_subtype":"","month":"2019-05"},{"category":"anti-social-behaviour","location_type":"Force","location":{"latitude":"51.654929","street":{"id":790180,"name":"On or near Glenhaven Avenue"},"longitude":"-0.279476"},"context":"","outcome_status":null,"persistent_id":"","id":75229483,"location_subtype":"","month":"2019-05"},{"category":"anti-social-behaviour","location_type":"Force","location":{"latitude":"51.650205","street":{"id":789046,"name":"On or near Furzehill Road"},"longitude":"-0.268828"},"context":"","outcome_status":null,"persistent_id":"","id":75226313,"location_subtype":"","month":"2019-05"},{"category":"anti-social-behaviour","location_type":"Force","location":{"latitude":"51.650205","street":{"id":789046,"name":"On or near Furzehill Road"},"longitude":"-0.268828"},"context":"","outcome_status":null,"persistent_id":"","id":75226316,"location_subtype":"","month":"2019-05"},{"category":"anti-social-behaviour","location_type":"Force","location":{"latitude":"51.659431","street":{"id":790168,"name":"On or near Stratfield Road"},"longitude":"-0.278004"},"context":"","outcome_status":null,"persistent_id":"","id":75226339,"location_subtype":"","month":"2019-05"},{"category":"anti-social-behaviour","location_type":"Force","location":{"latitude":"51.651711","street":{"id":789118,"name":"On or near Cedars Close"},"longitude":"-0.273411"},"context":"","outcome_status":null,"persistent_id":"","id":75224274,"location_subtype":"","month":"2019-05"},{"category":"anti-social-behaviour","location_type":"Force","location":{"latitude":"51.660042","street":{"id":790227,"name":"On or near Pedestrian Subway"},"longitude":"-0.263971"},"context":"","outcome_status":null,"persistent_id":"","id":75224286,"location_subtype":"","month":"2019-05"},{"category":"anti-social-behaviour","location_type":"Force","location":{"latitude":"51.651135","street":{"id":789057,"name":"On or near Arundel Drive"},"longitude":"-0.261189"},"context":"","outcome_status":null,"persistent_id":"","id":75224310,"location_subtype":"","month":"2019-05"},{"category":"anti-social-behaviour","location_type":"Force","location":{"latitude":"51.662563","street":{"id":790173,"name":"On or near Maydwell Lodge"},"longitude":"-0.286850"},"context":"","outcome_status":null,"persistent_id":"","id":75224338,"location_subtype":"","month":"2019-05"},{"category":"anti-social-behaviour","location_type":"Force","location":{"latitude":"51.658306","street":{"id":790238,"name":"On or near Maxwell Road"},"longitude":"-0.267551"},"context":"","outcome_status":null,"persistent_id":"","id":75224355,"location_subtype":"","month":"2019-05"},{"category":"anti-social-behaviour","location_type":"Force","location":{"latitude":"51.660042","street":{"id":790227,"name":"On or near Pedestrian Subway"},"longitude":"-0.263971"},"context":"","outcome_status":null,"persistent_id":"","id":75224425,"location_subtype":"","month":"2019-05"},{"category":"anti-social-behaviour","location_type":"Force","location":{"latitude":"51.660042","street":{"id":790227,"name":"On or near Pedestrian Subway"},"longitude":"-0.263971"},"context":"","outcome_status":null,"persistent_id":"","id":75224485,"location_subtype":"","month":"2019-05"},{"category":"anti-social-behaviour","location_type":"Force","location":{"latitude":"51.659423","street":{"id":790267,"name":"On or near Police Station"},"longitude":"-0.265253"},"context":"","outcome_status":null,"persistent_id":"","id":75224533,"location_subtype":"","month":"2019-05"},{"category":"anti-social-behaviour","location_type":"Force","location":{"latitude":"51.660042","street":{"id":790227,"name":"On or near Pedestrian Subway"},"longitude":"-0.263971"},"context":"","outcome_status":null,"persistent_id":"","id":75225068,"location_subtype":"","month":"2019-05"},{"category":"anti-social-behaviour","location_type":"Force","location":{"latitude":"51.658306","street":{"id":790238,"name":"On or near Maxwell Road"},"longitude":"-0.267551"},"context":"","outcome_status":null,"persistent_id":"","id":75224844,"location_subtype":"","month":"2019-05"},{"category":"anti-social-behaviour","location_type":"Force","location":{"latitude":"51.648332","street":{"id":789129,"name":"On or near Byron Avenue"},"longitude":"-0.274204"},"context":"","outcome_status":null,"persistent_id":"","id":75224556,"location_subtype":"","month":"2019-05"},{"category":"anti-social-behaviour","location_type":"Force","location":{"latitude":"51.648851","street":{"id":789119,"name":"On or near Wordsworth Gardens"},"longitude":"-0.274618"},"context":"","outcome_status":null,"persistent_id":"","id":75224560,"location_subtype":"","month":"2019-05"},{"category":"anti-social-behaviour","location_type":"Force","location":{"latitude":"51.664460","street":{"id":790122,"name":"On or near Winstre Road"},"longitude":"-0.274502"},"context":"","outcome_status":null,"persistent_id":"","id":75224589,"location_subtype":"","month":"2019-05"},{"category":"anti-social-behaviour","location_type":"Force","location":{"latitude":"51.660042","street":{"id":790227,"name":"On or near Pedestrian Subway"},"longitude":"-0.263971"},"context":"","outcome_status":null,"persistent_id":"","id":75224652,"location_subtype":"","month":"2019-05"},{"category":"anti-social-behaviour","location_type":"Force","location":{"latitude":"51.666444","street":{"id":790344,"name":"On or near Barnsdale Close"},"longitude":"-0.282250"},"context":"","outcome_status":null,"persistent_id":"","id":75229333,"location_subtype":"","month":"2019-05"},{"category":"anti-social-behaviour","location_type":"Force","location":{"latitude":"51.659423","street":{"id":790267,"name":"On or near Police Station"},"longitude":"-0.265253"},"context":"","outcome_status":null,"persistent_id":"","id":75225574,"location_subtype":"","month":"2019-05"},{"category":"anti-social-behaviour","location_type":"Force","location":{"latitude":"51.657380","street":{"id":790153,"name":"On or near Petrol Station"},"longitude":"-0.271229"},"context":"","outcome_status":null,"persistent_id":"","id":75225583,"location_subtype":"","month":"2019-05"},{"category":"anti-social-behaviour","location_type":"Force","location":{"latitude":"51.655716","street":{"id":790135,"name":"On or near Shopping Area"},"longitude":"-0.276743"},"context":"","outcome_status":null,"persistent_id":"","id":75230384,"location_subtype":"","month":"2019-05"},{"category":"anti-social-behaviour","location_type":"Force","location":{"latitude":"51.655716","street":{"id":790135,"name":"On or near Shopping Area"},"longitude":"-0.276743"},"context":"","outcome_status":null,"persistent_id":"","id":75229832,"location_subtype":"","month":"2019-05"},{"category":"anti-social-behaviour","location_type":"Force","location":{"latitude":"51.657777","street":{"id":790186,"name":"On or near Chatsworth Close"},"longitude":"-0.280496"},"context":"","outcome_status":null,"persistent_id":"","id":75229822,"location_subtype":"","month":"2019-05"},{"category":"anti-social-behaviour","location_type":"Force","location":{"latitude":"51.665313","street":{"id":790183,"name":"On or near Eaton Way"},"longitude":"-0.284216"},"context":"","outcome_status":null,"persistent_id":"","id":75229739,"location_subtype":"","month":"2019-05"},{"category":"anti-social-behaviour","location_type":"Force","location":{"latitude":"51.665313","street":{"id":790183,"name":"On or near Eaton Way"},"longitude":"-0.284216"},"context":"","outcome_status":null,"persistent_id":"","id":75229649,"location_subtype":"","month":"2019-05"},{"category":"anti-social-behaviour","location_type":"Force","location":{"latitude":"51.660392","street":{"id":790165,"name":"On or near Theobold Street"},"longitude":"-0.284691"},"context":"","outcome_status":null,"persistent_id":"","id":75229579,"location_subtype":"","month":"2019-05"},{"category":"anti-social-behaviour","location_type":"Force","location":{"latitude":"51.650205","street":{"id":789046,"name":"On or near Furzehill Road"},"longitude":"-0.268828"},"context":"","outcome_status":null,"persistent_id":"","id":75229221,"location_subtype":"","month":"2019-05"},{"category":"anti-social-behaviour","location_type":"Force","location":{"latitude":"51.666870","street":{"id":790343,"name":"On or near Blyth Close"},"longitude":"-0.280687"},"context":"","outcome_status":null,"persistent_id":"","id":75229078,"location_subtype":"","month":"2019-05"},{"category":"anti-social-behaviour","location_type":"Force","location":{"latitude":"51.653485","street":{"id":790207,"name":"On or near Whitehall Close"},"longitude":"-0.277854"},"context":"","outcome_status":null,"persistent_id":"","id":75229048,"location_subtype":"","month":"2019-05"},{"category":"anti-social-behaviour","location_type":"Force","location":{"latitude":"51.648332","street":{"id":789129,"name":"On or near Byron Avenue"},"longitude":"-0.274204"},"context":"","outcome_status":null,"persistent_id":"","id":75229026,"location_subtype":"","month":"2019-05"},{"category":"anti-social-behaviour","location_type":"Force","location":{"latitude":"51.652684","street":{"id":789111,"name":"On or near Petrol Station"},"longitude":"-0.281498"},"context":"","outcome_status":null,"persistent_id":"","id":75230344,"location_subtype":"","month":"2019-05"},{"category":"anti-social-behaviour","location_type":"Force","location":{"latitude":"51.667159","street":{"id":790304,"name":"On or near Gateshead Road"},"longitude":"-0.278275"},"context":"","outcome_status":null,"persistent_id":"","id":75230232,"location_subtype":"","month":"2019-05"},{"category":"anti-social-behaviour","location_type":"Force","location":{"latitude":"51.650205","street":{"id":789046,"name":"On or near Furzehill Road"},"longitude":"-0.268828"},"context":"","outcome_status":null,"persistent_id":"","id":75228862,"location_subtype":"","month":"2019-05"},{"category":"anti-social-behaviour","location_type":"Force","location":{"latitude":"51.657873","street":{"id":790126,"name":"On or near Malden Road"},"longitude":"-0.277239"},"context":"","outcome_status":null,"persistent_id":"","id":75228802,"location_subtype":"","month":"2019-05"},{"category":"anti-social-behaviour","location_type":"Force","location":{"latitude":"51.660042","street":{"id":790227,"name":"On or near Pedestrian Subway"},"longitude":"-0.263971"},"context":"","outcome_status":null,"persistent_id":"","id":75228172,"location_subtype":"","month":"2019-05"},{"category":"anti-social-behaviour","location_type":"Force","location":{"latitude":"51.662683","street":{"id":790148,"name":"On or near Broughinge Road"},"longitude":"-0.272329"},"context":"","outcome_status":null,"persistent_id":"","id":75227959,"location_subtype":"","month":"2019-05"},{"category":"anti-social-behaviour","location_type":"Force","location":{"latitude":"51.662528","street":{"id":790132,"name":"On or near Brook Road"},"longitude":"-0.275198"},"context":"","outcome_status":null,"persistent_id":"","id":75227944,"location_subtype":"","month":"2019-05"},{"category":"anti-social-behaviour","location_type":"Force","location":{"latitude":"51.667159","street":{"id":790304,"name":"On or near Gateshead Road"},"longitude":"-0.278275"},"context":"","outcome_status":null,"persistent_id":"","id":75227747,"location_subtype":"","month":"2019-05"},{"category":"anti-social-behaviour","location_type":"Force","location":{"latitude":"51.657924","street":{"id":790144,"name":"On or near Grosvenor Road"},"longitude":"-0.273348"},"context":"","outcome_status":null,"persistent_id":"","id":75229411,"location_subtype":"","month":"2019-05"},{"category":"anti-social-behaviour","location_type":"Force","location":{"latitude":"51.659038","street":{"id":790139,"name":"On or near Shenley Road"},"longitude":"-0.270241"},"context":"","outcome_status":null,"persistent_id":"","id":75227273,"location_subtype":"","month":"2019-05"},{"category":"anti-social-behaviour","location_type":"Force","location":{"latitude":"51.650205","street":{"id":789046,"name":"On or near Furzehill Road"},"longitude":"-0.268828"},"context":"","outcome_status":null,"persistent_id":"","id":75227234,"location_subtype":"","month":"2019-05"},{"category":"anti-social-behaviour","location_type":"Force","location":{"latitude":"51.667159","street":{"id":790304,"name":"On or near Gateshead Road"},"longitude":"-0.278275"},"context":"","outcome_status":null,"persistent_id":"","id":75227208,"location_subtype":"","month":"2019-05"},{"category":"anti-social-behaviour","location_type":"Force","location":{"latitude":"51.659423","street":{"id":790267,"name":"On or near Police Station"},"longitude":"-0.265253"},"context":"","outcome_status":null,"persistent_id":"","id":75227133,"location_subtype":"","month":"2019-05"},{"category":"anti-social-behaviour","location_type":"Force","location":{"latitude":"51.650205","street":{"id":789046,"name":"On or near Furzehill Road"},"longitude":"-0.268828"},"context":"","outcome_status":null,"persistent_id":"","id":75226903,"location_subtype":"","month":"2019-05"},{"category":"anti-social-behaviour","location_type":"Force","location":{"latitude":"51.656815","street":{"id":790136,"name":"On or near Supermarket"},"longitude":"-0.274374"},"context":"","outcome_status":null,"persistent_id":"","id":75228578,"location_subtype":"","month":"2019-05"},{"category":"anti-social-behaviour","location_type":"Force","location":{"latitude":"51.662528","street":{"id":790132,"name":"On or near Brook Road"},"longitude":"-0.275198"},"context":"","outcome_status":null,"persistent_id":"","id":75228425,"location_subtype":"","month":"2019-05"},{"category":"anti-social-behaviour","location_type":"Force","location":{"latitude":"51.667164","street":{"id":790302,"name":"On or near Leeming Road"},"longitude":"-0.282339"},"context":"","outcome_status":null,"persistent_id":"","id":75228353,"location_subtype":"","month":"2019-05"},{"category":"anti-social-behaviour","location_type":"Force","location":{"latitude":"51.667164","street":{"id":790302,"name":"On or near Leeming Road"},"longitude":"-0.282339"},"context":"","outcome_status":null,"persistent_id":"","id":75226766,"location_subtype":"","month":"2019-05"},{"category":"anti-social-behaviour","location_type":"Force","location":{"latitude":"51.663806","street":{"id":790123,"name":"On or near Spring Close"},"longitude":"-0.275915"},"context":"","outcome_status":null,"persistent_id":"","id":75226700,"location_subtype":"","month":"2019-05"},{"category":"anti-social-behaviour","location_type":"Force","location":{"latitude":"51.667159","street":{"id":790304,"name":"On or near Gateshead Road"},"longitude":"-0.278275"},"context":"","outcome_status":null,"persistent_id":"","id":75227502,"location_subtype":"","month":"2019-05"},{"category":"anti-social-behaviour","location_type":"Force","location":{"latitude":"51.664460","street":{"id":790122,"name":"On or near Winstre Road"},"longitude":"-0.274502"},"context":"","outcome_status":null,"persistent_id":"","id":75227376,"location_subtype":"","month":"2019-05"},{"category":"anti-social-behaviour","location_type":"Force","location":{"latitude":"51.652901","street":{"id":790271,"name":"On or near Featherstone Gardens"},"longitude":"-0.259604"},"context":"","outcome_status":null,"persistent_id":"","id":75227360,"location_subtype":"","month":"2019-05"},{"category":"anti-social-behaviour","location_type":"Force","location":{"latitude":"51.667159","street":{"id":790304,"name":"On or near Gateshead Road"},"longitude":"-0.278275"},"context":"","outcome_status":null,"persistent_id":"","id":75227321,"location_subtype":"","month":"2019-05"},{"category":"anti-social-behaviour","location_type":"Force","location":{"latitude":"51.651135","street":{"id":789057,"name":"On or near Arundel Drive"},"longitude":"-0.261189"},"context":"","outcome_status":null,"persistent_id":"","id":75223878,"location_subtype":"","month":"2019-05"},{"category":"anti-social-behaviour","location_type":"Force","location":{"latitude":"51.661386","street":{"id":790134,"name":"On or near Aberford Road"},"longitude":"-0.277077"},"context":"","outcome_status":null,"persistent_id":"","id":75223898,"location_subtype":"","month":"2019-05"},{"category":"anti-social-behaviour","location_type":"Force","location":{"latitude":"51.660042","street":{"id":790227,"name":"On or near Pedestrian Subway"},"longitude":"-0.263971"},"context":"","outcome_status":null,"persistent_id":"","id":75224012,"location_subtype":"","month":"2019-05"},{"category":"anti-social-behaviour","location_type":"Force","location":{"latitude":"51.653354","street":{"id":790203,"name":"On or near Parking Area"},"longitude":"-0.279391"},"context":"","outcome_status":null,"persistent_id":"","id":75224106,"location_subtype":"","month":"2019-05"},{"category":"anti-social-behaviour","location_type":"Force","location":{"latitude":"51.651135","street":{"id":789057,"name":"On or near Arundel Drive"},"longitude":"-0.261189"},"context":"","outcome_status":null,"persistent_id":"","id":75224119,"location_subtype":"","month":"2019-05"},{"category":"anti-social-behaviour","location_type":"Force","location":{"latitude":"51.660042","street":{"id":790227,"name":"On or near Pedestrian Subway"},"longitude":"-0.263971"},"context":"","outcome_status":null,"persistent_id":"","id":75226173,"location_subtype":"","month":"2019-05"},{"category":"anti-social-behaviour","location_type":"Force","location":{"latitude":"51.654217","street":{"id":790158,"name":"On or near Parking Area"},"longitude":"-0.280573"},"context":"","outcome_status":null,"persistent_id":"","id":75226110,"location_subtype":"","month":"2019-05"},{"category":"anti-social-behaviour","location_type":"Force","location":{"latitude":"51.658482","street":{"id":790164,"name":"On or near Tilehouse Close"},"longitude":"-0.282002"},"context":"","outcome_status":null,"persistent_id":"","id":75225982,"location_subtype":"","month":"2019-05"},{"category":"anti-social-behaviour","location_type":"Force","location":{"latitude":"51.665211","street":{"id":790116,"name":"On or near Boyce Close"},"longitude":"-0.291450"},"context":"","outcome_status":null,"persistent_id":"","id":75225889,"location_subtype":"","month":"2019-05"},{"category":"anti-social-behaviour","location_type":"Force","location":{"latitude":"51.652604","street":{"id":789120,"name":"On or near Siskin Close"},"longitude":"-0.276687"},"context":"","outcome_status":null,"persistent_id":"","id":75225841,"location_subtype":"","month":"2019-05"},{"category":"anti-social-behaviour","location_type":"Force","location":{"latitude":"51.664521","street":{"id":790188,"name":"On or near Catterick Way"},"longitude":"-0.281730"},"context":"","outcome_status":null,"persistent_id":"","id":75224191,"location_subtype":"","month":"2019-05"},{"category":"anti-social-behaviour","location_type":"Force","location":{"latitude":"51.644593","street":{"id":789151,"name":"On or near Roman Road"},"longitude":"-0.298310"},"context":"","outcome_status":null,"persistent_id":"","id":75224801,"location_subtype":"","month":"2019-05"},{"category":"anti-social-behaviour","location_type":"Force","location":{"latitude":"51.656815","street":{"id":790136,"name":"On or near Supermarket"},"longitude":"-0.274374"},"context":"","outcome_status":null,"persistent_id":"","id":75224841,"location_subtype":"","month":"2019-05"},{"category":"anti-social-behaviour","location_type":"Force","location":{"latitude":"51.661386","street":{"id":790134,"name":"On or near Aberford Road"},"longitude":"-0.277077"},"context":"","outcome_status":null,"persistent_id":"","id":75225774,"location_subtype":"","month":"2019-05"},{"category":"anti-social-behaviour","location_type":"Force","location":{"latitude":"51.647808","street":{"id":789033,"name":"On or near St Paul's Close"},"longitude":"-0.263051"},"context":"","outcome_status":null,"persistent_id":"","id":75225683,"location_subtype":"","month":"2019-05"},{"category":"anti-social-behaviour","location_type":"Force","location":{"latitude":"51.653354","street":{"id":790203,"name":"On or near Parking Area"},"longitude":"-0.279391"},"context":"","outcome_status":null,"persistent_id":"","id":75225391,"location_subtype":"","month":"2019-05"},{"category":"anti-social-behaviour","location_type":"Force","location":{"latitude":"51.659038","street":{"id":790139,"name":"On or near Shenley Road"},"longitude":"-0.270241"},"context":"","outcome_status":null,"persistent_id":"","id":75225289,"location_subtype":"","month":"2019-05"},{"category":"anti-social-behaviour","location_type":"Force","location":{"latitude":"51.667036","street":{"id":790305,"name":"On or near Clifton Way"},"longitude":"-0.279683"},"context":"","outcome_status":null,"persistent_id":"","id":75225215,"location_subtype":"","month":"2019-05"},{"category":"anti-social-behaviour","location_type":"Force","location":{"latitude":"51.651135","street":{"id":789057,"name":"On or near Arundel Drive"},"longitude":"-0.261189"},"context":"","outcome_status":null,"persistent_id":"","id":75225156,"location_subtype":"","month":"2019-05"},{"category":"bicycle-theft","location_type":"Force","location":{"latitude":"51.655669","street":{"id":790127,"name":"On or near Keystone Passage"},"longitude":"-0.276557"},"context":"","outcome_status":{"category":"Investigation complete; no suspect identified","date":"2019-06"},"persistent_id":"7181ff4e5dfa22952e98bb5facea995f30d526b03dbad9050ac99490657cfabd","id":75219115,"location_subtype":"","month":"2019-05"},{"category":"bicycle-theft","location_type":"Force","location":{"latitude":"51.665211","street":{"id":790116,"name":"On or near Boyce Close"},"longitude":"-0.291450"},"context":"","outcome_status":{"category":"Investigation complete; no suspect identified","date":"2019-05"},"persistent_id":"1f34bf64f06d0f8eef02e66dfc4d6f0e24ffe0b4b4f3848d7170ee670fd1f13d","id":75208612,"location_subtype":"","month":"2019-05"},{"category":"burglary","location_type":"Force","location":{"latitude":"51.655025","street":{"id":790240,"name":"On or near Manor Way"},"longitude":"-0.260982"},"context":"","outcome_status":{"category":"Unable to prosecute suspect","date":"2019-05"},"persistent_id":"8d39614b07c333eb612b781f53205ba65d39d4babb262c5ef37e7fbfb6fbfbfd","id":75211288,"location_subtype":"","month":"2019-05"},{"category":"burglary","location_type":"Force","location":{"latitude":"51.655025","street":{"id":790240,"name":"On or near Manor Way"},"longitude":"-0.260982"},"context":"","outcome_status":{"category":"Unable to prosecute suspect","date":"2019-06"},"persistent_id":"a753a156393dcd89f4a99a629226972a76dd97fe150e23d7512178e71f9e1380","id":75212466,"location_subtype":"","month":"2019-05"},{"category":"burglary","location_type":"Force","location":{"latitude":"51.648345","street":{"id":789045,"name":"On or near Grantham Green"},"longitude":"-0.259850"},"context":"","outcome_status":{"category":"Unable to prosecute suspect","date":"2019-06"},"persistent_id":"ae99d5f0c5185d690e3e9cd4a7bb0771b9b042f77a59be4300614cfdfc6994dd","id":75216250,"location_subtype":"","month":"2019-05"},{"category":"burglary","location_type":"Force","location":{"latitude":"51.654217","street":{"id":790158,"name":"On or near Parking Area"},"longitude":"-0.280573"},"context":"","outcome_status":{"category":"Investigation complete; no suspect identified","date":"2019-06"},"persistent_id":"38a733d84e830aa96e1315b8cd392afa306b226183371443b4df88744b118452","id":75209939,"location_subtype":"","month":"2019-05"},{"category":"burglary","location_type":"Force","location":{"latitude":"51.647408","street":{"id":789083,"name":"On or near Lullington Garth"},"longitude":"-0.268241"},"context":"","outcome_status":{"category":"Investigation complete; no suspect identified","date":"2019-05"},"persistent_id":"66bd0f94e87b08dec789f5988372e205abb5b7413f6ed422ffa1fb87418caccc","id":75213821,"location_subtype":"","month":"2019-05"},{"category":"burglary","location_type":"Force","location":{"latitude":"51.652684","street":{"id":789111,"name":"On or near Petrol Station"},"longitude":"-0.281498"},"context":"","outcome_status":{"category":"Investigation complete; no suspect identified","date":"2019-06"},"persistent_id":"28d3ed6554bcce6d3ddb74390f9bc015411aae613752d75837a3ebc42d1851c9","id":75221197,"location_subtype":"","month":"2019-05"},{"category":"burglary","location_type":"Force","location":{"latitude":"51.647408","street":{"id":789083,"name":"On or near Lullington Garth"},"longitude":"-0.268241"},"context":"","outcome_status":{"category":"Investigation complete; no suspect identified","date":"2019-06"},"persistent_id":"3e0c56c7b14433d59c29b9d149c12f3d61ee743de57817b40e85bbda8f16c4a3","id":75219919,"location_subtype":"","month":"2019-05"},{"category":"burglary","location_type":"Force","location":{"latitude":"51.652698","street":{"id":789037,"name":"On or near Norfolk Gardens"},"longitude":"-0.258036"},"context":"","outcome_status":{"category":"Investigation complete; no suspect identified","date":"2019-06"},"persistent_id":"7fd5045cc1da8f5038fe5214554020d4c446e6a0cc175cd58bd04d929e358354","id":75218031,"location_subtype":"","month":"2019-05"},{"category":"burglary","location_type":"Force","location":{"latitude":"51.653485","street":{"id":790207,"name":"On or near Whitehall Close"},"longitude":"-0.277854"},"context":"","outcome_status":{"category":"Investigation complete; no suspect identified","date":"2019-06"},"persistent_id":"370f71d576d29314ef11dc5623374295aa0264f5e565c27f5bdb7fb58e3d0a47","id":75217025,"location_subtype":"","month":"2019-05"},{"category":"criminal-damage-arson","location_type":"Force","location":{"latitude":"51.666870","street":{"id":790343,"name":"On or near Blyth Close"},"longitude":"-0.280687"},"context":"","outcome_status":{"category":"Status update unavailable","date":"2019-09"},"persistent_id":"a475de6a9016014fdb809539d6763050f228225b55b307b3a059e53d49a0c988","id":75219982,"location_subtype":"","month":"2019-05"},{"category":"criminal-damage-arson","location_type":"Force","location":{"latitude":"51.652901","street":{"id":790271,"name":"On or near Featherstone Gardens"},"longitude":"-0.259604"},"context":"","outcome_status":{"category":"Investigation complete; no suspect identified","date":"2019-05"},"persistent_id":"4d5e09fbe0b81aceba775dafae42c1627eebd5996e89f07c45ede0fb76fb1824","id":75198845,"location_subtype":"","month":"2019-05"},{"category":"criminal-damage-arson","location_type":"Force","location":{"latitude":"51.666444","street":{"id":790344,"name":"On or near Barnsdale Close"},"longitude":"-0.282250"},"context":"","outcome_status":{"category":"Investigation complete; no suspect identified","date":"2019-06"},"persistent_id":"5bae71ee8c3dc9e5cbdecab9032a7ce262ae01b4466614fb38519929f70899f6","id":75220249,"location_subtype":"","month":"2019-05"},{"category":"criminal-damage-arson","location_type":"Force","location":{"latitude":"51.652370","street":{"id":789114,"name":"On or near Oakwood Avenue"},"longitude":"-0.269338"},"context":"","outcome_status":{"category":"Unable to prosecute suspect","date":"2019-06"},"persistent_id":"adadbf15f9231cc779056e1c634076743ccd74bf20a3fc4a7089b08061760826","id":75206216,"location_subtype":"","month":"2019-05"},{"category":"criminal-damage-arson","location_type":"Force","location":{"latitude":"51.651135","street":{"id":789057,"name":"On or near Arundel Drive"},"longitude":"-0.261189"},"context":"","outcome_status":{"category":"Investigation complete; no suspect identified","date":"2019-05"},"persistent_id":"1b836f2e3b8af44bb342db839153ba5bb1553b04c5bcf59268c2559f0d2efa8f","id":75201892,"location_subtype":"","month":"2019-05"},{"category":"criminal-damage-arson","location_type":"Force","location":{"latitude":"51.661386","street":{"id":790134,"name":"On or near Aberford Road"},"longitude":"-0.277077"},"context":"","outcome_status":{"category":"Investigation complete; no suspect identified","date":"2019-06"},"persistent_id":"cc163f85a22d1e7e2247a466150a7025868877c2d13309d44cbb1341b59b1c9d","id":75217242,"location_subtype":"","month":"2019-05"},{"category":"criminal-damage-arson","location_type":"Force","location":{"latitude":"51.656815","street":{"id":790136,"name":"On or near Supermarket"},"longitude":"-0.274374"},"context":"","outcome_status":{"category":"Status update unavailable","date":"2019-09"},"persistent_id":"9dc55d2d293c97f3fa12066b2731a2c96205a8c1d85a9247bad59eda5ea03512","id":75206039,"location_subtype":"","month":"2019-05"},{"category":"criminal-damage-arson","location_type":"Force","location":{"latitude":"51.652698","street":{"id":789037,"name":"On or near Norfolk Gardens"},"longitude":"-0.258036"},"context":"","outcome_status":{"category":"Investigation complete; no suspect identified","date":"2019-05"},"persistent_id":"dc2c9f79d4096692e763d7288226851dac8ad8ae125caf321c96acd479c5ff4f","id":75208522,"location_subtype":"","month":"2019-05"},{"category":"criminal-damage-arson","location_type":"Force","location":{"latitude":"51.661403","street":{"id":790131,"name":"On or near Canterbury Road"},"longitude":"-0.275182"},"context":"","outcome_status":{"category":"Investigation complete; no suspect identified","date":"2019-05"},"persistent_id":"426cf6ee54c5b6b643c34d68659387a2de0506db23a03da6872141c0ec1a1287","id":75198270,"location_subtype":"","month":"2019-05"},{"category":"criminal-damage-arson","location_type":"Force","location":{"latitude":"51.657380","street":{"id":790153,"name":"On or near Petrol Station"},"longitude":"-0.271229"},"context":"","outcome_status":{"category":"Unable to prosecute suspect","date":"2019-06"},"persistent_id":"4deae56e6769e0dfd5ff57458702213ab43aab12351c559d4add81ac76d6bcfd","id":75221271,"location_subtype":"","month":"2019-05"},{"category":"criminal-damage-arson","location_type":"Force","location":{"latitude":"51.647747","street":{"id":789055,"name":"On or near Burghley Avenue"},"longitude":"-0.261362"},"context":"","outcome_status":{"category":"Investigation complete; no suspect identified","date":"2019-05"},"persistent_id":"6cccb5bd71d4010a2d265f0bf45c1a4f765815f9c14e6dd21a912e83ca0681f2","id":75204586,"location_subtype":"","month":"2019-05"},{"category":"criminal-damage-arson","location_type":"Force","location":{"latitude":"51.652961","street":{"id":790274,"name":"On or near Penscroft Gardens"},"longitude":"-0.256999"},"context":"","outcome_status":{"category":"Investigation complete; no suspect identified","date":"2019-06"},"persistent_id":"b80190a1f278ffb7e3e171ae52f660fd478c8e54af3198e84c78781db8c8db80","id":75206876,"location_subtype":"","month":"2019-05"},{"category":"criminal-damage-arson","location_type":"Force","location":{"latitude":"51.661386","street":{"id":790134,"name":"On or near Aberford Road"},"longitude":"-0.277077"},"context":"","outcome_status":{"category":"Local resolution","date":"2020-06"},"persistent_id":"b9fe9efa2f7503b97a2f28bab0b7188cf0251dbd190334a52875f17191a88535","id":75205559,"location_subtype":"","month":"2019-05"},{"category":"criminal-damage-arson","location_type":"Force","location":{"latitude":"51.651234","street":{"id":789099,"name":"On or near Fir Tree Court"},"longitude":"-0.286309"},"context":"","outcome_status":{"category":"Investigation complete; no suspect identified","date":"2019-05"},"persistent_id":"0a6bc253f3a2e7a4a21940a17c01aeac97db2431f3980e8259dac5f51e10feea","id":75204873,"location_subtype":"","month":"2019-05"},{"category":"criminal-damage-arson","location_type":"Force","location":{"latitude":"51.654929","street":{"id":790180,"name":"On or near Glenhaven Avenue"},"longitude":"-0.279476"},"context":"","outcome_status":{"category":"Investigation complete; no suspect identified","date":"2019-06"},"persistent_id":"a71759fbaa1e60083fdd29d80655ac49640345ba2777aa913f3c780d3fab3548","id":75217668,"location_subtype":"","month":"2019-05"},{"category":"criminal-damage-arson","location_type":"Force","location":{"latitude":"51.651135","street":{"id":789057,"name":"On or near Arundel Drive"},"longitude":"-0.261189"},"context":"","outcome_status":{"category":"Investigation complete; no suspect identified","date":"2019-06"},"persistent_id":"6ee30eb9378538df776e3e98a1dc6256a541c1eb7ccb0561690e5189bbe5f6af","id":75221778,"location_subtype":"","month":"2019-05"},{"category":"criminal-damage-arson","location_type":"Force","location":{"latitude":"51.662528","street":{"id":790132,"name":"On or near Brook Road"},"longitude":"-0.275198"},"context":"","outcome_status":{"category":"Investigation complete; no suspect identified","date":"2019-06"},"persistent_id":"2caeee5b1dc8f7de366f2e93a93acdac0f41c6d2b0d80d133dea920e139185a0","id":75220822,"location_subtype":"","month":"2019-05"},{"category":"criminal-damage-arson","location_type":"Force","location":{"latitude":"51.666164","street":{"id":790341,"name":"On or near Caishowe Road"},"longitude":"-0.271155"},"context":"","outcome_status":{"category":"Investigation complete; no suspect identified","date":"2019-05"},"persistent_id":"b6833d8ff1d38496b0dee87b910490103ce69fb1035528812728bb3108800173","id":75213912,"location_subtype":"","month":"2019-05"},{"category":"criminal-damage-arson","location_type":"Force","location":{"latitude":"51.649449","street":{"id":789052,"name":"On or near Cleveland Crescent"},"longitude":"-0.263335"},"context":"","outcome_status":{"category":"Investigation complete; no suspect identified","date":"2019-05"},"persistent_id":"9ece687f6ca59f8f25eb3005156e14d4535dafcd4558c92de081e1a058636899","id":75212945,"location_subtype":"","month":"2019-05"},{"category":"criminal-damage-arson","location_type":"Force","location":{"latitude":"51.661403","street":{"id":790131,"name":"On or near Canterbury Road"},"longitude":"-0.275182"},"context":"","outcome_status":{"category":"Investigation complete; no suspect identified","date":"2019-06"},"persistent_id":"182006c50e97bd23b234f5a39c004c3a76a6f0a5dac3c94afbcb5bb42aee226f","id":75215831,"location_subtype":"","month":"2019-05"},{"category":"drugs","location_type":"Force","location":{"latitude":"51.660350","street":{"id":790277,"name":"On or near Parking Area"},"longitude":"-0.267140"},"context":"","outcome_status":{"category":"Offender given a drugs possession warning","date":"2019-09"},"persistent_id":"e5a7e9f70a6a7dd5ec2cb5b199b9df6b777129c6170146a9864df99cbf4515bd","id":75220783,"location_subtype":"","month":"2019-05"},{"category":"drugs","location_type":"Force","location":{"latitude":"51.654217","street":{"id":790158,"name":"On or near Parking Area"},"longitude":"-0.280573"},"context":"","outcome_status":{"category":"Offender given a drugs possession warning","date":"2019-05"},"persistent_id":"72a777c8c8626f52361b7d50769067b84b7ed4954ef346efaa8e65529f603e90","id":75202098,"location_subtype":"","month":"2019-05"},{"category":"drugs","location_type":"Force","location":{"latitude":"51.662563","street":{"id":790173,"name":"On or near Maydwell Lodge"},"longitude":"-0.286850"},"context":"","outcome_status":{"category":"Awaiting court outcome","date":"2020-11"},"persistent_id":"894b0462e0a34a441875651f445631feb50214db9980c15617da5f4ac4b1ad0f","id":75201504,"location_subtype":"","month":"2019-05"},{"category":"drugs","location_type":"Force","location":{"latitude":"51.661911","street":{"id":790154,"name":"On or near Sports\/recreation Area"},"longitude":"-0.272373"},"context":"","outcome_status":{"category":"Offender given a drugs possession warning","date":"2019-06"},"persistent_id":"f2f9ee726f40b9f87faf98d13f4d9554b302d4e11b6fef6c58b1cf7ae3428f70","id":75221138,"location_subtype":"","month":"2019-05"},{"category":"drugs","location_type":"Force","location":{"latitude":"51.654217","street":{"id":790158,"name":"On or near Parking Area"},"longitude":"-0.280573"},"context":"","outcome_status":{"category":"Offender given a drugs possession warning","date":"2019-05"},"persistent_id":"472c1182f5e999a429a7fc48c22d46bb4df9f07c50f4467bb3f4d97bc8ddbeaf","id":75202083,"location_subtype":"","month":"2019-05"},{"category":"drugs","location_type":"Force","location":{"latitude":"51.654217","street":{"id":790158,"name":"On or near Parking Area"},"longitude":"-0.280573"},"context":"","outcome_status":{"category":"Court result unavailable","date":"2020-02"},"persistent_id":"1a2cd9acb7c1ff115a2162dbbe11c05c87156f1bfe61d7651165c5aa12573776","id":75203618,"location_subtype":"","month":"2019-05"},{"category":"drugs","location_type":"Force","location":{"latitude":"51.655675","street":{"id":790200,"name":"On or near Supermarket"},"longitude":"-0.278190"},"context":"","outcome_status":{"category":"Offender given a drugs possession warning","date":"2019-07"},"persistent_id":"2329e9e0a3561da87a2866340f3b1ae27f52414a6da4d8656866cf5530a03332","id":75203205,"location_subtype":"","month":"2019-05"},{"category":"drugs","location_type":"Force","location":{"latitude":"51.647458","street":{"id":789040,"name":"On or near Linster Grove"},"longitude":"-0.264278"},"context":"","outcome_status":{"category":"Offender given a caution","date":"2019-05"},"persistent_id":"6ebd59b263c1cf218821fd4f9a000b0a70ea00c53a441e61938d6310ea980c9d","id":75199343,"location_subtype":"","month":"2019-05"},{"category":"other-theft","location_type":"BTP","location":{"latitude":"51.653100","street":{"id":1486712,"name":"Elstree And Borehamwood (station)"},"longitude":"-0.280020"},"context":"","outcome_status":{"category":"Status update unavailable","date":"2019-09"},"persistent_id":"","id":88717749,"location_subtype":"STATION","month":"2019-05"},{"category":"other-theft","location_type":"Force","location":{"latitude":"51.655669","street":{"id":790127,"name":"On or near Keystone Passage"},"longitude":"-0.276557"},"context":"","outcome_status":{"category":"Investigation complete; no suspect identified","date":"2019-05"},"persistent_id":"30ae16f14109c295f51b3f9739112fec7e937df79bd2dc5353f04638f829cbac","id":75214815,"location_subtype":"","month":"2019-05"},{"category":"other-theft","location_type":"Force","location":{"latitude":"51.653354","street":{"id":790203,"name":"On or near Parking Area"},"longitude":"-0.279391"},"context":"","outcome_status":{"category":"Investigation complete; no suspect identified","date":"2019-05"},"persistent_id":"2070bfd7bddaddfcb0c4b0b1e6b60ef8c121bf77d40eb3e232de1c80ad900ecb","id":75206163,"location_subtype":"","month":"2019-05"},{"category":"other-theft","location_type":"Force","location":{"latitude":"51.653803","street":{"id":790119,"name":"On or near Almond Way"},"longitude":"-0.272594"},"context":"","outcome_status":{"category":"Investigation complete; no suspect identified","date":"2019-05"},"persistent_id":"ec6eaf2dc98038a6865d231fbaf21d6ef527599064cf7a244d7fd9f8036e388b","id":75209659,"location_subtype":"","month":"2019-05"},{"category":"other-theft","location_type":"Force","location":{"latitude":"51.660042","street":{"id":790227,"name":"On or near Pedestrian Subway"},"longitude":"-0.263971"},"context":"","outcome_status":{"category":"Investigation complete; no suspect identified","date":"2019-05"},"persistent_id":"62e06c89900c20c05e9187c2578d38b4a0910462f4b6bbc2991d13a439156cb1","id":75211703,"location_subtype":"","month":"2019-05"},{"category":"other-theft","location_type":"Force","location":{"latitude":"51.660350","street":{"id":790277,"name":"On or near Parking Area"},"longitude":"-0.267140"},"context":"","outcome_status":{"category":"Investigation complete; no suspect identified","date":"2019-06"},"persistent_id":"ee7eeeae3aa58c957c3aae0aaed96a5d94a4f60410ebd7df5f24afd84186426b","id":75215132,"location_subtype":"","month":"2019-05"},{"category":"other-theft","location_type":"Force","location":{"latitude":"51.664769","street":{"id":790140,"name":"On or near Northfield Road"},"longitude":"-0.268620"},"context":"","outcome_status":{"category":"Investigation complete; no suspect identified","date":"2019-06"},"persistent_id":"6f777b4b93dcf611b3801848ca2d5f45ae16c2bf6518ebbed3ba79b2faca1c42","id":75214571,"location_subtype":"","month":"2019-05"},{"category":"other-theft","location_type":"Force","location":{"latitude":"51.654217","street":{"id":790158,"name":"On or near Parking Area"},"longitude":"-0.280573"},"context":"","outcome_status":{"category":"Investigation complete; no suspect identified","date":"2019-06"},"persistent_id":"02bad1824cb54d6c4b9407d5208e1a1d5f57d9d4c482f5b6fe503abf9d787288","id":75214702,"location_subtype":"","month":"2019-05"},{"category":"other-theft","location_type":"Force","location":{"latitude":"51.652684","street":{"id":789111,"name":"On or near Petrol Station"},"longitude":"-0.281498"},"context":"","outcome_status":{"category":"Investigation complete; no suspect identified","date":"2019-06"},"persistent_id":"c9c1af6fea31a0fdfbc9ed10146d796b146bbbe77295d316f9854fc40c834ec6","id":75217472,"location_subtype":"","month":"2019-05"},{"category":"other-theft","location_type":"Force","location":{"latitude":"51.656815","street":{"id":790136,"name":"On or near Supermarket"},"longitude":"-0.274374"},"context":"","outcome_status":{"category":"Investigation complete; no suspect identified","date":"2019-08"},"persistent_id":"dbc008c36ce71eb3f5cc0318f0a69a282069af3536e83e64c384ea9225787d74","id":75217276,"location_subtype":"","month":"2019-05"},{"category":"other-theft","location_type":"Force","location":{"latitude":"51.664869","street":{"id":790182,"name":"On or near Fairburn Close"},"longitude":"-0.279071"},"context":"","outcome_status":{"category":"Investigation complete; no suspect identified","date":"2019-05"},"persistent_id":"77f2f716325f900cff75c1425fee1e0ef5d4eef548af5312a99526ae310800e8","id":75199926,"location_subtype":"","month":"2019-05"},{"category":"other-theft","location_type":"Force","location":{"latitude":"51.657380","street":{"id":790153,"name":"On or near Petrol Station"},"longitude":"-0.271229"},"context":"","outcome_status":{"category":"Investigation complete; no suspect identified","date":"2019-10"},"persistent_id":"2464e54fcd53743ebc94fd8c6b650b190bbabeeff155c59ce9296a89dd92095a","id":75204962,"location_subtype":"","month":"2019-05"},{"category":"other-theft","location_type":"Force","location":{"latitude":"51.655475","street":{"id":790245,"name":"On or near Kenilworth Close"},"longitude":"-0.262180"},"context":"","outcome_status":{"category":"Unable to prosecute suspect","date":"2019-06"},"persistent_id":"e39e56a1324c4d9fa7770e60893364c640d58394727e5862593fb1f05b63f6f5","id":75212484,"location_subtype":"","month":"2019-05"},{"category":"other-theft","location_type":"Force","location":{"latitude":"51.649545","street":{"id":789036,"name":"On or near Oak Farm"},"longitude":"-0.266150"},"context":"","outcome_status":{"category":"Investigation complete; no suspect identified","date":"2019-06"},"persistent_id":"6fe6f73266c72eba8c19cb97706539920c7cf3a3e4cdf47e964bb4be641ff21d","id":75215636,"location_subtype":"","month":"2019-05"},{"category":"other-theft","location_type":"Force","location":{"latitude":"51.655675","street":{"id":790200,"name":"On or near Supermarket"},"longitude":"-0.278190"},"context":"","outcome_status":{"category":"Investigation complete; no suspect identified","date":"2019-06"},"persistent_id":"e981ef7a99933fa0df583be32c00c3858c04b95d84a01ea63c30aa0bd656cf23","id":75206057,"location_subtype":"","month":"2019-05"},{"category":"other-theft","location_type":"Force","location":{"latitude":"51.659578","street":{"id":790266,"name":"On or near Petrol Station"},"longitude":"-0.264799"},"context":"","outcome_status":{"category":"Investigation complete; no suspect identified","date":"2019-08"},"persistent_id":"972d84b62a71ac17ea763791a902b20a87cab6208140c4b9e7edde6fb0250746","id":75221305,"location_subtype":"","month":"2019-05"},{"category":"other-theft","location_type":"Force","location":{"latitude":"51.665187","street":{"id":790125,"name":"On or near Norton Close"},"longitude":"-0.276890"},"context":"","outcome_status":{"category":"Investigation complete; no suspect identified","date":"2019-05"},"persistent_id":"4ab549d8ce48606973d33220f0061ff5241f8aacd95d3f1c3d76dab7ec1da5ee","id":75199429,"location_subtype":"","month":"2019-05"},{"category":"other-theft","location_type":"Force","location":{"latitude":"51.657380","street":{"id":790153,"name":"On or near Petrol Station"},"longitude":"-0.271229"},"context":"","outcome_status":{"category":"Investigation complete; no suspect identified","date":"2019-05"},"persistent_id":"2e30b5541ca00da806d91fbe437ec4a70aeb9043c971ea89b9cce8307296dfcd","id":75203115,"location_subtype":"","month":"2019-05"},{"category":"other-theft","location_type":"Force","location":{"latitude":"51.652698","street":{"id":789037,"name":"On or near Norfolk Gardens"},"longitude":"-0.258036"},"context":"","outcome_status":{"category":"Investigation complete; no suspect identified","date":"2019-06"},"persistent_id":"97be87cf699628e2d351f54aca6126f81763579172496015675ab14515d5035f","id":75209919,"location_subtype":"","month":"2019-05"},{"category":"other-theft","location_type":"Force","location":{"latitude":"51.655688","street":{"id":790155,"name":"On or near Supermarket"},"longitude":"-0.269328"},"context":"","outcome_status":{"category":"Investigation complete; no suspect identified","date":"2019-06"},"persistent_id":"aca1ea79d780af09669f8158f5ce905644ab28d10f5da5bedfa67db31bb1cbc4","id":75209937,"location_subtype":"","month":"2019-05"},{"category":"other-theft","location_type":"Force","location":{"latitude":"51.654212","street":{"id":790247,"name":"On or near Hillside Avenue"},"longitude":"-0.268603"},"context":"","outcome_status":{"category":"Local resolution","date":"2019-07"},"persistent_id":"ade16690d1eba0588a63b31ca0892639f9fde4a00e25b617980b7bdddb2b06c8","id":75207735,"location_subtype":"","month":"2019-05"},{"category":"other-theft","location_type":"Force","location":{"latitude":"51.654217","street":{"id":790158,"name":"On or near Parking Area"},"longitude":"-0.280573"},"context":"","outcome_status":{"category":"Investigation complete; no suspect identified","date":"2019-05"},"persistent_id":"2f3e01e2db684c678f7dd6979890b555059a2f141cdb6fda69cc81c9f06f3d25","id":75199456,"location_subtype":"","month":"2019-05"},{"category":"possession-of-weapons","location_type":"Force","location":{"latitude":"51.655688","street":{"id":790155,"name":"On or near Supermarket"},"longitude":"-0.269328"},"context":"","outcome_status":{"category":"Unable to prosecute suspect","date":"2019-06"},"persistent_id":"0f869b667635f340dfc438f3bec1fffd4624249fe387e0b53d3f7bdc9481ed06","id":75214097,"location_subtype":"","month":"2019-05"},{"category":"public-order","location_type":"Force","location":{"latitude":"51.657924","street":{"id":790144,"name":"On or near Grosvenor Road"},"longitude":"-0.273348"},"context":"","outcome_status":{"category":"Investigation complete; no suspect identified","date":"2019-06"},"persistent_id":"38bf9d534d408c1a60a7cbc7e37323f5eaa073a3c6a6f38a5e4a2aee5d7402e2","id":75208178,"location_subtype":"","month":"2019-05"},{"category":"public-order","location_type":"Force","location":{"latitude":"51.650205","street":{"id":789046,"name":"On or near Furzehill Road"},"longitude":"-0.268828"},"context":"","outcome_status":{"category":"Unable to prosecute suspect","date":"2019-07"},"persistent_id":"af78fdfc23e3a5d42db714ae0abc51dcecdd7a917b66abe23b3ff1d80ad0f959","id":75217172,"location_subtype":"","month":"2019-05"},{"category":"public-order","location_type":"Force","location":{"latitude":"51.659038","street":{"id":790139,"name":"On or near Shenley Road"},"longitude":"-0.270241"},"context":"","outcome_status":{"category":"Unable to prosecute suspect","date":"2019-06"},"persistent_id":"6f1179a4927301bcb729217e0a5e10d6f6070efe96a857ecda1c2715f6f61802","id":75203975,"location_subtype":"","month":"2019-05"},{"category":"public-order","location_type":"Force","location":{"latitude":"51.666870","street":{"id":790343,"name":"On or near Blyth Close"},"longitude":"-0.280687"},"context":"","outcome_status":{"category":"Unable to prosecute suspect","date":"2019-06"},"persistent_id":"527b4efe8a28e5d38c62c930630a528ce889e67c5574ac14be90df77db5a993a","id":75200904,"location_subtype":"","month":"2019-05"},{"category":"public-order","location_type":"Force","location":{"latitude":"51.657924","street":{"id":790144,"name":"On or near Grosvenor Road"},"longitude":"-0.273348"},"context":"","outcome_status":{"category":"Court result unavailable","date":"2019-11"},"persistent_id":"7cdddedff836c6bd9726905b0d8fe4a50acfdbcde1e7452608bc80e97d2e76c3","id":75205826,"location_subtype":"","month":"2019-05"},{"category":"public-order","location_type":"Force","location":{"latitude":"51.655675","street":{"id":790200,"name":"On or near Supermarket"},"longitude":"-0.278190"},"context":"","outcome_status":{"category":"Status update unavailable","date":"2019-09"},"persistent_id":"29694c9f154c3a4bea23fc0844056eccf039c19138dcbcba15e6964a3b34ae9e","id":75223530,"location_subtype":"","month":"2019-05"},{"category":"public-order","location_type":"Force","location":{"latitude":"51.666444","street":{"id":790344,"name":"On or near Barnsdale Close"},"longitude":"-0.282250"},"context":"","outcome_status":{"category":"Investigation complete; no suspect identified","date":"2019-06"},"persistent_id":"19341f16b715fb6cdc67e4b88c2aba95e173de604e1e3b22be48c26dcd72f1bd","id":75221268,"location_subtype":"","month":"2019-05"},{"category":"public-order","location_type":"Force","location":{"latitude":"51.651135","street":{"id":789057,"name":"On or near Arundel Drive"},"longitude":"-0.261189"},"context":"","outcome_status":{"category":"Unable to prosecute suspect","date":"2019-06"},"persistent_id":"d7c7922163d9033bfbd0c5174c540ac3a0d51b54d366f790063a2e1772414eee","id":75201925,"location_subtype":"","month":"2019-05"},{"category":"public-order","location_type":"Force","location":{"latitude":"51.667164","street":{"id":790302,"name":"On or near Leeming Road"},"longitude":"-0.282339"},"context":"","outcome_status":{"category":"Status update unavailable","date":"2019-09"},"persistent_id":"d6cb8942986861befe65427e56a2d3d878da396bc4f5adbb53212947a1c8e5fa","id":75214568,"location_subtype":"","month":"2019-05"},{"category":"public-order","location_type":"Force","location":{"latitude":"51.652943","street":{"id":789125,"name":"On or near Goldfinch Way"},"longitude":"-0.276472"},"context":"","outcome_status":{"category":"Investigation complete; no suspect identified","date":"2019-06"},"persistent_id":"ed4c45749d135f20f1d57eb4dadf9d68e7dc97c33914df6edc529883180c28b4","id":75216355,"location_subtype":"","month":"2019-05"},{"category":"public-order","location_type":"Force","location":{"latitude":"51.654217","street":{"id":790158,"name":"On or near Parking Area"},"longitude":"-0.280573"},"context":"","outcome_status":{"category":"Unable to prosecute suspect","date":"2019-09"},"persistent_id":"21216db880b3a725accaa5885d7b70891f1a83149b5ba01d64a1b352bac02e0c","id":75207337,"location_subtype":"","month":"2019-05"},{"category":"public-order","location_type":"Force","location":{"latitude":"51.654217","street":{"id":790158,"name":"On or near Parking Area"},"longitude":"-0.280573"},"context":"","outcome_status":{"category":"Unable to prosecute suspect","date":"2019-09"},"persistent_id":"d35abee734af29eee63c05b8cbda1891df7f0ab10aa79b5ce1aaca30742a69b7","id":75207322,"location_subtype":"","month":"2019-05"},{"category":"public-order","location_type":"Force","location":{"latitude":"51.649770","street":{"id":789044,"name":"On or near Graveley Avenue"},"longitude":"-0.264364"},"context":"","outcome_status":{"category":"Status update unavailable","date":"2019-09"},"persistent_id":"11ddb9ef7168843956b94540952aa8b4f34bc5afc54c6b7172a338f930065fda","id":75209440,"location_subtype":"","month":"2019-05"},{"category":"public-order","location_type":"Force","location":{"latitude":"51.666164","street":{"id":790341,"name":"On or near Caishowe Road"},"longitude":"-0.271155"},"context":"","outcome_status":{"category":"Unable to prosecute suspect","date":"2019-05"},"persistent_id":"bd3eb078429b4ccd2178fc364827a1461dbddd55a06d3b19b1d7ebbbf55aa2a1","id":75211262,"location_subtype":"","month":"2019-05"},{"category":"public-order","location_type":"Force","location":{"latitude":"51.654929","street":{"id":790180,"name":"On or near Glenhaven Avenue"},"longitude":"-0.279476"},"context":"","outcome_status":{"category":"Investigation complete; no suspect identified","date":"2019-05"},"persistent_id":"7e18dd93af3f4930cc056a2b3d4c58e803a12c0b193b9dac2530ee49fd66ad12","id":75209223,"location_subtype":"","month":"2019-05"},{"category":"public-order","location_type":"Force","location":{"latitude":"51.655669","street":{"id":790127,"name":"On or near Keystone Passage"},"longitude":"-0.276557"},"context":"","outcome_status":{"category":"Unable to prosecute suspect","date":"2019-05"},"persistent_id":"e85e0a745dc19758a4fbab619bbf1b8d969b80295c358ff71680a1db59f95974","id":75200178,"location_subtype":"","month":"2019-05"},{"category":"public-order","location_type":"Force","location":{"latitude":"51.661911","street":{"id":790154,"name":"On or near Sports\/recreation Area"},"longitude":"-0.272373"},"context":"","outcome_status":{"category":"Unable to prosecute suspect","date":"2019-09"},"persistent_id":"875a3ba5a45f5f6782fbdf3f1bca83346bf0f06550e3345f6e6c4c6d3beb3218","id":75208557,"location_subtype":"","month":"2019-05"},{"category":"public-order","location_type":"Force","location":{"latitude":"51.653093","street":{"id":790270,"name":"On or near Thornbury Gardens"},"longitude":"-0.262256"},"context":"","outcome_status":{"category":"Unable to prosecute suspect","date":"2019-11"},"persistent_id":"f35ba416e78ae1f02f6e4a50df37dd9971ffb2d8500284a2b0d75971d9496690","id":75216779,"location_subtype":"","month":"2019-05"},{"category":"public-order","location_type":"Force","location":{"latitude":"51.653354","street":{"id":790203,"name":"On or near Parking Area"},"longitude":"-0.279391"},"context":"","outcome_status":{"category":"Status update unavailable","date":"2019-09"},"persistent_id":"b933e532019fdf3370a3889025efd63d9ae0d928a2539a6a3bab547c2647eb6c","id":75220825,"location_subtype":"","month":"2019-05"},{"category":"robbery","location_type":"Force","location":{"latitude":"51.655669","street":{"id":790127,"name":"On or near Keystone Passage"},"longitude":"-0.276557"},"context":"","outcome_status":{"category":"Investigation complete; no suspect identified","date":"2019-06"},"persistent_id":"86dbfa9ec6a4c01d4a147403108330b1495d090b6d009177a5780a00c28cf221","id":75213203,"location_subtype":"","month":"2019-05"},{"category":"robbery","location_type":"Force","location":{"latitude":"51.651135","street":{"id":789057,"name":"On or near Arundel Drive"},"longitude":"-0.261189"},"context":"","outcome_status":{"category":"Investigation complete; no suspect identified","date":"2019-10"},"persistent_id":"c54bcfb6bf24aeae49ffc522e6c543cc2240abed9fd95093f2ebc652972c69f0","id":75217912,"location_subtype":"","month":"2019-05"},{"category":"robbery","location_type":"Force","location":{"latitude":"51.654671","street":{"id":790244,"name":"On or near Kenilworth Drive"},"longitude":"-0.258885"},"context":"","outcome_status":{"category":"Unable to prosecute suspect","date":"2019-06"},"persistent_id":"93f26e180bbd4d21cf990591426889fbf20800263949a391a9ee2139cead1a33","id":75203432,"location_subtype":"","month":"2019-05"},{"category":"robbery","location_type":"Force","location":{"latitude":"51.651135","street":{"id":789057,"name":"On or near Arundel Drive"},"longitude":"-0.261189"},"context":"","outcome_status":{"category":"Status update unavailable","date":"2019-09"},"persistent_id":"0289238fc2f6edfda83cf60f8edf6d7e9343378a62600ab84e4c44ee2fccc45d","id":75218664,"location_subtype":"","month":"2019-05"},{"category":"robbery","location_type":"Force","location":{"latitude":"51.655675","street":{"id":790200,"name":"On or near Supermarket"},"longitude":"-0.278190"},"context":"","outcome_status":{"category":"Unable to prosecute suspect","date":"2019-06"},"persistent_id":"73e0735bea542664ca5fad777a19a4e437a88884feb0986cf4bfac10b61dd2ef","id":75221177,"location_subtype":"","month":"2019-05"},{"category":"robbery","location_type":"Force","location":{"latitude":"51.653354","street":{"id":790203,"name":"On or near Parking Area"},"longitude":"-0.279391"},"context":"","outcome_status":{"category":"Investigation complete; no suspect identified","date":"2019-08"},"persistent_id":"db162d3a6c2b44ac05b1347773bd442bf5fb51f332e44539ffc7390bff32604f","id":75222631,"location_subtype":"","month":"2019-05"},{"category":"shoplifting","location_type":"Force","location":{"latitude":"51.655688","street":{"id":790155,"name":"On or near Supermarket"},"longitude":"-0.269328"},"context":"","outcome_status":{"category":"Investigation complete; no suspect identified","date":"2019-06"},"persistent_id":"dbfac917370e8b910ed4a0e64541b0729ab78b9f4d6db93d573f07ea6e5edcde","id":75210502,"location_subtype":"","month":"2019-05"},{"category":"shoplifting","location_type":"Force","location":{"latitude":"51.654217","street":{"id":790158,"name":"On or near Parking Area"},"longitude":"-0.280573"},"context":"","outcome_status":{"category":"Court result unavailable","date":"2019-12"},"persistent_id":"917d68bd2e906f8c93d55f3270384dc2257ef06e52f061028fc36ed539877f86","id":75212695,"location_subtype":"","month":"2019-05"},{"category":"shoplifting","location_type":"Force","location":{"latitude":"51.655688","street":{"id":790155,"name":"On or near Supermarket"},"longitude":"-0.269328"},"context":"","outcome_status":{"category":"Court result unavailable","date":"2019-11"},"persistent_id":"4620d78995d06e03765f6771cf2da726c78b591701b43aca2a19f77da5514173","id":75210888,"location_subtype":"","month":"2019-05"},{"category":"shoplifting","location_type":"Force","location":{"latitude":"51.655688","street":{"id":790155,"name":"On or near Supermarket"},"longitude":"-0.269328"},"context":"","outcome_status":{"category":"Status update unavailable","date":"2019-09"},"persistent_id":"5e3b5474064e92d0de199bd784c49f374a742c052882ba6c87949af9869540d4","id":75199076,"location_subtype":"","month":"2019-05"},{"category":"shoplifting","location_type":"Force","location":{"latitude":"51.655688","street":{"id":790155,"name":"On or near Supermarket"},"longitude":"-0.269328"},"context":"","outcome_status":{"category":"Investigation complete; no suspect identified","date":"2019-05"},"persistent_id":"914b120b62b3e1a9d7615699023d4a706a657111950a752bcdbef56e4c547692","id":75198481,"location_subtype":"","month":"2019-05"},{"category":"shoplifting","location_type":"Force","location":{"latitude":"51.655688","street":{"id":790155,"name":"On or near Supermarket"},"longitude":"-0.269328"},"context":"","outcome_status":{"category":"Investigation complete; no suspect identified","date":"2019-05"},"persistent_id":"a5e06df04350fa009f184fea4f81be1648927521136d8ca9a6d9031a6059a8df","id":75198438,"location_subtype":"","month":"2019-05"},{"category":"shoplifting","location_type":"Force","location":{"latitude":"51.655688","street":{"id":790155,"name":"On or near Supermarket"},"longitude":"-0.269328"},"context":"","outcome_status":{"category":"Unable to prosecute suspect","date":"2019-05"},"persistent_id":"c099dbe2056425bd3126f7c00b87b2374fad72260e778099b2d7d6f6d0bb381f","id":75198126,"location_subtype":"","month":"2019-05"},{"category":"shoplifting","location_type":"Force","location":{"latitude":"51.656750","street":{"id":790121,"name":"On or near Parking Area"},"longitude":"-0.275489"},"context":"","outcome_status":{"category":"Investigation complete; no suspect identified","date":"2019-06"},"persistent_id":"b14aa9d5bb325886a0cdbe11dd8d51573d411a46ce11e2516b11b956179eca1f","id":75223683,"location_subtype":"","month":"2019-05"},{"category":"shoplifting","location_type":"Force","location":{"latitude":"51.656750","street":{"id":790121,"name":"On or near Parking Area"},"longitude":"-0.275489"},"context":"","outcome_status":{"category":"Investigation complete; no suspect identified","date":"2019-06"},"persistent_id":"8a5f53123c23698068004f52af8681b4b2b53c3365880226aa15fce0943ee75d","id":75221898,"location_subtype":"","month":"2019-05"},{"category":"shoplifting","location_type":"Force","location":{"latitude":"51.656750","street":{"id":790121,"name":"On or near Parking Area"},"longitude":"-0.275489"},"context":"","outcome_status":{"category":"Investigation complete; no suspect identified","date":"2019-06"},"persistent_id":"7acf9780260abc67a752e9bc71ce3497988db6fa6469831bae4058d7964351e7","id":75221892,"location_subtype":"","month":"2019-05"},{"category":"shoplifting","location_type":"Force","location":{"latitude":"51.655688","street":{"id":790155,"name":"On or near Supermarket"},"longitude":"-0.269328"},"context":"","outcome_status":{"category":"Offender given a caution","date":"2019-06"},"persistent_id":"832dd08ae4c2822dd5f931a85e77e4b30954172d6ce0bc5e845b91fc272ef05a","id":75218100,"location_subtype":"","month":"2019-05"},{"category":"shoplifting","location_type":"Force","location":{"latitude":"51.655688","street":{"id":790155,"name":"On or near Supermarket"},"longitude":"-0.269328"},"context":"","outcome_status":{"category":"Investigation complete; no suspect identified","date":"2019-06"},"persistent_id":"28a7c352edcd9eecbd58e26696b71c33a68f92de02a3e99c5329a48999ef335c","id":75217947,"location_subtype":"","month":"2019-05"},{"category":"shoplifting","location_type":"Force","location":{"latitude":"51.655688","street":{"id":790155,"name":"On or near Supermarket"},"longitude":"-0.269328"},"context":"","outcome_status":{"category":"Court result unavailable","date":"2020-01"},"persistent_id":"a64c4b1ed52ea9b7b352ce614d89a239698bf5d7a43f21f9c14b80b8b447beb5","id":75217847,"location_subtype":"","month":"2019-05"},{"category":"shoplifting","location_type":"Force","location":{"latitude":"51.655688","street":{"id":790155,"name":"On or near Supermarket"},"longitude":"-0.269328"},"context":"","outcome_status":{"category":"Local resolution","date":"2019-06"},"persistent_id":"f7f938d1c5eeac9dfebd00b9ae4e3b834135061024e25445adda8cde6e45dee4","id":75216691,"location_subtype":"","month":"2019-05"},{"category":"shoplifting","location_type":"Force","location":{"latitude":"51.656750","street":{"id":790121,"name":"On or near Parking Area"},"longitude":"-0.275489"},"context":"","outcome_status":{"category":"Unable to prosecute suspect","date":"2019-06"},"persistent_id":"7b4df278c3f059de1b42f201ce26900765367a1592232e16b31667f8ab2a78c7","id":75216430,"location_subtype":"","month":"2019-05"},{"category":"shoplifting","location_type":"Force","location":{"latitude":"51.654217","street":{"id":790158,"name":"On or near Parking Area"},"longitude":"-0.280573"},"context":"","outcome_status":{"category":"Investigation complete; no suspect identified","date":"2019-06"},"persistent_id":"4c01f2b6e073cf69aa2cfef9ca14091267ea153c106b7c8c109f36d362468962","id":75216168,"location_subtype":"","month":"2019-05"},{"category":"shoplifting","location_type":"Force","location":{"latitude":"51.656829","street":{"id":790201,"name":"On or near Shopping Area"},"longitude":"-0.279664"},"context":"","outcome_status":{"category":"Unable to prosecute suspect","date":"2019-06"},"persistent_id":"02a283ecda4152237f364fa9e398f5f69c377d46b003be4ded9b01a8af8dc751","id":75208195,"location_subtype":"","month":"2019-05"},{"category":"shoplifting","location_type":"Force","location":{"latitude":"51.655669","street":{"id":790127,"name":"On or near Keystone Passage"},"longitude":"-0.276557"},"context":"","outcome_status":{"category":"Investigation complete; no suspect identified","date":"2019-05"},"persistent_id":"f1d85c405cf204d30465a3554e57d9ae10bc88e825bc717be3cf07b180757471","id":75207952,"location_subtype":"","month":"2019-05"},{"category":"shoplifting","location_type":"Force","location":{"latitude":"51.655688","street":{"id":790155,"name":"On or near Supermarket"},"longitude":"-0.269328"},"context":"","outcome_status":{"category":"Status update unavailable","date":"2019-09"},"persistent_id":"0088e2256f3abbd54d6a50abf85fe666ce0468d9ede4d914266b430b92b662b7","id":75205962,"location_subtype":"","month":"2019-05"},{"category":"shoplifting","location_type":"Force","location":{"latitude":"51.656815","street":{"id":790136,"name":"On or near Supermarket"},"longitude":"-0.274374"},"context":"","outcome_status":{"category":"Investigation complete; no suspect identified","date":"2019-06"},"persistent_id":"73d6987202eedc0ffb998af811559781d2f3273a2303512f483d4ec451cd09e3","id":75209184,"location_subtype":"","month":"2019-05"},{"category":"shoplifting","location_type":"Force","location":{"latitude":"51.656750","street":{"id":790121,"name":"On or near Parking Area"},"longitude":"-0.275489"},"context":"","outcome_status":{"category":"Status update unavailable","date":"2019-09"},"persistent_id":"8e3c7ae4f410c2d1882c4b1a312b1e49775a0df7aa7899daacd70c048ee8f0ba","id":75208754,"location_subtype":"","month":"2019-05"},{"category":"shoplifting","location_type":"Force","location":{"latitude":"51.655688","street":{"id":790155,"name":"On or near Supermarket"},"longitude":"-0.269328"},"context":"","outcome_status":{"category":"Local resolution","date":"2019-06"},"persistent_id":"d6a1e01f8e35eae9e4b5bf85f7cac064b7784fb7212ae7d9df3f27723654206b","id":75207241,"location_subtype":"","month":"2019-05"},{"category":"shoplifting","location_type":"Force","location":{"latitude":"51.655716","street":{"id":790135,"name":"On or near Shopping Area"},"longitude":"-0.276743"},"context":"","outcome_status":{"category":"Investigation complete; no suspect identified","date":"2019-06"},"persistent_id":"263da5fb6a03e37524fa49f19313e08222dd58e89e6f98de375f01e107848eca","id":75206263,"location_subtype":"","month":"2019-05"},{"category":"shoplifting","location_type":"Force","location":{"latitude":"51.655688","street":{"id":790155,"name":"On or near Supermarket"},"longitude":"-0.269328"},"context":"","outcome_status":{"category":"Court result unavailable","date":"2019-12"},"persistent_id":"fa9acd9ae00b5de2120b1deb4933536d557edbc1a75c97c73712103d13d538af","id":75204128,"location_subtype":"","month":"2019-05"},{"category":"shoplifting","location_type":"Force","location":{"latitude":"51.656829","street":{"id":790201,"name":"On or near Shopping Area"},"longitude":"-0.279664"},"context":"","outcome_status":{"category":"Investigation complete; no suspect identified","date":"2019-05"},"persistent_id":"1da988d23c8e30f6681582d9e200cb93aee39d2b105f4be8635c4b9da462321a","id":75200975,"location_subtype":"","month":"2019-05"},{"category":"shoplifting","location_type":"Force","location":{"latitude":"51.656829","street":{"id":790201,"name":"On or near Shopping Area"},"longitude":"-0.279664"},"context":"","outcome_status":{"category":"Court result unavailable","date":"2019-11"},"persistent_id":"ad6c5d54dfacee99ded00076d0847a3b7807f944ac2b8f64cde925eaf07c87c4","id":75203346,"location_subtype":"","month":"2019-05"},{"category":"shoplifting","location_type":"Force","location":{"latitude":"51.655688","street":{"id":790155,"name":"On or near Supermarket"},"longitude":"-0.269328"},"context":"","outcome_status":{"category":"Offender given a caution","date":"2019-05"},"persistent_id":"eeeb016636bfb2f8abdc9798077ba0a6a50bd803e759dc31a886a5ee2de65ab6","id":75203411,"location_subtype":"","month":"2019-05"},{"category":"shoplifting","location_type":"Force","location":{"latitude":"51.655675","street":{"id":790200,"name":"On or near Supermarket"},"longitude":"-0.278190"},"context":"","outcome_status":{"category":"Investigation complete; no suspect identified","date":"2019-05"},"persistent_id":"47235606b2d7ec2d7e9eb958f756cc38d8cb85a24d6a03c46d07e9fff29f2ce4","id":75204824,"location_subtype":"","month":"2019-05"},{"category":"shoplifting","location_type":"Force","location":{"latitude":"51.656829","street":{"id":790201,"name":"On or near Shopping Area"},"longitude":"-0.279664"},"context":"","outcome_status":{"category":"Investigation complete; no suspect identified","date":"2019-05"},"persistent_id":"3fc9a8f42aa64772381571cbf000f6dfd92d1e2cf45a0bd3b0b5640099f7fcb7","id":75205109,"location_subtype":"","month":"2019-05"},{"category":"shoplifting","location_type":"Force","location":{"latitude":"51.656829","street":{"id":790201,"name":"On or near Shopping Area"},"longitude":"-0.279664"},"context":"","outcome_status":{"category":"Investigation complete; no suspect identified","date":"2019-05"},"persistent_id":"5a075ac2e29021f096a44f1052c34a6864b592267d01e4f2373e831e73f3ffc9","id":75205112,"location_subtype":"","month":"2019-05"},{"category":"shoplifting","location_type":"Force","location":{"latitude":"51.655688","street":{"id":790155,"name":"On or near Supermarket"},"longitude":"-0.269328"},"context":"","outcome_status":{"category":"Offender given a caution","date":"2019-05"},"persistent_id":"69f74f41e1992056bc09e13f4135d5d31dbc3211e16e46d46dd826bdb60a00df","id":75214007,"location_subtype":"","month":"2019-05"},{"category":"shoplifting","location_type":"Force","location":{"latitude":"51.655688","street":{"id":790155,"name":"On or near Supermarket"},"longitude":"-0.269328"},"context":"","outcome_status":{"category":"Offender given penalty notice","date":"2019-05"},"persistent_id":"2e6bc8985d5beddb43abba7a4ccd8681420c140cc694532461bcfbe094711d43","id":75214858,"location_subtype":"","month":"2019-05"},{"category":"shoplifting","location_type":"Force","location":{"latitude":"51.656750","street":{"id":790121,"name":"On or near Parking Area"},"longitude":"-0.275489"},"context":"","outcome_status":{"category":"Investigation complete; no suspect identified","date":"2019-05"},"persistent_id":"e61ccf2cbbc9ea9746141bf5b3ed3b7521727c39d00e1f438332003cec53a070","id":75207996,"location_subtype":"","month":"2019-05"},{"category":"shoplifting","location_type":"Force","location":{"latitude":"51.655688","street":{"id":790155,"name":"On or near Supermarket"},"longitude":"-0.269328"},"context":"","outcome_status":{"category":"Offender given a caution","date":"2019-05"},"persistent_id":"79832061ec7054e8c16692cb8be80d3d138fe7624a9a30f345d88427af5caa34","id":75211284,"location_subtype":"","month":"2019-05"},{"category":"shoplifting","location_type":"Force","location":{"latitude":"51.656829","street":{"id":790201,"name":"On or near Shopping Area"},"longitude":"-0.279664"},"context":"","outcome_status":{"category":"Unable to prosecute suspect","date":"2019-05"},"persistent_id":"799886b33c098287f73da46fa1aa07100e5253317727749c7b86ed30983b9ec8","id":75212285,"location_subtype":"","month":"2019-05"},{"category":"shoplifting","location_type":"Force","location":{"latitude":"51.655688","street":{"id":790155,"name":"On or near Supermarket"},"longitude":"-0.269328"},"context":"","outcome_status":{"category":"Investigation complete; no suspect identified","date":"2019-05"},"persistent_id":"253526f58fc01b6525b4d65740e336696df2ed7c2e75cc68fea7c543ecaf9508","id":75211406,"location_subtype":"","month":"2019-05"},{"category":"shoplifting","location_type":"Force","location":{"latitude":"51.655688","street":{"id":790155,"name":"On or near Supermarket"},"longitude":"-0.269328"},"context":"","outcome_status":{"category":"Investigation complete; no suspect identified","date":"2019-05"},"persistent_id":"b6faf0e2145fba5d83ea5970e42fa9e3ce6afa4e3993c201e06edf8ecb39856e","id":75199879,"location_subtype":"","month":"2019-05"},{"category":"shoplifting","location_type":"Force","location":{"latitude":"51.656829","street":{"id":790201,"name":"On or near Shopping Area"},"longitude":"-0.279664"},"context":"","outcome_status":{"category":"Investigation complete; no suspect identified","date":"2019-05"},"persistent_id":"59122307ed6c9d7d3b87885cac7136345d8441a26c0980b05d2571abfc0b53d7","id":75200985,"location_subtype":"","month":"2019-05"},{"category":"theft-from-the-person","location_type":"Force","location":{"latitude":"51.654217","street":{"id":790158,"name":"On or near Parking Area"},"longitude":"-0.280573"},"context":"","outcome_status":{"category":"Investigation complete; no suspect identified","date":"2019-05"},"persistent_id":"3a7c9f55548847cb6df4665504d43fe93486054722b64117a0b33ff2c125e958","id":75211538,"location_subtype":"","month":"2019-05"},{"category":"theft-from-the-person","location_type":"Force","location":{"latitude":"51.655675","street":{"id":790200,"name":"On or near Supermarket"},"longitude":"-0.278190"},"context":"","outcome_status":{"category":"Investigation complete; no suspect identified","date":"2019-06"},"persistent_id":"4808b9dab459d81c2c0b2bed0a5c9bf5f400a7e68749fd7a073c6a85886975a8","id":75200002,"location_subtype":"","month":"2019-05"},{"category":"theft-from-the-person","location_type":"Force","location":{"latitude":"51.653331","street":{"id":790204,"name":"On or near Station Road"},"longitude":"-0.279016"},"context":"","outcome_status":{"category":"Unable to prosecute suspect","date":"2019-07"},"persistent_id":"7779c63e2d37274b7da5f932a9913dd850b2eb87a92d4f5af1be3226905de04a","id":75220404,"location_subtype":"","month":"2019-05"},{"category":"theft-from-the-person","location_type":"Force","location":{"latitude":"51.655675","street":{"id":790200,"name":"On or near Supermarket"},"longitude":"-0.278190"},"context":"","outcome_status":{"category":"Investigation complete; no suspect identified","date":"2019-06"},"persistent_id":"7f0f06d412bbbc7aaa470ab5d0909fad853926930ddf25e2a74f4158f7c763c0","id":75220703,"location_subtype":"","month":"2019-05"},{"category":"theft-from-the-person","location_type":"Force","location":{"latitude":"51.648345","street":{"id":789045,"name":"On or near Grantham Green"},"longitude":"-0.259850"},"context":"","outcome_status":{"category":"Investigation complete; no suspect identified","date":"2019-06"},"persistent_id":"822791c1593ecfdae8c086276004504b3a24638000b8cc4642afeea91bc491a0","id":75219004,"location_subtype":"","month":"2019-05"},{"category":"theft-from-the-person","location_type":"Force","location":{"latitude":"51.651135","street":{"id":789057,"name":"On or near Arundel Drive"},"longitude":"-0.261189"},"context":"","outcome_status":{"category":"Investigation complete; no suspect identified","date":"2019-05"},"persistent_id":"645339fa4346b51a9bdbb8560b01f8aa21844199c57a07a20cfe2cb6476785fa","id":75200019,"location_subtype":"","month":"2019-05"},{"category":"theft-from-the-person","location_type":"Force","location":{"latitude":"51.654217","street":{"id":790158,"name":"On or near Parking Area"},"longitude":"-0.280573"},"context":"","outcome_status":{"category":"Unable to prosecute suspect","date":"2019-05"},"persistent_id":"ebda8fe3fa45241e76254ae000988de70c7626b47feadef9d436dbfdd13272e0","id":75204692,"location_subtype":"","month":"2019-05"},{"category":"theft-from-the-person","location_type":"Force","location":{"latitude":"51.655669","street":{"id":790127,"name":"On or near Keystone Passage"},"longitude":"-0.276557"},"context":"","outcome_status":{"category":"Investigation complete; no suspect identified","date":"2019-06"},"persistent_id":"0cd85a11a8bf6fe7c3069c7c43c58e5ba6752078e11ec5d38ea96a151dab72cd","id":75217370,"location_subtype":"","month":"2019-05"},{"category":"theft-from-the-person","location_type":"Force","location":{"latitude":"51.653803","street":{"id":790119,"name":"On or near Almond Way"},"longitude":"-0.272594"},"context":"","outcome_status":{"category":"Status update unavailable","date":"2019-09"},"persistent_id":"fe0e33404a2fe02ffab271b9d45c6b33d63f01ad69a6a66fb4df997e951e36c7","id":75210281,"location_subtype":"","month":"2019-05"},{"category":"theft-from-the-person","location_type":"Force","location":{"latitude":"51.651441","street":{"id":789101,"name":"On or near Deacons Close"},"longitude":"-0.280736"},"context":"","outcome_status":{"category":"Investigation complete; no suspect identified","date":"2019-05"},"persistent_id":"972a85d5950348c24281517d91782e6314609f812479dd38ae2e6e0d6ddfb3d2","id":75213921,"location_subtype":"","month":"2019-05"},{"category":"vehicle-crime","location_type":"Force","location":{"latitude":"51.647974","street":{"id":789048,"name":"On or near Dacre Gardens"},"longitude":"-0.258462"},"context":"","outcome_status":{"category":"Unable to prosecute suspect","date":"2020-06"},"persistent_id":"ba41f3e6c72ee05e206ecff2fcd3d67495ce08b44efbe7223895bbdb12c3dcf6","id":75210315,"location_subtype":"","month":"2019-05"},{"category":"vehicle-crime","location_type":"Force","location":{"latitude":"51.660042","street":{"id":790227,"name":"On or near Pedestrian Subway"},"longitude":"-0.263971"},"context":"","outcome_status":{"category":"Investigation complete; no suspect identified","date":"2019-06"},"persistent_id":"501c1db26f840c087678ccb18810026083f64f3643942170a5f222dd3aa54005","id":75222864,"location_subtype":"","month":"2019-05"},{"category":"vehicle-crime","location_type":"Force","location":{"latitude":"51.661386","street":{"id":790134,"name":"On or near Aberford Road"},"longitude":"-0.277077"},"context":"","outcome_status":{"category":"Investigation complete; no suspect identified","date":"2019-06"},"persistent_id":"b1e68da5c7e1f82c9085e740701edade29fd2c169f56984d1760a9ddbac394ca","id":75218765,"location_subtype":"","month":"2019-05"},{"category":"vehicle-crime","location_type":"Force","location":{"latitude":"51.643722","street":{"id":789145,"name":"On or near Yew Tree Court"},"longitude":"-0.297765"},"context":"","outcome_status":{"category":"Investigation complete; no suspect identified","date":"2019-06"},"persistent_id":"9c4a6d23dc6a577575b0ae1bfcffdec1613cdeef63b3cd8d9f1a500d98e65f6d","id":75212756,"location_subtype":"","month":"2019-05"},{"category":"vehicle-crime","location_type":"Force","location":{"latitude":"51.663819","street":{"id":790111,"name":"On or near Stevenage Crescent"},"longitude":"-0.289695"},"context":"","outcome_status":{"category":"Unable to prosecute suspect","date":"2019-05"},"persistent_id":"e93c2809e21200506de736ea1770905088e5daa6f9cafce26e747d0a57283f47","id":75207287,"location_subtype":"","month":"2019-05"},{"category":"vehicle-crime","location_type":"Force","location":{"latitude":"51.665667","street":{"id":790160,"name":"On or near Winthorpe Gardens"},"longitude":"-0.283219"},"context":"","outcome_status":{"category":"Investigation complete; no suspect identified","date":"2019-05"},"persistent_id":"27e32b5d5ceeb9eb77825152834b51a11fe8464f5814a53d67304912de9e5301","id":75198612,"location_subtype":"","month":"2019-05"},{"category":"vehicle-crime","location_type":"Force","location":{"latitude":"51.654176","street":{"id":790159,"name":"On or near Links Drive"},"longitude":"-0.284564"},"context":"","outcome_status":{"category":"Investigation complete; no suspect identified","date":"2019-06"},"persistent_id":"16d42d143be57a3e5d4e00092a7c4176c651102cca5cbc512440925b3ef58660","id":75216587,"location_subtype":"","month":"2019-05"},{"category":"vehicle-crime","location_type":"Force","location":{"latitude":"51.652604","street":{"id":789120,"name":"On or near Siskin Close"},"longitude":"-0.276687"},"context":"","outcome_status":{"category":"Investigation complete; no suspect identified","date":"2019-07"},"persistent_id":"dd536c7008adaae846209859ab32a422981cf7a5ee3223758deec57df8bd7eb7","id":75218548,"location_subtype":"","month":"2019-05"},{"category":"vehicle-crime","location_type":"Force","location":{"latitude":"51.655675","street":{"id":790200,"name":"On or near Supermarket"},"longitude":"-0.278190"},"context":"","outcome_status":{"category":"Investigation complete; no suspect identified","date":"2019-06"},"persistent_id":"cc5e6acd7892e352643128c2e3093fcfe7fdb685881fe534695b65149c568d7e","id":75217874,"location_subtype":"","month":"2019-05"},{"category":"vehicle-crime","location_type":"Force","location":{"latitude":"51.655669","street":{"id":790127,"name":"On or near Keystone Passage"},"longitude":"-0.276557"},"context":"","outcome_status":{"category":"Investigation complete; no suspect identified","date":"2019-06"},"persistent_id":"43b060e422a3912be5bfd2524941128c088114f4559551b4217f8f4236feb2a4","id":75212642,"location_subtype":"","month":"2019-05"},{"category":"vehicle-crime","location_type":"Force","location":{"latitude":"51.661386","street":{"id":790134,"name":"On or near Aberford Road"},"longitude":"-0.277077"},"context":"","outcome_status":{"category":"Investigation complete; no suspect identified","date":"2019-06"},"persistent_id":"6ba631e60eeaf7cd8e89044fd5ca8f485fbf00cb043be8539c9ed88a8ed098c9","id":75219345,"location_subtype":"","month":"2019-05"},{"category":"vehicle-crime","location_type":"Force","location":{"latitude":"51.654176","street":{"id":790159,"name":"On or near Links Drive"},"longitude":"-0.284564"},"context":"","outcome_status":{"category":"Investigation complete; no suspect identified","date":"2019-06"},"persistent_id":"240177a1e33897a14edb586c9124978d1f3f8e9bbb9ebd0fbd76f3fb857db86a","id":75216569,"location_subtype":"","month":"2019-05"},{"category":"vehicle-crime","location_type":"Force","location":{"latitude":"51.659133","street":{"id":788350,"name":"On or near Haddon Close"},"longitude":"-0.279751"},"context":"","outcome_status":{"category":"Investigation complete; no suspect identified","date":"2019-06"},"persistent_id":"6f9cb2e17632d419269deb6bd70dfae08a20d569a73a85191f1751402485625d","id":75219857,"location_subtype":"","month":"2019-05"},{"category":"vehicle-crime","location_type":"Force","location":{"latitude":"51.646226","street":{"id":788365,"name":"On or near Summer Hill"},"longitude":"-0.279574"},"context":"","outcome_status":{"category":"Investigation complete; no suspect identified","date":"2019-05"},"persistent_id":"7117bf1276face6c9d68f069c3c5e39820a797828b1482086b38ab9e03650e73","id":75212973,"location_subtype":"","month":"2019-05"},{"category":"vehicle-crime","location_type":"Force","location":{"latitude":"51.666444","street":{"id":790344,"name":"On or near Barnsdale Close"},"longitude":"-0.282250"},"context":"","outcome_status":{"category":"Investigation complete; no suspect identified","date":"2019-06"},"persistent_id":"487f3c156daf7b5b63dcb40289df6d465562e13e2ee64134be6c76e40b30fab1","id":75205231,"location_subtype":"","month":"2019-05"},{"category":"vehicle-crime","location_type":"Force","location":{"latitude":"51.653485","street":{"id":790207,"name":"On or near Whitehall Close"},"longitude":"-0.277854"},"context":"","outcome_status":{"category":"Investigation complete; no suspect identified","date":"2019-05"},"persistent_id":"467f3d4c771f78065b98c2602495c479b3e5b77d2c7cf885428fee3a720e73e9","id":75218731,"location_subtype":"","month":"2019-05"},{"category":"vehicle-crime","location_type":"Force","location":{"latitude":"51.661208","street":{"id":790199,"name":"On or near Sports\/recreation Area"},"longitude":"-0.280872"},"context":"","outcome_status":{"category":"Investigation complete; no suspect identified","date":"2019-06"},"persistent_id":"912fb9e31ddca8c71d61dbb53a87c578692832c711fb8e4ce5ac4d6ec535333c","id":75220529,"location_subtype":"","month":"2019-05"},{"category":"vehicle-crime","location_type":"Force","location":{"latitude":"51.652961","street":{"id":790274,"name":"On or near Penscroft Gardens"},"longitude":"-0.256999"},"context":"","outcome_status":{"category":"Investigation complete; no suspect identified","date":"2019-06"},"persistent_id":"68f486d24bacb5b55f963086d52aa203d9ced108f365fd4f7b367003dc72d9cc","id":75218246,"location_subtype":"","month":"2019-05"},{"category":"vehicle-crime","location_type":"Force","location":{"latitude":"51.663806","street":{"id":790123,"name":"On or near Spring Close"},"longitude":"-0.275915"},"context":"","outcome_status":{"category":"Investigation complete; no suspect identified","date":"2019-06"},"persistent_id":"71fc81cf05527fe6c8d0616d1725e0de36c54008c08ece36b9000c66260fd55e","id":75218655,"location_subtype":"","month":"2019-05"},{"category":"vehicle-crime","location_type":"Force","location":{"latitude":"51.654035","street":{"id":790118,"name":"On or near Cardinal Avenue"},"longitude":"-0.271241"},"context":"","outcome_status":{"category":"Investigation complete; no suspect identified","date":"2019-06"},"persistent_id":"988085f88dd436b0a268d1283ef9c8f8ab2bcdf7849140f4fa3fc9a777b79605","id":75217931,"location_subtype":"","month":"2019-05"},{"category":"vehicle-crime","location_type":"Force","location":{"latitude":"51.658306","street":{"id":790238,"name":"On or near Maxwell Road"},"longitude":"-0.267551"},"context":"","outcome_status":{"category":"Investigation complete; no suspect identified","date":"2019-08"},"persistent_id":"33eb2510c419636b92d82ecf220a0e5117232a794023d0c8de3c7d76c8f44407","id":75218053,"location_subtype":"","month":"2019-05"},{"category":"vehicle-crime","location_type":"Force","location":{"latitude":"51.652943","street":{"id":789125,"name":"On or near Goldfinch Way"},"longitude":"-0.276472"},"context":"","outcome_status":{"category":"Investigation complete; no suspect identified","date":"2019-06"},"persistent_id":"e006fdaaadb441f2d33f1e49e8ea166d007f003a557e4cb5c60244d4152504b8","id":75223491,"location_subtype":"","month":"2019-05"},{"category":"vehicle-crime","location_type":"Force","location":{"latitude":"51.651553","street":{"id":789121,"name":"On or near Shelley Close"},"longitude":"-0.276713"},"context":"","outcome_status":{"category":"Investigation complete; no suspect identified","date":"2019-06"},"persistent_id":"c5e74e840b6e087533d1768f71d9b92d874b1d4cc47714180bcda1708d84786c","id":75211199,"location_subtype":"","month":"2019-05"},{"category":"vehicle-crime","location_type":"Force","location":{"latitude":"51.663618","street":{"id":790110,"name":"On or near Tudor Court"},"longitude":"-0.290758"},"context":"","outcome_status":{"category":"Unable to prosecute suspect","date":"2019-06"},"persistent_id":"bc797c9cafee547cd4581b864091befce17cfbda54c24f9adf99676bfca7abc2","id":75216618,"location_subtype":"","month":"2019-05"},{"category":"vehicle-crime","location_type":"Force","location":{"latitude":"51.659038","street":{"id":790139,"name":"On or near Shenley Road"},"longitude":"-0.270241"},"context":"","outcome_status":{"category":"Investigation complete; no suspect identified","date":"2019-06"},"persistent_id":"b43862ab08749b77d7c9a66bee611444d74ce2cb6b9db1dcd73d015602d3296f","id":75215774,"location_subtype":"","month":"2019-05"},{"category":"vehicle-crime","location_type":"Force","location":{"latitude":"51.662124","street":{"id":790191,"name":"On or near Beechfield Close"},"longitude":"-0.289368"},"context":"","outcome_status":{"category":"Unable to prosecute suspect","date":"2019-06"},"persistent_id":"4b138027bfc2242b68cc2e6bbf69ed0b572cfef0f201dc543a8315b7f24be0c8","id":75218762,"location_subtype":"","month":"2019-05"},{"category":"vehicle-crime","location_type":"Force","location":{"latitude":"51.657380","street":{"id":790153,"name":"On or near Petrol Station"},"longitude":"-0.271229"},"context":"","outcome_status":{"category":"Investigation complete; no suspect identified","date":"2019-07"},"persistent_id":"17346fa5149806faa7da1a570d6b3b4b96332ab64843fccc373cab3540f3bc33","id":75223508,"location_subtype":"","month":"2019-05"},{"category":"vehicle-crime","location_type":"Force","location":{"latitude":"51.662683","street":{"id":790148,"name":"On or near Broughinge Road"},"longitude":"-0.272329"},"context":"","outcome_status":{"category":"Investigation complete; no suspect identified","date":"2019-05"},"persistent_id":"c22f786b3b39375528998cd9d49943893fbbbeb5be077c268102a7396c106d3e","id":75199990,"location_subtype":"","month":"2019-05"},{"category":"vehicle-crime","location_type":"Force","location":{"latitude":"51.662683","street":{"id":790148,"name":"On or near Broughinge Road"},"longitude":"-0.272329"},"context":"","outcome_status":{"category":"Status update unavailable","date":"2019-09"},"persistent_id":"b5965f098bc2027977d5bfff9a4af12e7695bb4f18867c339bdcabda7fe04563","id":75216621,"location_subtype":"","month":"2019-05"},{"category":"violent-crime","location_type":"Force","location":{"latitude":"51.664869","street":{"id":790182,"name":"On or near Fairburn Close"},"longitude":"-0.279071"},"context":"","outcome_status":{"category":"Investigation complete; no suspect identified","date":"2019-08"},"persistent_id":"85bef6df48fbf3abb175214310a42c1ef43c00215e5f7de6a719047e55e62767","id":75217772,"location_subtype":"","month":"2019-05"},{"category":"violent-crime","location_type":"Force","location":{"latitude":"51.667164","street":{"id":790302,"name":"On or near Leeming Road"},"longitude":"-0.282339"},"context":"","outcome_status":{"category":"Action to be taken by another organisation","date":"2019-05"},"persistent_id":"54d2570fc0a9adac780999170d6075fcb559e7dc095f2361e93aba91b2cc491e","id":75214771,"location_subtype":"","month":"2019-05"},{"category":"violent-crime","location_type":"Force","location":{"latitude":"51.660350","street":{"id":790277,"name":"On or near Parking Area"},"longitude":"-0.267140"},"context":"","outcome_status":{"category":"Unable to prosecute suspect","date":"2019-05"},"persistent_id":"18699fb24ae9941ff22b05f14653f30bf151cab6abb0aaf1cc2b1e7a0d717e40","id":75205660,"location_subtype":"","month":"2019-05"},{"category":"violent-crime","location_type":"Force","location":{"latitude":"51.659363","street":{"id":790149,"name":"On or near Brook Close"},"longitude":"-0.271530"},"context":"","outcome_status":{"category":"Unable to prosecute suspect","date":"2019-05"},"persistent_id":"6c68afb4188ae227d876bf91d8b1558bdbada252f12b548e83bae9b88b7b3672","id":75213895,"location_subtype":"","month":"2019-05"},{"category":"violent-crime","location_type":"Force","location":{"latitude":"51.649770","street":{"id":789044,"name":"On or near Graveley Avenue"},"longitude":"-0.264364"},"context":"","outcome_status":{"category":"Investigation complete; no suspect identified","date":"2019-06"},"persistent_id":"bba95d8e1d85b4a41b727ba6f0005c4601c0be35cda14851c7040900c30530d0","id":75209993,"location_subtype":"","month":"2019-05"},{"category":"violent-crime","location_type":"Force","location":{"latitude":"51.650638","street":{"id":789042,"name":"On or near Kimbolton Green"},"longitude":"-0.263434"},"context":"","outcome_status":{"category":"Unable to prosecute suspect","date":"2019-05"},"persistent_id":"9d658ae8e285f8a04bce9420bb018555cfec8befc8f58b8b4941a1144afaca59","id":75207042,"location_subtype":"","month":"2019-05"},{"category":"violent-crime","location_type":"Force","location":{"latitude":"51.650638","street":{"id":789042,"name":"On or near Kimbolton Green"},"longitude":"-0.263434"},"context":"","outcome_status":{"category":"Unable to prosecute suspect","date":"2019-05"},"persistent_id":"3f329f75d0e8194a98ab6700de9fa1065cf97f9ae0b03ef0eedfbcfd7a0838dc","id":75207046,"location_subtype":"","month":"2019-05"},{"category":"violent-crime","location_type":"Force","location":{"latitude":"51.656750","street":{"id":790121,"name":"On or near Parking Area"},"longitude":"-0.275489"},"context":"","outcome_status":{"category":"Unable to prosecute suspect","date":"2019-05"},"persistent_id":"60a98f68327604ccc7087a56c3a3ec1f7241a3e07246bc8a8e8df9d9783ab44b","id":75207269,"location_subtype":"","month":"2019-05"},{"category":"violent-crime","location_type":"Force","location":{"latitude":"51.659936","street":{"id":790133,"name":"On or near Badminton Close"},"longitude":"-0.277508"},"context":"","outcome_status":{"category":"Unable to prosecute suspect","date":"2019-05"},"persistent_id":"04d1da92b05bbe18d4058797b4da49bfb60c1827450633333dc6842c60287f0b","id":75207275,"location_subtype":"","month":"2019-05"},{"category":"violent-crime","location_type":"Force","location":{"latitude":"51.666054","street":{"id":790151,"name":"On or near Bradbury Close"},"longitude":"-0.272866"},"context":"","outcome_status":{"category":"Unable to prosecute suspect","date":"2019-05"},"persistent_id":"a6cd1eec9cc4cbcf2fda136aaa4ed058f7a75030b544f0c6a3eba13fd5124d82","id":75207368,"location_subtype":"","month":"2019-05"},{"category":"violent-crime","location_type":"Force","location":{"latitude":"51.663006","street":{"id":790157,"name":"On or near The Pines"},"longitude":"-0.286993"},"context":"","outcome_status":{"category":"Unable to prosecute suspect","date":"2019-05"},"persistent_id":"5d3a9277063147961b1d58b22b255d2d1efb230cf40e959abd94e61c3d277199","id":75208469,"location_subtype":"","month":"2019-05"},{"category":"violent-crime","location_type":"Force","location":{"latitude":"51.661403","street":{"id":790131,"name":"On or near Canterbury Road"},"longitude":"-0.275182"},"context":"","outcome_status":{"category":"Unable to prosecute suspect","date":"2019-05"},"persistent_id":"9bbd58801ee7c108e06e0615aeaeaa458a3afdb1edf26affe67bfb66cfcf58c7","id":75209045,"location_subtype":"","month":"2019-05"},{"category":"violent-crime","location_type":"Force","location":{"latitude":"51.653803","street":{"id":790119,"name":"On or near Almond Way"},"longitude":"-0.272594"},"context":"","outcome_status":{"category":"Unable to prosecute suspect","date":"2019-05"},"persistent_id":"80d9ea11745061e2f18dba4f300fcab73556b6d57bef923b14d5ad1b3be985b5","id":75209355,"location_subtype":"","month":"2019-05"},{"category":"violent-crime","location_type":"Force","location":{"latitude":"51.653803","street":{"id":790119,"name":"On or near Almond Way"},"longitude":"-0.272594"},"context":"","outcome_status":{"category":"Unable to prosecute suspect","date":"2019-05"},"persistent_id":"f88c45a6f2b4b42022df14711773da1ac654119c78edd81f1b054b981b048f80","id":75209376,"location_subtype":"","month":"2019-05"},{"category":"violent-crime","location_type":"Force","location":{"latitude":"51.651135","street":{"id":789057,"name":"On or near Arundel Drive"},"longitude":"-0.261189"},"context":"","outcome_status":{"category":"Unable to prosecute suspect","date":"2019-06"},"persistent_id":"479e436583e59334d4fe5d53c41bc64b9aa22aa492bde9f4c67ddc3b7a650289","id":75200334,"location_subtype":"","month":"2019-05"},{"category":"violent-crime","location_type":"Force","location":{"latitude":"51.661386","street":{"id":790134,"name":"On or near Aberford Road"},"longitude":"-0.277077"},"context":"","outcome_status":{"category":"Unable to prosecute suspect","date":"2019-05"},"persistent_id":"c496621242891325522f9b878c5acca19d127764035fffaab9a8972813a7a986","id":75210930,"location_subtype":"","month":"2019-05"},{"category":"violent-crime","location_type":"Force","location":{"latitude":"51.661386","street":{"id":790134,"name":"On or near Aberford Road"},"longitude":"-0.277077"},"context":"","outcome_status":{"category":"Unable to prosecute suspect","date":"2019-05"},"persistent_id":"51f18335bd9ca8fa93332897ad216545797db2f07dd470c8147319fa451b024c","id":75210942,"location_subtype":"","month":"2019-05"},{"category":"violent-crime","location_type":"Force","location":{"latitude":"51.661386","street":{"id":790134,"name":"On or near Aberford Road"},"longitude":"-0.277077"},"context":"","outcome_status":{"category":"Unable to prosecute suspect","date":"2019-06"},"persistent_id":"0f45b64cef138e638618be6f7b806cba07e7b1468f26154c0d744b97317f7ff2","id":75219788,"location_subtype":"","month":"2019-05"},{"category":"violent-crime","location_type":"Force","location":{"latitude":"51.655688","street":{"id":790155,"name":"On or near Supermarket"},"longitude":"-0.269328"},"context":"","outcome_status":{"category":"Investigation complete; no suspect identified","date":"2019-05"},"persistent_id":"8eb4cdcd48e3fec756da076a8104281fc3c6833b73ea01a362e8b53546e6a259","id":75200362,"location_subtype":"","month":"2019-05"},{"category":"violent-crime","location_type":"Force","location":{"latitude":"51.655688","street":{"id":790155,"name":"On or near Supermarket"},"longitude":"-0.269328"},"context":"","outcome_status":{"category":"Unable to prosecute suspect","date":"2019-06"},"persistent_id":"8e518f5e846549f642b5bea7b240e8dac5a710fc8cafb3756c1efa431f1b28f0","id":75214004,"location_subtype":"","month":"2019-05"},{"category":"violent-crime","location_type":"Force","location":{"latitude":"51.655688","street":{"id":790155,"name":"On or near Supermarket"},"longitude":"-0.269328"},"context":"","outcome_status":{"category":"Unable to prosecute suspect","date":"2019-06"},"persistent_id":"129b9fb131e8f251ce7891a839a1d85cb2df231bf8ff248acc49bb6885cce0dc","id":75214035,"location_subtype":"","month":"2019-05"},{"category":"violent-crime","location_type":"Force","location":{"latitude":"51.654929","street":{"id":790180,"name":"On or near Glenhaven Avenue"},"longitude":"-0.279476"},"context":"","outcome_status":{"category":"Investigation complete; no suspect identified","date":"2019-06"},"persistent_id":"81361b27bcaedbd552ed3b78f83da9ca5bb404aa01cd37d90d84410792a6ffec","id":75215123,"location_subtype":"","month":"2019-05"},{"category":"violent-crime","location_type":"Force","location":{"latitude":"51.654217","street":{"id":790158,"name":"On or near Parking Area"},"longitude":"-0.280573"},"context":"","outcome_status":{"category":"Court result unavailable","date":"2019-11"},"persistent_id":"daaa685d178d44cda4a3939a2b592a0a66946e4c13b99c70878d3c285f1fd2b5","id":75206850,"location_subtype":"","month":"2019-05"},{"category":"violent-crime","location_type":"Force","location":{"latitude":"51.652959","street":{"id":789130,"name":"On or near Brownlow Road"},"longitude":"-0.275127"},"context":"","outcome_status":{"category":"Unable to prosecute suspect","date":"2019-06"},"persistent_id":"b6aa45a6c39701ea2f74c220abb2e967ba624b2d4191fb027850d2ea14b3d0c3","id":75217600,"location_subtype":"","month":"2019-05"},{"category":"violent-crime","location_type":"Force","location":{"latitude":"51.657873","street":{"id":790126,"name":"On or near Malden Road"},"longitude":"-0.277239"},"context":"","outcome_status":{"category":"Unable to prosecute suspect","date":"2020-06"},"persistent_id":"5a5cb70e6eeb59dcde97217e60315bbb03ea9422b789221db450744fb5e6022f","id":75217809,"location_subtype":"","month":"2019-05"},{"category":"violent-crime","location_type":"Force","location":{"latitude":"51.652542","street":{"id":789032,"name":"On or near Woodlands Close"},"longitude":"-0.267583"},"context":"","outcome_status":{"category":"Action to be taken by another organisation","date":"2019-07"},"persistent_id":"645c1aee7eb7fda40eeb2e55ccbe7e6eced061992861b8728aca675ccf2a2404","id":75209638,"location_subtype":"","month":"2019-05"},{"category":"violent-crime","location_type":"Force","location":{"latitude":"51.652542","street":{"id":789032,"name":"On or near Woodlands Close"},"longitude":"-0.267583"},"context":"","outcome_status":{"category":"Action to be taken by another organisation","date":"2019-07"},"persistent_id":"ce4b5d7dd348f5ecd1aa7c093587f6aac4393cfa3b000d1af58b6ebe03dcd3e4","id":75209745,"location_subtype":"","month":"2019-05"},{"category":"violent-crime","location_type":"Force","location":{"latitude":"51.653093","street":{"id":790270,"name":"On or near Thornbury Gardens"},"longitude":"-0.262256"},"context":"","outcome_status":{"category":"Unable to prosecute suspect","date":"2019-08"},"persistent_id":"c622e2f48c1cf753c69fa289a617ecee64aa43a4bd1fd932e86194540c98843d","id":75203344,"location_subtype":"","month":"2019-05"},{"category":"violent-crime","location_type":"Force","location":{"latitude":"51.656715","street":{"id":790265,"name":"On or near Armstrong Close"},"longitude":"-0.260339"},"context":"","outcome_status":{"category":"Unable to prosecute suspect","date":"2019-08"},"persistent_id":"2ef5860cea34fce84bbe75e93ca6425fa8c9f2f6d9c7a9e85d7e6ee2f303375d","id":75203320,"location_subtype":"","month":"2019-05"},{"category":"violent-crime","location_type":"Force","location":{"latitude":"51.655688","street":{"id":790155,"name":"On or near Supermarket"},"longitude":"-0.269328"},"context":"","outcome_status":{"category":"Unable to prosecute suspect","date":"2020-01"},