[{"category":"anti-social-behaviour","location_type":"Force","location":{"latitude":"51.347365","street":{"id":1156522,"name":"On or near Ewell House Grove"},"longitude":"-0.251072"},"context":"","outcome_status":null,"persistent_id":"","id":74500000,"location_subtype":"","month":"2019-05"},{"category":"anti-social-behaviour","location_type":"Force","location":{"latitude":"51.354238","street":{"id":1156671,"name":"On or near Ewell By-pass"},"longitude":"-0.245855"},"context":"","outcome_status":null,"persistent_id":"","id":74502454,"location_subtype":"","month":"2019-05"},{"category":"anti-social-behaviour","location_type":"Force","location":{"latitude":"51.340724","street":{"id":1156564,"name":"On or near Kiln Lane"},"longitude":"-0.259221"},"context":"","outcome_status":null,"persistent_id":"","id":74491994,"location_subtype":"","month":"2019-05"},{"category":"anti-social-behaviour","location_type":"Force","location":{"latitude":"51.354184","street":{"id":1156653,"name":"On or near Eastcroft Road"},"longitude":"-0.257246"},"context":"","outcome_status":null,"persistent_id":"","id":74491376,"location_subtype":"","month":"2019-05"},{"category":"anti-social-behaviour","location_type":"Force","location":{"latitude":"51.354184","street":{"id":1156653,"name":"On or near Eastcroft Road"},"longitude":"-0.257246"},"context":"","outcome_status":null,"persistent_id":"","id":74492680,"location_subtype":"","month":"2019-05"},{"category":"anti-social-behaviour","location_type":"Force","location":{"latitude":"51.354184","street":{"id":1156653,"name":"On or near Eastcroft Road"},"longitude":"-0.257246"},"context":"","outcome_status":null,"persistent_id":"","id":74492785,"location_subtype":"","month":"2019-05"},{"category":"anti-social-behaviour","location_type":"Force","location":{"latitude":"51.354184","street":{"id":1156653,"name":"On or near Eastcroft Road"},"longitude":"-0.257246"},"context":"","outcome_status":null,"persistent_id":"","id":74492801,"location_subtype":"","month":"2019-05"},{"category":"anti-social-behaviour","location_type":"Force","location":{"latitude":"51.348916","street":{"id":1156755,"name":"On or near Revere Way"},"longitude":"-0.259198"},"context":"","outcome_status":null,"persistent_id":"","id":74501760,"location_subtype":"","month":"2019-05"},{"category":"anti-social-behaviour","location_type":"Force","location":{"latitude":"51.354184","street":{"id":1156653,"name":"On or near Eastcroft Road"},"longitude":"-0.257246"},"context":"","outcome_status":null,"persistent_id":"","id":74493380,"location_subtype":"","month":"2019-05"},{"category":"anti-social-behaviour","location_type":"Force","location":{"latitude":"51.346454","street":{"id":1156415,"name":"On or near Bishopsmead Close"},"longitude":"-0.264188"},"context":"","outcome_status":null,"persistent_id":"","id":74491949,"location_subtype":"","month":"2019-05"},{"category":"anti-social-behaviour","location_type":"Force","location":{"latitude":"51.339004","street":{"id":1156465,"name":"On or near Stone's Road"},"longitude":"-0.261497"},"context":"","outcome_status":null,"persistent_id":"","id":74491984,"location_subtype":"","month":"2019-05"},{"category":"anti-social-behaviour","location_type":"Force","location":{"latitude":"51.350670","street":{"id":1156709,"name":"On or near Chessington Road"},"longitude":"-0.253775"},"context":"","outcome_status":null,"persistent_id":"","id":74495000,"location_subtype":"","month":"2019-05"},{"category":"anti-social-behaviour","location_type":"Force","location":{"latitude":"51.339107","street":{"id":1156476,"name":"On or near Farriers Close"},"longitude":"-0.260517"},"context":"","outcome_status":null,"persistent_id":"","id":74495018,"location_subtype":"","month":"2019-05"},{"category":"anti-social-behaviour","location_type":"Force","location":{"latitude":"51.338571","street":{"id":1156563,"name":"On or near Middle Lane"},"longitude":"-0.258972"},"context":"","outcome_status":null,"persistent_id":"","id":74495025,"location_subtype":"","month":"2019-05"},{"category":"anti-social-behaviour","location_type":"Force","location":{"latitude":"51.357361","street":{"id":1156659,"name":"On or near Ewell Park Way"},"longitude":"-0.245420"},"context":"","outcome_status":null,"persistent_id":"","id":74506082,"location_subtype":"","month":"2019-05"},{"category":"anti-social-behaviour","location_type":"Force","location":{"latitude":"51.350670","street":{"id":1156709,"name":"On or near Chessington Road"},"longitude":"-0.253775"},"context":"","outcome_status":null,"persistent_id":"","id":74495388,"location_subtype":"","month":"2019-05"},{"category":"anti-social-behaviour","location_type":"Force","location":{"latitude":"51.354849","street":{"id":1144908,"name":"On or near Sports\/recreation Area"},"longitude":"-0.227879"},"context":"","outcome_status":null,"persistent_id":"","id":74491374,"location_subtype":"","month":"2019-05"},{"category":"anti-social-behaviour","location_type":"Force","location":{"latitude":"51.338853","street":{"id":1156562,"name":"On or near Hospital"},"longitude":"-0.257354"},"context":"","outcome_status":null,"persistent_id":"","id":74504895,"location_subtype":"","month":"2019-05"},{"category":"anti-social-behaviour","location_type":"Force","location":{"latitude":"51.334731","street":{"id":1154774,"name":"On or near Church Road"},"longitude":"-0.257151"},"context":"","outcome_status":null,"persistent_id":"","id":74504264,"location_subtype":"","month":"2019-05"},{"category":"anti-social-behaviour","location_type":"Force","location":{"latitude":"51.344656","street":{"id":1156515,"name":"On or near Nursery Close"},"longitude":"-0.257564"},"context":"","outcome_status":null,"persistent_id":"","id":74498906,"location_subtype":"","month":"2019-05"},{"category":"anti-social-behaviour","location_type":"Force","location":{"latitude":"51.348916","street":{"id":1156755,"name":"On or near Revere Way"},"longitude":"-0.259198"},"context":"","outcome_status":null,"persistent_id":"","id":74499496,"location_subtype":"","month":"2019-05"},{"category":"bicycle-theft","location_type":"Force","location":{"latitude":"51.342039","street":{"id":1156529,"name":"On or near Petrol Station"},"longitude":"-0.257520"},"context":"","outcome_status":{"category":"Investigation complete; no suspect identified","date":"2019-05"},"persistent_id":"a92dc5b2216b6c44d70a99cb5f855fefe993759e968cd0f89c3156082c3a6f0e","id":74501107,"location_subtype":"","month":"2019-05"},{"category":"bicycle-theft","location_type":"Force","location":{"latitude":"51.352533","street":{"id":1156771,"name":"On or near Green Lanes"},"longitude":"-0.259908"},"context":"","outcome_status":{"category":"Investigation complete; no suspect identified","date":"2019-06"},"persistent_id":"74678908587e4b2eb18d585e12911ebed378bffc08fe27b1064410ffe7261e19","id":74505174,"location_subtype":"","month":"2019-05"},{"category":"bicycle-theft","location_type":"Force","location":{"latitude":"51.344982","street":{"id":1156405,"name":"On or near Longmead Road"},"longitude":"-0.263755"},"context":"","outcome_status":{"category":"Investigation complete; no suspect identified","date":"2019-05"},"persistent_id":"812c411fd890f52ae70b5a8977be7e9d3e500362835e1db42056f158f6510cfb","id":74492921,"location_subtype":"","month":"2019-05"},{"category":"bicycle-theft","location_type":"Force","location":{"latitude":"51.340724","street":{"id":1156564,"name":"On or near Kiln Lane"},"longitude":"-0.259221"},"context":"","outcome_status":{"category":"Investigation complete; no suspect identified","date":"2019-05"},"persistent_id":"f5ab8c33e70f097c57a7f643dae03edcb2594963a6213bd2b66d8b5001a5dba3","id":74493311,"location_subtype":"","month":"2019-05"},{"category":"bicycle-theft","location_type":"Force","location":{"latitude":"51.342039","street":{"id":1156529,"name":"On or near Petrol Station"},"longitude":"-0.257520"},"context":"","outcome_status":{"category":"Investigation complete; no suspect identified","date":"2019-05"},"persistent_id":"46674a8309b48bf1b2e3224a214b050e4fbcb70c4d2582a5a901a408fc74d748","id":74494922,"location_subtype":"","month":"2019-05"},{"category":"bicycle-theft","location_type":"Force","location":{"latitude":"51.337756","street":{"id":1156470,"name":"On or near Linton's Lane"},"longitude":"-0.260425"},"context":"","outcome_status":{"category":"Investigation complete; no suspect identified","date":"2019-05"},"persistent_id":"e0bf0f47f8ab8ed09ee4dbceca062c8327f13dd3e116d6dcd200f3e6e022dbe0","id":74500624,"location_subtype":"","month":"2019-05"},{"category":"bicycle-theft","location_type":"Force","location":{"latitude":"51.342039","street":{"id":1156529,"name":"On or near Petrol Station"},"longitude":"-0.257520"},"context":"","outcome_status":{"category":"Investigation complete; no suspect identified","date":"2019-05"},"persistent_id":"1a964dca4fbff3f727f2cfa1903b7ce2baa25cfebbc76a7a3289dc54d7628d41","id":74503577,"location_subtype":"","month":"2019-05"},{"category":"bicycle-theft","location_type":"BTP","location":{"latitude":"51.350500","street":{"id":1487959,"name":"Ewell West (station)"},"longitude":"-0.256838"},"context":"","outcome_status":{"category":"Status update unavailable","date":"2019-09"},"persistent_id":"","id":88719078,"location_subtype":"STATION","month":"2019-05"},{"category":"bicycle-theft","location_type":"BTP","location":{"latitude":"51.350500","street":{"id":1487959,"name":"Ewell West (station)"},"longitude":"-0.256838"},"context":"","outcome_status":{"category":"Status update unavailable","date":"2019-09"},"persistent_id":"","id":88719077,"location_subtype":"STATION","month":"2019-05"},{"category":"bicycle-theft","location_type":"BTP","location":{"latitude":"51.350500","street":{"id":1487959,"name":"Ewell West (station)"},"longitude":"-0.256838"},"context":"","outcome_status":{"category":"Status update unavailable","date":"2019-09"},"persistent_id":"","id":88719076,"location_subtype":"STATION","month":"2019-05"},{"category":"bicycle-theft","location_type":"BTP","location":{"latitude":"51.350500","street":{"id":1487959,"name":"Ewell West (station)"},"longitude":"-0.256838"},"context":"","outcome_status":{"category":"Status update unavailable","date":"2019-09"},"persistent_id":"","id":88719075,"location_subtype":"STATION","month":"2019-05"},{"category":"bicycle-theft","location_type":"BTP","location":{"latitude":"51.350500","street":{"id":1487959,"name":"Ewell West (station)"},"longitude":"-0.256838"},"context":"","outcome_status":{"category":"Status update unavailable","date":"2019-09"},"persistent_id":"","id":88719074,"location_subtype":"STATION","month":"2019-05"},{"category":"bicycle-theft","location_type":"BTP","location":{"latitude":"51.350500","street":{"id":1487959,"name":"Ewell West (station)"},"longitude":"-0.256838"},"context":"","outcome_status":{"category":"Status update unavailable","date":"2019-09"},"persistent_id":"","id":88719073,"location_subtype":"STATION","month":"2019-05"},{"category":"bicycle-theft","location_type":"BTP","location":{"latitude":"51.350500","street":{"id":1487959,"name":"Ewell West (station)"},"longitude":"-0.256838"},"context":"","outcome_status":{"category":"Status update unavailable","date":"2019-09"},"persistent_id":"","id":88719072,"location_subtype":"STATION","month":"2019-05"},{"category":"burglary","location_type":"Force","location":{"latitude":"51.341955","street":{"id":1156500,"name":"On or near Weston Road"},"longitude":"-0.258543"},"context":"","outcome_status":{"category":"Investigation complete; no suspect identified","date":"2019-05"},"persistent_id":"d02e3bc6fc7d19cb56be14cd31a73002424b537d0028afa2ac83ec6f6f680419","id":74502373,"location_subtype":"","month":"2019-05"},{"category":"burglary","location_type":"Force","location":{"latitude":"51.350400","street":{"id":1156694,"name":"On or near Parking Area"},"longitude":"-0.256786"},"context":"","outcome_status":{"category":"Investigation complete; no suspect identified","date":"2019-06"},"persistent_id":"a2c12042a375862666409505363a691b6229ac1a7e65c7bc4f23cb0013757c7c","id":74507740,"location_subtype":"","month":"2019-05"},{"category":"burglary","location_type":"Force","location":{"latitude":"51.341955","street":{"id":1156500,"name":"On or near Weston Road"},"longitude":"-0.258543"},"context":"","outcome_status":{"category":"Investigation complete; no suspect identified","date":"2019-05"},"persistent_id":"3d2eecda441f9385e16ff994d089fd6da85c40a1719f92973d221208fbe06104","id":74502368,"location_subtype":"","month":"2019-05"},{"category":"burglary","location_type":"Force","location":{"latitude":"51.338322","street":{"id":1156604,"name":"On or near Banstead Road"},"longitude":"-0.230943"},"context":"","outcome_status":{"category":"Status update unavailable","date":"2019-09"},"persistent_id":"a47e82d4b3d958dfc2327dec65b07e97ce17a6d34e9666175e5b2f02ccb612d7","id":74339169,"location_subtype":"","month":"2019-05"},{"category":"criminal-damage-arson","location_type":"Force","location":{"latitude":"51.337079","street":{"id":1156566,"name":"On or near The Green"},"longitude":"-0.246984"},"context":"","outcome_status":{"category":"Investigation complete; no suspect identified","date":"2019-05"},"persistent_id":"6d342f9322d5a04db0c1698b6ed8916acb0c5d12b512870305651bd1530fa003","id":74498844,"location_subtype":"","month":"2019-05"},{"category":"criminal-damage-arson","location_type":"Force","location":{"latitude":"51.352764","street":{"id":1156699,"name":"On or near St Mary's Close"},"longitude":"-0.249487"},"context":"","outcome_status":{"category":"Investigation complete; no suspect identified","date":"2019-05"},"persistent_id":"3ccc164f5ce4c3bbdb65f5da8210fb394376930dabb73978dd9ad629acf37e93","id":74501774,"location_subtype":"","month":"2019-05"},{"category":"criminal-damage-arson","location_type":"Force","location":{"latitude":"51.345129","street":{"id":1156598,"name":"On or near Cheam Road"},"longitude":"-0.234457"},"context":"","outcome_status":{"category":"Unable to prosecute suspect","date":"2019-06"},"persistent_id":"51a6a48258e2f7026fd045a8033c8987f94667ab93a77ca13b1c97bf85654afc","id":74507149,"location_subtype":"","month":"2019-05"},{"category":"criminal-damage-arson","location_type":"Force","location":{"latitude":"51.337079","street":{"id":1156566,"name":"On or near The Green"},"longitude":"-0.246984"},"context":"","outcome_status":{"category":"Investigation complete; no suspect identified","date":"2019-07"},"persistent_id":"557527b8401ad4169fe4d1f7e222bbf3c62348899e6456040ec86f34408cc1fa","id":74501091,"location_subtype":"","month":"2019-05"},{"category":"criminal-damage-arson","location_type":"Force","location":{"latitude":"51.346802","street":{"id":1156488,"name":"On or near Seymour Mews"},"longitude":"-0.246455"},"context":"","outcome_status":{"category":"Investigation complete; no suspect identified","date":"2019-05"},"persistent_id":"4c42ea20c749b8f6c635901e88196b5106bf4204429d4871d9ff68c2616d28c8","id":74508289,"location_subtype":"","month":"2019-05"},{"category":"criminal-damage-arson","location_type":"BTP","location":{"latitude":"51.350500","street":{"id":1487959,"name":"Ewell West (station)"},"longitude":"-0.256838"},"context":"","outcome_status":{"category":"Status update unavailable","date":"2019-09"},"persistent_id":"","id":88719069,"location_subtype":"STATION","month":"2019-05"},{"category":"criminal-damage-arson","location_type":"Force","location":{"latitude":"51.347241","street":{"id":1156501,"name":"On or near West Street"},"longitude":"-0.254235"},"context":"","outcome_status":{"category":"Investigation complete; no suspect identified","date":"2019-05"},"persistent_id":"0fffc71fbff3376b620ec214e2a7fc06a35fc447b4ee6c7065ba8839be068f1d","id":74497713,"location_subtype":"","month":"2019-05"},{"category":"criminal-damage-arson","location_type":"Force","location":{"latitude":"51.352457","street":{"id":1156701,"name":"On or near Mill Lane"},"longitude":"-0.250030"},"context":"","outcome_status":{"category":"Investigation complete; no suspect identified","date":"2019-05"},"persistent_id":"d00097c0288725c3cbedf643be59447ef3a84d065818cc26adb1372d6ec1a00b","id":74501112,"location_subtype":"","month":"2019-05"},{"category":"criminal-damage-arson","location_type":"Force","location":{"latitude":"51.350670","street":{"id":1156709,"name":"On or near Chessington Road"},"longitude":"-0.253775"},"context":"","outcome_status":{"category":"Investigation complete; no suspect identified","date":"2019-05"},"persistent_id":"35ff79cf6efe241860e055ab6ba836f6c0a057a1870a0157670f5a6a0a0fadc4","id":74495703,"location_subtype":"","month":"2019-05"},{"category":"drugs","location_type":"Force","location":{"latitude":"51.348967","street":{"id":1156754,"name":"On or near Somerset Close"},"longitude":"-0.263877"},"context":"","outcome_status":{"category":"Formal action is not in the public interest","date":"2019-06"},"persistent_id":"25fc6c32e49c3d73b49064109a2df20e6ba790dba3a1426ca9c35bd955813a08","id":74505872,"location_subtype":"","month":"2019-05"},{"category":"drugs","location_type":"Force","location":{"latitude":"51.352457","street":{"id":1156701,"name":"On or near Mill Lane"},"longitude":"-0.250030"},"context":"","outcome_status":{"category":"Court result unavailable","date":"2019-12"},"persistent_id":"491397d5861cce3a7cec084f6d6a4d859c7d73b24bfd0b2963f52593cff0f767","id":74495926,"location_subtype":"","month":"2019-05"},{"category":"other-theft","location_type":"Force","location":{"latitude":"51.345539","street":{"id":1156513,"name":"On or near Persfield Close"},"longitude":"-0.249246"},"context":"","outcome_status":{"category":"Unable to prosecute suspect","date":"2019-06"},"persistent_id":"4e52ddf901d5a92bd5c73921b315332e2776e3ebcb1712b057eaf15e6a400beb","id":74495932,"location_subtype":"","month":"2019-05"},{"category":"other-theft","location_type":"Force","location":{"latitude":"51.345589","street":{"id":1156602,"name":"On or near Barnard Place"},"longitude":"-0.232802"},"context":"","outcome_status":{"category":"Investigation complete; no suspect identified","date":"2019-05"},"persistent_id":"c2ce27be7eadc3d44461e2089e10d72c2ab5a271b55c776aa404044f749edca3","id":74504767,"location_subtype":"","month":"2019-05"},{"category":"other-theft","location_type":"Force","location":{"latitude":"51.354772","street":{"id":1156666,"name":"On or near London Road"},"longitude":"-0.244887"},"context":"","outcome_status":{"category":"Investigation complete; no suspect identified","date":"2019-05"},"persistent_id":"cdd5b43ade3235fd98314e6224b86b914ceb819b3ef9d4b4be320e6ba2329ebd","id":74497093,"location_subtype":"","month":"2019-05"},{"category":"other-theft","location_type":"Force","location":{"latitude":"51.345539","street":{"id":1156513,"name":"On or near Persfield Close"},"longitude":"-0.249246"},"context":"","outcome_status":{"category":"Unable to prosecute suspect","date":"2019-06"},"persistent_id":"a46e717b2d1a10353930472d441747c057e7291cd6ff5023a6c525a5efff6581","id":74495931,"location_subtype":"","month":"2019-05"},{"category":"other-theft","location_type":"Force","location":{"latitude":"51.344982","street":{"id":1156405,"name":"On or near Longmead Road"},"longitude":"-0.263755"},"context":"","outcome_status":{"category":"Investigation complete; no suspect identified","date":"2019-05"},"persistent_id":"03747be9f706846a0ee4350ed3e26426c045219ae83034caa95d9bee19d81d3b","id":74494894,"location_subtype":"","month":"2019-05"},{"category":"other-theft","location_type":"Force","location":{"latitude":"51.345539","street":{"id":1156513,"name":"On or near Persfield Close"},"longitude":"-0.249246"},"context":"","outcome_status":{"category":"Investigation complete; no suspect identified","date":"2019-05"},"persistent_id":"0f11c1affa6fd457124f23bebb7c6684bfe92155b457c06ea0544eb2a856ce04","id":74492650,"location_subtype":"","month":"2019-05"},{"category":"other-theft","location_type":"Force","location":{"latitude":"51.340724","street":{"id":1156564,"name":"On or near Kiln Lane"},"longitude":"-0.259221"},"context":"","outcome_status":{"category":"Further investigation is not in the public interest","date":"2019-07"},"persistent_id":"b426d1e9d2118a2b100b79b5a716db12b28cc074a0695978ba02951a1464164c","id":74506080,"location_subtype":"","month":"2019-05"},{"category":"other-theft","location_type":"Force","location":{"latitude":"51.346902","street":{"id":1156407,"name":"On or near Gibraltar Crescent"},"longitude":"-0.261672"},"context":"","outcome_status":{"category":"Investigation complete; no suspect identified","date":"2019-05"},"persistent_id":"ef1e3e5629151afc6c86f7abe8b0308342fe055161afbc52bf97b288a5e41a2a","id":74502370,"location_subtype":"","month":"2019-05"},{"category":"other-theft","location_type":"Force","location":{"latitude":"51.345539","street":{"id":1156513,"name":"On or near Persfield Close"},"longitude":"-0.249246"},"context":"","outcome_status":{"category":"Investigation complete; no suspect identified","date":"2019-05"},"persistent_id":"960ea7195c370f0f9c85af26911458a6b300e5f433df0e4923441fdeac8a2c38","id":74492613,"location_subtype":"","month":"2019-05"},{"category":"other-theft","location_type":"Force","location":{"latitude":"51.354772","street":{"id":1156666,"name":"On or near London Road"},"longitude":"-0.244887"},"context":"","outcome_status":{"category":"Investigation complete; no suspect identified","date":"2019-05"},"persistent_id":"85d86860863dca668fc5e2ab039b7cc35fde991e7e64d53e560ea0d61117c391","id":74498243,"location_subtype":"","month":"2019-05"},{"category":"other-theft","location_type":"Force","location":{"latitude":"51.345539","street":{"id":1156513,"name":"On or near Persfield Close"},"longitude":"-0.249246"},"context":"","outcome_status":{"category":"Investigation complete; no suspect identified","date":"2019-05"},"persistent_id":"1472b2def0365c6a646dd30ed3716c194e63261cff17bca95e34b3464f1a3ad7","id":74495929,"location_subtype":"","month":"2019-05"},{"category":"other-theft","location_type":"BTP","location":{"latitude":"51.350500","street":{"id":1487959,"name":"Ewell West (station)"},"longitude":"-0.256838"},"context":"","outcome_status":{"category":"Status update unavailable","date":"2019-09"},"persistent_id":"","id":88719070,"location_subtype":"STATION","month":"2019-05"},{"category":"other-theft","location_type":"Force","location":{"latitude":"51.345539","street":{"id":1156513,"name":"On or near Persfield Close"},"longitude":"-0.249246"},"context":"","outcome_status":{"category":"Investigation complete; no suspect identified","date":"2019-05"},"persistent_id":"9773b8e68182df29e9b605e685e3f01c759974445d095aac765912f9e2934cf7","id":74491901,"location_subtype":"","month":"2019-05"},{"category":"other-theft","location_type":"Force","location":{"latitude":"51.345539","street":{"id":1156513,"name":"On or near Persfield Close"},"longitude":"-0.249246"},"context":"","outcome_status":{"category":"Investigation complete; no suspect identified","date":"2019-05"},"persistent_id":"5f69f89f9a6b5049127cb6bac18ed3d56c9383e26f0be8fd58a57ab63a956485","id":74491895,"location_subtype":"","month":"2019-05"},{"category":"other-theft","location_type":"BTP","location":{"latitude":"51.350500","street":{"id":1487959,"name":"Ewell West (station)"},"longitude":"-0.256838"},"context":"","outcome_status":{"category":"Status update unavailable","date":"2019-09"},"persistent_id":"","id":88719071,"location_subtype":"STATION","month":"2019-05"},{"category":"other-theft","location_type":"Force","location":{"latitude":"51.345539","street":{"id":1156513,"name":"On or near Persfield Close"},"longitude":"-0.249246"},"context":"","outcome_status":{"category":"Investigation complete; no suspect identified","date":"2019-06"},"persistent_id":"25ba408511592d2f7a3bb6fd1e3736605fce44c49cab14a0a47abebec7b66b30","id":74507745,"location_subtype":"","month":"2019-05"},{"category":"possession-of-weapons","location_type":"Force","location":{"latitude":"51.345539","street":{"id":1156513,"name":"On or near Persfield Close"},"longitude":"-0.249246"},"context":"","outcome_status":{"category":"Court result unavailable","date":"2020-01"},"persistent_id":"92450fe5d7aa8e4c9116db8f3cfb76e798885249b8ffdbf3eb788fac93c59583","id":74499438,"location_subtype":"","month":"2019-05"},{"category":"public-order","location_type":"Force","location":{"latitude":"51.345539","street":{"id":1156513,"name":"On or near Persfield Close"},"longitude":"-0.249246"},"context":"","outcome_status":{"category":"Investigation complete; no suspect identified","date":"2019-05"},"persistent_id":"5c3ae769e73ced85de246539bc3d6d5c24f57889732c36c0a798f64c124800bb","id":74491892,"location_subtype":"","month":"2019-05"},{"category":"public-order","location_type":"Force","location":{"latitude":"51.348281","street":{"id":1156495,"name":"On or near Cheam Road"},"longitude":"-0.247949"},"context":"","outcome_status":{"category":"Investigation complete; no suspect identified","date":"2019-05"},"persistent_id":"6ec4689c8c71c770ec2bf77a3872775154425db5fda12bbae9c59e514a0c7cb3","id":74503563,"location_subtype":"","month":"2019-05"},{"category":"public-order","location_type":"Force","location":{"latitude":"51.348064","street":{"id":1156518,"name":"On or near High Street"},"longitude":"-0.249709"},"context":"","outcome_status":{"category":"Investigation complete; no suspect identified","date":"2019-05"},"persistent_id":"e173e61a03ee0ccab1a80389223231692bd0a690ac9ec54d4f759b1e3027d046","id":74493307,"location_subtype":"","month":"2019-05"},{"category":"shoplifting","location_type":"Force","location":{"latitude":"51.342039","street":{"id":1156529,"name":"On or near Petrol Station"},"longitude":"-0.257520"},"context":"","outcome_status":{"category":"Court result unavailable","date":"2020-03"},"persistent_id":"1fe7caeb5bf1b99917d8dbc49fab0c7d90df31435409c72b662896e49392445b","id":74495364,"location_subtype":"","month":"2019-05"},{"category":"shoplifting","location_type":"Force","location":{"latitude":"51.348064","street":{"id":1156518,"name":"On or near High Street"},"longitude":"-0.249709"},"context":"","outcome_status":{"category":"Investigation complete; no suspect identified","date":"2019-05"},"persistent_id":"b720f758d3f2dd17efdcc6f8024b8af78f21957d50a35a09d5ef009c8a349061","id":74493309,"location_subtype":"","month":"2019-05"},{"category":"theft-from-the-person","location_type":"Force","location":{"latitude":"51.349650","street":{"id":1156768,"name":"On or near Longmead Road"},"longitude":"-0.262028"},"context":"","outcome_status":{"category":"Investigation complete; no suspect identified","date":"2019-06"},"persistent_id":"8cc1a39ec3ec5ea7e0d043a75e49f7c54d03f249f9dfa1e88d767f23b8ac09bd","id":74507513,"location_subtype":"","month":"2019-05"},{"category":"vehicle-crime","location_type":"Force","location":{"latitude":"51.349433","street":{"id":1156706,"name":"On or near Garbrand Walk"},"longitude":"-0.251625"},"context":"","outcome_status":{"category":"Investigation complete; no suspect identified","date":"2019-05"},"persistent_id":"6eb7d887778d565ec61a7dd11508e918b84986bcb6ac9fa5f54c5c067bb86d65","id":74508299,"location_subtype":"","month":"2019-05"},{"category":"vehicle-crime","location_type":"Force","location":{"latitude":"51.342161","street":{"id":1156499,"name":"On or near Sports\/recreation Area"},"longitude":"-0.242267"},"context":"","outcome_status":{"category":"Investigation complete; no suspect identified","date":"2019-05"},"persistent_id":"8498ab61335ad000a935764e9daf7fb6f94b8d74eb9b3a5feaaba6c19e323192","id":74491899,"location_subtype":"","month":"2019-05"},{"category":"vehicle-crime","location_type":"Force","location":{"latitude":"51.348064","street":{"id":1156518,"name":"On or near High Street"},"longitude":"-0.249709"},"context":"","outcome_status":{"category":"Investigation complete; no suspect identified","date":"2019-05"},"persistent_id":"80c777fba074c49434afd54414e1f623926404b43164bd0a227acd411d000507","id":74509045,"location_subtype":"","month":"2019-05"},{"category":"vehicle-crime","location_type":"Force","location":{"latitude":"51.344982","street":{"id":1156405,"name":"On or near Longmead Road"},"longitude":"-0.263755"},"context":"","outcome_status":{"category":"Investigation complete; no suspect identified","date":"2019-05"},"persistent_id":"b4a13a66164ea2c873c9a3a1d7761bb99010ace0a34ce0a067d45335f7e63054","id":74498492,"location_subtype":"","month":"2019-05"},{"category":"vehicle-crime","location_type":"Force","location":{"latitude":"51.351964","street":{"id":1156693,"name":"On or near Meadowview Road"},"longitude":"-0.258551"},"context":"","outcome_status":{"category":"Investigation complete; no suspect identified","date":"2019-05"},"persistent_id":"7edeb2a57c0d2e7951861a171cb3d9a9b60af86af78fde496b6e39140d49bd68","id":74499963,"location_subtype":"","month":"2019-05"},{"category":"vehicle-crime","location_type":"Force","location":{"latitude":"51.357052","street":{"id":1156662,"name":"On or near The Avenue"},"longitude":"-0.240361"},"context":"","outcome_status":{"category":"Investigation complete; no suspect identified","date":"2019-05"},"persistent_id":"072702d67b12a064cdc15e87b1c5117ea71c00ca73fa46081ff5fca83ca6f5b8","id":74496486,"location_subtype":"","month":"2019-05"},{"category":"violent-crime","location_type":"Force","location":{"latitude":"51.336508","street":{"id":1156471,"name":"On or near Linden Place"},"longitude":"-0.259912"},"context":"","outcome_status":{"category":"Status update unavailable","date":"2019-09"},"persistent_id":"17faa83f6cc4f80f6b7bf961dd18bf32c603bff70ce26507f9ff817112ad5e2f","id":74497706,"location_subtype":"","month":"2019-05"},{"category":"violent-crime","location_type":"Force","location":{"latitude":"51.345129","street":{"id":1156598,"name":"On or near Cheam Road"},"longitude":"-0.234457"},"context":"","outcome_status":{"category":"Unable to prosecute suspect","date":"2019-07"},"persistent_id":"3a858016d364d788f7202d924a30e52911c01391838250f1f563a9d17eb5b5d7","id":74507136,"location_subtype":"","month":"2019-05"},{"category":"violent-crime","location_type":"Force","location":{"latitude":"51.345690","street":{"id":1156486,"name":"On or near Station Approach"},"longitude":"-0.241314"},"context":"","outcome_status":{"category":"Status update unavailable","date":"2019-09"},"persistent_id":"01db7446ee21871f833a86e3e8aad8482324a5b8073553d64203d6964ee51962","id":74507134,"location_subtype":"","month":"2019-05"},{"category":"violent-crime","location_type":"Force","location":{"latitude":"51.354557","street":{"id":1156648,"name":"On or near Kingston Road"},"longitude":"-0.251516"},"context":"","outcome_status":{"category":"Status update unavailable","date":"2019-09"},"persistent_id":"af9392bd2b0369643979c73de8fe0376e667082a7b178907c08481c886ef0f24","id":74494892,"location_subtype":"","month":"2019-05"},{"category":"violent-crime","location_type":"Force","location":{"latitude":"51.345129","street":{"id":1156598,"name":"On or near Cheam Road"},"longitude":"-0.234457"},"context":"","outcome_status":{"category":"Unable to prosecute suspect","date":"2019-06"},"persistent_id":"1306c30ba0a1025291ba8131796e0f3962e0d219a9fb5fe5d765172c7547f93f","id":74507138,"location_subtype":"","month":"2019-05"},{"category":"violent-crime","location_type":"Force","location":{"latitude":"51.354191","street":{"id":1156643,"name":"On or near Mill View Close"},"longitude":"-0.250496"},"context":"","outcome_status":{"category":"Local resolution","date":"2019-06"},"persistent_id":"b6b06f05af7825ca7cdb2e92214235e796e67d2150a872690b87a8c146741ba7","id":74504137,"location_subtype":"","month":"2019-05"},{"category":"violent-crime","location_type":"Force","location":{"latitude":"51.348967","street":{"id":1156754,"name":"On or near Somerset Close"},"longitude":"-0.263877"},"context":"","outcome_status":{"category":"Unable to prosecute suspect","date":"2019-06"},"persistent_id":"e8132f20d9084270f1d76c3a3486a8c5218172a5109b76f57d10e63ff49c5dc0","id":74493801,"location_subtype":"","month":"2019-05"},{"category":"violent-crime","location_type":"Force","location":{"latitude":"51.345690","street":{"id":1156486,"name":"On or near Station Approach"},"longitude":"-0.241314"},"context":"","outcome_status":{"category":"Unable to prosecute suspect","date":"2019-12"},"persistent_id":"01eca92e110dfad1ce06b4f358a74246a511c0b45dd6c4a8269ca160cc27de1e","id":74492628,"location_subtype":"","month":"2019-05"},{"category":"violent-crime","location_type":"Force","location":{"latitude":"51.348967","street":{"id":1156754,"name":"On or near Somerset Close"},"longitude":"-0.263877"},"context":"","outcome_status":{"category":"Unable to prosecute suspect","date":"2019-06"},"persistent_id":"c383928e1f8ef02431123395b014f5758e2dff67a3da70841ece1fd478850dc7","id":74493799,"location_subtype":"","month":"2019-05"},{"category":"violent-crime","location_type":"Force","location":{"latitude":"51.336508","street":{"id":1156471,"name":"On or near Linden Place"},"longitude":"-0.259912"},"context":"","outcome_status":{"category":"Unable to prosecute suspect","date":"2019-06"},"persistent_id":"f7cca13ed5ffffdeafcda8990562bd45e431e6439c84f9450b6cf57626484f36","id":74504142,"location_subtype":"","month":"2019-05"},{"category":"violent-crime","location_type":"Force","location":{"latitude":"51.349074","street":{"id":1156695,"name":"On or near Parking Area"},"longitude":"-0.248106"},"context":"","outcome_status":{"category":"Unable to prosecute suspect","date":"2019-05"},"persistent_id":"2a0ed7037f15674571f535e8898dea949fa5f36d3275dc53a922033fee87c7c4","id":74492637,"location_subtype":"","month":"2019-05"},{"category":"violent-crime","location_type":"Force","location":{"latitude":"51.348064","street":{"id":1156518,"name":"On or near High Street"},"longitude":"-0.249709"},"context":"","outcome_status":{"category":"Unable to prosecute suspect","date":"2019-05"},"persistent_id":"d565ba4ed3360687c1f662511c36588103ffec68e9f01234abe2e8e1a874ccb4","id":74493293,"location_subtype":"","month":"2019-05"},{"category":"violent-crime","location_type":"Force","location":{"latitude":"51.344404","street":{"id":1156579,"name":"On or near Sports\/recreation Area"},"longitude":"-0.219293"},"context":"","outcome_status":{"category":"Unable to prosecute suspect","date":"2019-07"},"persistent_id":"acaac670babc4dd4d1bc8dd307de396b9d573b974f9761aad4ab00f44a5e46c1","id":74498027,"location_subtype":"","month":"2019-05"},{"category":"violent-crime","location_type":"Force","location":{"latitude":"51.344808","street":{"id":1156514,"name":"On or near Old House Close"},"longitude":"-0.250824"},"context":"","outcome_status":{"category":"Unable to prosecute suspect","date":"2019-11"},"persistent_id":"3df52967233b801ec4a797e9ba2de3be7becf19a2047dbd21ffe6fbacef380cb","id":74491890,"location_subtype":"","month":"2019-05"},{"category":"violent-crime","location_type":"Force","location":{"latitude":"51.338571","street":{"id":1156563,"name":"On or near Middle Lane"},"longitude":"-0.258972"},"context":"","outcome_status":{"category":"Unable to prosecute suspect","date":"2019-05"},"persistent_id":"ba0d277e3c1837671a802502d08101efb4ec248e45e37000407712cd4d10e3f3","id":74497729,"location_subtype":"","month":"2019-05"},{"category":"violent-crime","location_type":"Force","location":{"latitude":"51.342819","street":{"id":1156519,"name":"On or near Hessle Grove"},"longitude":"-0.253786"},"context":"","outcome_status":{"category":"Investigation complete; no suspect identified","date":"2019-05"},"persistent_id":"030ab4819fb4974e2d20586431ac5dc203edaf53379fd884d55f99a20306e149","id":74500619,"location_subtype":"","month":"2019-05"},{"category":"violent-crime","location_type":"Force","location":{"latitude":"51.350004","street":{"id":1156617,"name":"On or near West Drive"},"longitude":"-0.221489"},"context":"","outcome_status":{"category":"Action to be taken by another organisation","date":"2019-05"},"persistent_id":"8d3bcb3c88fa4cca84c0af9d6b2ea0a13e7fdb2ca7ad4971739e1e8fb54ed8a0","id":74502967,"location_subtype":"","month":"2019-05"},{"category":"violent-crime","location_type":"Force","location":{"latitude":"51.338571","street":{"id":1156563,"name":"On or near Middle Lane"},"longitude":"-0.258972"},"context":"","outcome_status":{"category":"Offender given a caution","date":"2019-05"},"persistent_id":"2ea7c32af3a31d88369bde1d67d2b56dd57939d5fa0de288d7a3cb736807761f","id":74503580,"location_subtype":"","month":"2019-05"},{"category":"violent-crime","location_type":"Force","location":{"latitude":"51.339107","street":{"id":1156476,"name":"On or near Farriers Close"},"longitude":"-0.260517"},"context":"","outcome_status":{"category":"Investigation complete; no suspect identified","date":"2019-05"},"persistent_id":"6f1da7aa42bea7df25162c6adea577f075ad2ba08ad372b31b7a68e035decf22","id":74504126,"location_subtype":"","month":"2019-05"},{"category":"violent-crime","location_type":"Force","location":{"latitude":"51.351369","street":{"id":1156688,"name":"On or near Church Street"},"longitude":"-0.247587"},"context":"","outcome_status":{"category":"Investigation complete; no suspect identified","date":"2019-05"},"persistent_id":"da19883b5d9ddd22690cd47ad1456f7fcd1e9bd9325921b67755b5a0eca661fb","id":74504751,"location_subtype":"","month":"2019-05"},{"category":"violent-crime","location_type":"Force","location":{"latitude":"51.351369","street":{"id":1156688,"name":"On or near Church Street"},"longitude":"-0.247587"},"context":"","outcome_status":{"category":"Investigation complete; no suspect identified","date":"2019-05"},"persistent_id":"264a59a8c7b4b5fe04f12557164daebec6bb836aaead9dc81e564951e40c3e96","id":74504765,"location_subtype":"","month":"2019-05"},{"category":"violent-crime","location_type":"Force","location":{"latitude":"51.351369","street":{"id":1156688,"name":"On or near Church Street"},"longitude":"-0.247587"},"context":"","outcome_status":{"category":"Investigation complete; no suspect identified","date":"2019-05"},"persistent_id":"c4d2dfa93264166867ec7ac065b34d2749488abf62d4e035ffdc7a623ceb167e","id":74504771,"location_subtype":"","month":"2019-05"},{"category":"violent-crime","location_type":"Force","location":{"latitude":"51.353472","street":{"id":1156690,"name":"On or near Beaufort Way"},"longitude":"-0.244491"},"context":"","outcome_status":{"category":"Local resolution","date":"2019-05"},"persistent_id":"582053b3f09ea49058384bf43adc1c76e09565da52c1b6ea7be8b3dd3c8efd40","id":74506629,"location_subtype":"","month":"2019-05"},{"category":"violent-crime","location_type":"Force","location":{"latitude":"51.342574","street":{"id":1156601,"name":"On or near Beverley Close"},"longitude":"-0.232603"},"context":"","outcome_status":{"category":"Further investigation is not in the public interest","date":"2019-05"},"persistent_id":"a32d750a387aa63b7b0dde7765a0b2ee950974aafd12afb5590769c1db2f3fce","id":74507752,"location_subtype":"","month":"2019-05"},{"category":"violent-crime","location_type":"Force","location":{"latitude":"51.349808","street":{"id":1156630,"name":"On or near Holmwood Road"},"longitude":"-0.229323"},"context":"","outcome_status":{"category":"Status update unavailable","date":"2019-09"},"persistent_id":"c0ee94b2556d2b3964421fb439117f629caa797e44b08a7e25c5c2fc685b1183","id":74328227,"location_subtype":"","month":"2019-05"},{"category":"violent-crime","location_type":"Force","location":{"latitude":"51.357248","street":{"id":1156664,"name":"On or near Parry Close"},"longitude":"-0.242077"},"context":"","outcome_status":{"category":"Further investigation is not in the public interest","date":"2019-10"},"persistent_id":"0b8d32d520627d95f6159fb1d0984baaef3839ad3d1a2ef90c210b186209c300","id":74503554,"location_subtype":"","month":"2019-05"},{"category":"violent-crime","location_type":"Force","location":{"latitude":"51.338571","street":{"id":1156563,"name":"On or near Middle Lane"},"longitude":"-0.258972"},"context":"","outcome_status":{"category":"Court result unavailable","date":"2020-02"},"persistent_id":"1c4ad987f4f639e5e94cafd2591367b2892698a38658fce5e68aa6a11e3fb955","id":74498264,"location_subtype":"","month":"2019-05"},{"category":"violent-crime","location_type":"Force","location":{"latitude":"51.338571","street":{"id":1156563,"name":"On or near Middle Lane"},"longitude":"-0.258972"},"context":"","outcome_status":{"category":"Court result unavailable","date":"2020-02"},"persistent_id":"b2b3eb9db4e26f620fa31f1f273c760c4c4a35594d252adb7ce2311b122d34ae","id":74498245,"location_subtype":"","month":"2019-05"},{"category":"violent-crime","location_type":"Force","location":{"latitude":"51.338571","street":{"id":1156563,"name":"On or near Middle Lane"},"longitude":"-0.258972"},"context":"","outcome_status":{"category":"Court result unavailable","date":"2020-02"},"persistent_id":"49344f49abd665c2d11587c22d8518d8a334c0619c66f87f81ab04d493b0b491","id":74498255,"location_subtype":"","month":"2019-05"},{"category":"violent-crime","location_type":"Force","location":{"latitude":"51.353472","street":{"id":1156690,"name":"On or near Beaufort Way"},"longitude":"-0.244491"},"context":"","outcome_status":{"category":"Unable to prosecute suspect","date":"2019-06"},"persistent_id":"58827ce1fc98a9ab28f36a30f87fd6fbd9974228f780d77df6f97ffd29bbc935","id":74502969,"location_subtype":"","month":"2019-05"},{"category":"violent-crime","location_type":"Force","location":{"latitude":"51.348916","street":{"id":1156755,"name":"On or near Revere Way"},"longitude":"-0.259198"},"context":"","outcome_status":{"category":"Unable to prosecute suspect","date":"2019-07"},"persistent_id":"43e33925ec76c6eab09294cfa3fc5b1a0dbad9ca4d4ac7c5de9b5e4ac5a26d2d","id":74502361,"location_subtype":"","month":"2019-05"},{"category":"violent-crime","location_type":"Force","location":{"latitude":"51.338571","street":{"id":1156563,"name":"On or near Middle Lane"},"longitude":"-0.258972"},"context":"","outcome_status":{"category":"Court result unavailable","date":"2020-02"},"persistent_id":"ffd0a4924713ec6b7581f1fd428893020c51368102a0d7dd5a18a9ce0dd98d5f","id":74498253,"location_subtype":"","month":"2019-05"},{"category":"violent-crime","location_type":"Force","location":{"latitude":"51.348967","street":{"id":1156754,"name":"On or near Somerset Close"},"longitude":"-0.263877"},"context":"","outcome_status":{"category":"Unable to prosecute suspect","date":"2019-06"},"persistent_id":"8277bbd8373c7600657fc78e5c253578525d4eb1f0bace6148cd0923743b8d70","id":74506626,"location_subtype":"","month":"2019-05"},{"category":"other-crime","location_type":"Force","location":{"latitude":"51.338571","street":{"id":1156563,"name":"On or near Middle Lane"},"longitude":"-0.258972"},"context":"","outcome_status":{"category":"Unable to prosecute suspect","date":"2019-05"},"persistent_id":"9b0a2b8707eeb621e771d7d2972613394fc1b7c64853573cf26a70272acd54c6","id":74502981,"location_subtype":"","month":"2019-05"},{"category":"other-crime","location_type":"Force","location":{"latitude":"51.342039","street":{"id":1156529,"name":"On or near Petrol Station"},"longitude":"-0.257520"},"context":"","outcome_status":{"category":"Status update unavailable","date":"2019-09"},"persistent_id":"fd311fcab66833291bcf9150a555014c438fb052211c1e29501ca6cdbaab90fb","id":74502357,"location_subtype":"","month":"2019-05"}]