[{"category":"anti-social-behaviour","location_type":"Force","location":{"latitude":"51.517415","street":{"id":956792,"name":"On or near Harrowby Street"},"longitude":"-0.164111"},"context":"","outcome_status":null,"persistent_id":"","id":74289680,"location_subtype":"","month":"2019-05"},{"category":"anti-social-behaviour","location_type":"Force","location":{"latitude":"51.521418","street":{"id":960327,"name":"On or near Church Street"},"longitude":"-0.173406"},"context":"","outcome_status":null,"persistent_id":"","id":74274752,"location_subtype":"","month":"2019-05"},{"category":"anti-social-behaviour","location_type":"Force","location":{"latitude":"51.516700","street":{"id":957054,"name":"On or near Praed Mews"},"longitude":"-0.172989"},"context":"","outcome_status":null,"persistent_id":"","id":74274754,"location_subtype":"","month":"2019-05"},{"category":"anti-social-behaviour","location_type":"Force","location":{"latitude":"51.517311","street":{"id":956398,"name":"On or near Dean's Mews"},"longitude":"-0.145479"},"context":"","outcome_status":null,"persistent_id":"","id":74289285,"location_subtype":"","month":"2019-05"},{"category":"anti-social-behaviour","location_type":"Force","location":{"latitude":"51.517311","street":{"id":956398,"name":"On or near Dean's Mews"},"longitude":"-0.145479"},"context":"","outcome_status":null,"persistent_id":"","id":74289286,"location_subtype":"","month":"2019-05"},{"category":"anti-social-behaviour","location_type":"Force","location":{"latitude":"51.522891","street":{"id":960608,"name":"On or near Park Crescent"},"longitude":"-0.146319"},"context":"","outcome_status":null,"persistent_id":"","id":74289287,"location_subtype":"","month":"2019-05"},{"category":"anti-social-behaviour","location_type":"Force","location":{"latitude":"51.520140","street":{"id":960702,"name":"On or near Weymouth Mews"},"longitude":"-0.146358"},"context":"","outcome_status":null,"persistent_id":"","id":74289289,"location_subtype":"","month":"2019-05"},{"category":"anti-social-behaviour","location_type":"Force","location":{"latitude":"51.515886","street":{"id":956813,"name":"On or near Welbeck Street"},"longitude":"-0.148621"},"context":"","outcome_status":null,"persistent_id":"","id":74289290,"location_subtype":"","month":"2019-05"},{"category":"anti-social-behaviour","location_type":"Force","location":{"latitude":"51.514983","street":{"id":956949,"name":"On or near Shopping Area"},"longitude":"-0.147822"},"context":"","outcome_status":null,"persistent_id":"","id":74289292,"location_subtype":"","month":"2019-05"},{"category":"anti-social-behaviour","location_type":"Force","location":{"latitude":"51.519935","street":{"id":960473,"name":"On or near Woodstock Mews"},"longitude":"-0.149913"},"context":"","outcome_status":null,"persistent_id":"","id":74289293,"location_subtype":"","month":"2019-05"},{"category":"anti-social-behaviour","location_type":"Force","location":{"latitude":"51.518382","street":{"id":956911,"name":"On or near Cross Keys Close"},"longitude":"-0.150653"},"context":"","outcome_status":null,"persistent_id":"","id":74289294,"location_subtype":"","month":"2019-05"},{"category":"anti-social-behaviour","location_type":"Force","location":{"latitude":"51.515584","street":{"id":956849,"name":"On or near Gray's Yard"},"longitude":"-0.151141"},"context":"","outcome_status":null,"persistent_id":"","id":74289296,"location_subtype":"","month":"2019-05"},{"category":"anti-social-behaviour","location_type":"Force","location":{"latitude":"51.515308","street":{"id":956834,"name":"On or near Picton Place"},"longitude":"-0.151354"},"context":"","outcome_status":null,"persistent_id":"","id":74289297,"location_subtype":"","month":"2019-05"},{"category":"anti-social-behaviour","location_type":"Force","location":{"latitude":"51.521940","street":{"id":960362,"name":"On or near Marylebone High Street"},"longitude":"-0.151619"},"context":"","outcome_status":null,"persistent_id":"","id":74289298,"location_subtype":"","month":"2019-05"},{"category":"anti-social-behaviour","location_type":"Force","location":{"latitude":"51.521306","street":{"id":960484,"name":"On or near Nottingham Street"},"longitude":"-0.153057"},"context":"","outcome_status":null,"persistent_id":"","id":74289299,"location_subtype":"","month":"2019-05"},{"category":"anti-social-behaviour","location_type":"Force","location":{"latitude":"51.521306","street":{"id":960484,"name":"On or near Nottingham Street"},"longitude":"-0.153057"},"context":"","outcome_status":null,"persistent_id":"","id":74289300,"location_subtype":"","month":"2019-05"},{"category":"anti-social-behaviour","location_type":"Force","location":{"latitude":"51.521306","street":{"id":960484,"name":"On or near Nottingham Street"},"longitude":"-0.153057"},"context":"","outcome_status":null,"persistent_id":"","id":74289302,"location_subtype":"","month":"2019-05"},{"category":"anti-social-behaviour","location_type":"Force","location":{"latitude":"51.521306","street":{"id":960484,"name":"On or near Nottingham Street"},"longitude":"-0.153057"},"context":"","outcome_status":null,"persistent_id":"","id":74289303,"location_subtype":"","month":"2019-05"},{"category":"anti-social-behaviour","location_type":"Force","location":{"latitude":"51.519261","street":{"id":960504,"name":"On or near Baker Street"},"longitude":"-0.156224"},"context":"","outcome_status":null,"persistent_id":"","id":74289315,"location_subtype":"","month":"2019-05"},{"category":"anti-social-behaviour","location_type":"Force","location":{"latitude":"51.520013","street":{"id":960492,"name":"On or near Garbutt Place"},"longitude":"-0.152576"},"context":"","outcome_status":null,"persistent_id":"","id":74289305,"location_subtype":"","month":"2019-05"},{"category":"anti-social-behaviour","location_type":"Force","location":{"latitude":"51.515736","street":{"id":956880,"name":"On or near Conference\/exhibition Centre"},"longitude":"-0.153383"},"context":"","outcome_status":null,"persistent_id":"","id":74289306,"location_subtype":"","month":"2019-05"},{"category":"anti-social-behaviour","location_type":"Force","location":{"latitude":"51.516065","street":{"id":956822,"name":"On or near Seymour Mews"},"longitude":"-0.153701"},"context":"","outcome_status":null,"persistent_id":"","id":74289307,"location_subtype":"","month":"2019-05"},{"category":"anti-social-behaviour","location_type":"Force","location":{"latitude":"51.523377","street":{"id":960349,"name":"On or near York Terrace West"},"longitude":"-0.154328"},"context":"","outcome_status":null,"persistent_id":"","id":74289308,"location_subtype":"","month":"2019-05"},{"category":"anti-social-behaviour","location_type":"Force","location":{"latitude":"51.523377","street":{"id":960349,"name":"On or near York Terrace West"},"longitude":"-0.154328"},"context":"","outcome_status":null,"persistent_id":"","id":74289309,"location_subtype":"","month":"2019-05"},{"category":"anti-social-behaviour","location_type":"Force","location":{"latitude":"51.514724","street":{"id":956832,"name":"On or near Portman Mews South"},"longitude":"-0.155341"},"context":"","outcome_status":null,"persistent_id":"","id":74289310,"location_subtype":"","month":"2019-05"},{"category":"anti-social-behaviour","location_type":"Force","location":{"latitude":"51.520285","street":{"id":960501,"name":"On or near Chiltern Street"},"longitude":"-0.155563"},"context":"","outcome_status":null,"persistent_id":"","id":74289311,"location_subtype":"","month":"2019-05"},{"category":"anti-social-behaviour","location_type":"Force","location":{"latitude":"51.519975","street":{"id":960490,"name":"On or near Kenrick Place"},"longitude":"-0.155907"},"context":"","outcome_status":null,"persistent_id":"","id":74289312,"location_subtype":"","month":"2019-05"},{"category":"anti-social-behaviour","location_type":"Force","location":{"latitude":"51.519975","street":{"id":960490,"name":"On or near Kenrick Place"},"longitude":"-0.155907"},"context":"","outcome_status":null,"persistent_id":"","id":74289313,"location_subtype":"","month":"2019-05"},{"category":"anti-social-behaviour","location_type":"Force","location":{"latitude":"51.521368","street":{"id":960498,"name":"On or near David Mews"},"longitude":"-0.156413"},"context":"","outcome_status":null,"persistent_id":"","id":74289314,"location_subtype":"","month":"2019-05"},{"category":"anti-social-behaviour","location_type":"Force","location":{"latitude":"51.519261","street":{"id":960504,"name":"On or near Baker Street"},"longitude":"-0.156224"},"context":"","outcome_status":null,"persistent_id":"","id":74289316,"location_subtype":"","month":"2019-05"},{"category":"anti-social-behaviour","location_type":"Force","location":{"latitude":"51.511734","street":{"id":956979,"name":"On or near Leinster Mews"},"longitude":"-0.182166"},"context":"","outcome_status":null,"persistent_id":"","id":74275635,"location_subtype":"","month":"2019-05"},{"category":"anti-social-behaviour","location_type":"Force","location":{"latitude":"51.517051","street":{"id":956956,"name":"On or near Westbourne Terrace"},"longitude":"-0.181695"},"context":"","outcome_status":null,"persistent_id":"","id":74275636,"location_subtype":"","month":"2019-05"},{"category":"anti-social-behaviour","location_type":"Force","location":{"latitude":"51.517051","street":{"id":956956,"name":"On or near Westbourne Terrace"},"longitude":"-0.181695"},"context":"","outcome_status":null,"persistent_id":"","id":74275637,"location_subtype":"","month":"2019-05"},{"category":"anti-social-behaviour","location_type":"Force","location":{"latitude":"51.517051","street":{"id":956956,"name":"On or near Westbourne Terrace"},"longitude":"-0.181695"},"context":"","outcome_status":null,"persistent_id":"","id":74275638,"location_subtype":"","month":"2019-05"},{"category":"anti-social-behaviour","location_type":"Force","location":{"latitude":"51.517051","street":{"id":956956,"name":"On or near Westbourne Terrace"},"longitude":"-0.181695"},"context":"","outcome_status":null,"persistent_id":"","id":74275639,"location_subtype":"","month":"2019-05"},{"category":"anti-social-behaviour","location_type":"Force","location":{"latitude":"51.517051","street":{"id":956956,"name":"On or near Westbourne Terrace"},"longitude":"-0.181695"},"context":"","outcome_status":null,"persistent_id":"","id":74275641,"location_subtype":"","month":"2019-05"},{"category":"anti-social-behaviour","location_type":"Force","location":{"latitude":"51.511425","street":{"id":956977,"name":"On or near Leinster Terrace"},"longitude":"-0.183058"},"context":"","outcome_status":null,"persistent_id":"","id":74275642,"location_subtype":"","month":"2019-05"},{"category":"anti-social-behaviour","location_type":"Force","location":{"latitude":"51.511425","street":{"id":956977,"name":"On or near Leinster Terrace"},"longitude":"-0.183058"},"context":"","outcome_status":null,"persistent_id":"","id":74275643,"location_subtype":"","month":"2019-05"},{"category":"anti-social-behaviour","location_type":"Force","location":{"latitude":"51.511734","street":{"id":956979,"name":"On or near Leinster Mews"},"longitude":"-0.182166"},"context":"","outcome_status":null,"persistent_id":"","id":74275645,"location_subtype":"","month":"2019-05"},{"category":"anti-social-behaviour","location_type":"Force","location":{"latitude":"51.520870","street":{"id":960296,"name":"On or near Warwick Crescent"},"longitude":"-0.182696"},"context":"","outcome_status":null,"persistent_id":"","id":74275646,"location_subtype":"","month":"2019-05"},{"category":"anti-social-behaviour","location_type":"Force","location":{"latitude":"51.520870","street":{"id":960296,"name":"On or near Warwick Crescent"},"longitude":"-0.182696"},"context":"","outcome_status":null,"persistent_id":"","id":74275647,"location_subtype":"","month":"2019-05"},{"category":"anti-social-behaviour","location_type":"Force","location":{"latitude":"51.513819","street":{"id":956980,"name":"On or near Leinster Gardens"},"longitude":"-0.183798"},"context":"","outcome_status":null,"persistent_id":"","id":74275650,"location_subtype":"","month":"2019-05"},{"category":"anti-social-behaviour","location_type":"Force","location":{"latitude":"51.516965","street":{"id":956990,"name":"On or near Gloucester Gardens"},"longitude":"-0.184870"},"context":"","outcome_status":null,"persistent_id":"","id":74275651,"location_subtype":"","month":"2019-05"},{"category":"anti-social-behaviour","location_type":"Force","location":{"latitude":"51.519786","street":{"id":960291,"name":"On or near Pedestrian Subway"},"longitude":"-0.184729"},"context":"","outcome_status":null,"persistent_id":"","id":74275653,"location_subtype":"","month":"2019-05"},{"category":"anti-social-behaviour","location_type":"Force","location":{"latitude":"51.512461","street":{"id":956969,"name":"On or near Porchester Terrace"},"longitude":"-0.184357"},"context":"","outcome_status":null,"persistent_id":"","id":74275654,"location_subtype":"","month":"2019-05"},{"category":"anti-social-behaviour","location_type":"Force","location":{"latitude":"51.512461","street":{"id":956969,"name":"On or near Porchester Terrace"},"longitude":"-0.184357"},"context":"","outcome_status":null,"persistent_id":"","id":74275655,"location_subtype":"","month":"2019-05"},{"category":"anti-social-behaviour","location_type":"Force","location":{"latitude":"51.512461","street":{"id":956969,"name":"On or near Porchester Terrace"},"longitude":"-0.184357"},"context":"","outcome_status":null,"persistent_id":"","id":74275656,"location_subtype":"","month":"2019-05"},{"category":"anti-social-behaviour","location_type":"Force","location":{"latitude":"51.512461","street":{"id":956969,"name":"On or near Porchester Terrace"},"longitude":"-0.184357"},"context":"","outcome_status":null,"persistent_id":"","id":74275657,"location_subtype":"","month":"2019-05"},{"category":"anti-social-behaviour","location_type":"Force","location":{"latitude":"51.516965","street":{"id":956990,"name":"On or near Gloucester Gardens"},"longitude":"-0.184870"},"context":"","outcome_status":null,"persistent_id":"","id":74275658,"location_subtype":"","month":"2019-05"},{"category":"anti-social-behaviour","location_type":"Force","location":{"latitude":"51.514298","street":{"id":956978,"name":"On or near Leinster Place"},"longitude":"-0.184529"},"context":"","outcome_status":null,"persistent_id":"","id":74275659,"location_subtype":"","month":"2019-05"},{"category":"anti-social-behaviour","location_type":"Force","location":{"latitude":"51.517645","street":{"id":957021,"name":"On or near Orsett Terrace"},"longitude":"-0.184655"},"context":"","outcome_status":null,"persistent_id":"","id":74275661,"location_subtype":"","month":"2019-05"},{"category":"anti-social-behaviour","location_type":"Force","location":{"latitude":"51.511291","street":{"id":956982,"name":"On or near Inverness Terrace"},"longitude":"-0.186061"},"context":"","outcome_status":null,"persistent_id":"","id":74275662,"location_subtype":"","month":"2019-05"},{"category":"anti-social-behaviour","location_type":"Force","location":{"latitude":"51.511291","street":{"id":956982,"name":"On or near Inverness Terrace"},"longitude":"-0.186061"},"context":"","outcome_status":null,"persistent_id":"","id":74275663,"location_subtype":"","month":"2019-05"},{"category":"anti-social-behaviour","location_type":"Force","location":{"latitude":"51.527473","street":{"id":960240,"name":"On or near Sutherland Avenue"},"longitude":"-0.183443"},"context":"","outcome_status":null,"persistent_id":"","id":74275665,"location_subtype":"","month":"2019-05"},{"category":"anti-social-behaviour","location_type":"Force","location":{"latitude":"51.512603","street":{"id":956965,"name":"On or near Queensborough Mews"},"longitude":"-0.185403"},"context":"","outcome_status":null,"persistent_id":"","id":74275666,"location_subtype":"","month":"2019-05"},{"category":"anti-social-behaviour","location_type":"Force","location":{"latitude":"51.512603","street":{"id":956965,"name":"On or near Queensborough Mews"},"longitude":"-0.185403"},"context":"","outcome_status":null,"persistent_id":"","id":74275667,"location_subtype":"","month":"2019-05"},{"category":"anti-social-behaviour","location_type":"Force","location":{"latitude":"51.511609","street":{"id":957012,"name":"On or near B411"},"longitude":"-0.186279"},"context":"","outcome_status":null,"persistent_id":"","id":74275670,"location_subtype":"","month":"2019-05"},{"category":"anti-social-behaviour","location_type":"Force","location":{"latitude":"51.511609","street":{"id":957012,"name":"On or near B411"},"longitude":"-0.186279"},"context":"","outcome_status":null,"persistent_id":"","id":74275671,"location_subtype":"","month":"2019-05"},{"category":"anti-social-behaviour","location_type":"Force","location":{"latitude":"51.511609","street":{"id":957012,"name":"On or near B411"},"longitude":"-0.186279"},"context":"","outcome_status":null,"persistent_id":"","id":74275672,"location_subtype":"","month":"2019-05"},{"category":"anti-social-behaviour","location_type":"Force","location":{"latitude":"51.511609","street":{"id":957012,"name":"On or near B411"},"longitude":"-0.186279"},"context":"","outcome_status":null,"persistent_id":"","id":74275673,"location_subtype":"","month":"2019-05"},{"category":"anti-social-behaviour","location_type":"Force","location":{"latitude":"51.511609","street":{"id":957012,"name":"On or near B411"},"longitude":"-0.186279"},"context":"","outcome_status":null,"persistent_id":"","id":74275674,"location_subtype":"","month":"2019-05"},{"category":"anti-social-behaviour","location_type":"Force","location":{"latitude":"51.511609","street":{"id":957012,"name":"On or near B411"},"longitude":"-0.186279"},"context":"","outcome_status":null,"persistent_id":"","id":74275675,"location_subtype":"","month":"2019-05"},{"category":"anti-social-behaviour","location_type":"Force","location":{"latitude":"51.511609","street":{"id":957012,"name":"On or near B411"},"longitude":"-0.186279"},"context":"","outcome_status":null,"persistent_id":"","id":74275677,"location_subtype":"","month":"2019-05"},{"category":"anti-social-behaviour","location_type":"Force","location":{"latitude":"51.521675","street":{"id":960303,"name":"On or near Delamere Terrace"},"longitude":"-0.185922"},"context":"","outcome_status":null,"persistent_id":"","id":74275680,"location_subtype":"","month":"2019-05"},{"category":"anti-social-behaviour","location_type":"Force","location":{"latitude":"51.526427","street":{"id":960239,"name":"On or near Sutherland Avenue"},"longitude":"-0.185560"},"context":"","outcome_status":null,"persistent_id":"","id":74275681,"location_subtype":"","month":"2019-05"},{"category":"anti-social-behaviour","location_type":"Force","location":{"latitude":"51.521092","street":{"id":960305,"name":"On or near Chichester Road"},"longitude":"-0.186608"},"context":"","outcome_status":null,"persistent_id":"","id":74275682,"location_subtype":"","month":"2019-05"},{"category":"anti-social-behaviour","location_type":"Force","location":{"latitude":"51.521092","street":{"id":960305,"name":"On or near Chichester Road"},"longitude":"-0.186608"},"context":"","outcome_status":null,"persistent_id":"","id":74275683,"location_subtype":"","month":"2019-05"},{"category":"anti-social-behaviour","location_type":"Force","location":{"latitude":"51.521092","street":{"id":960305,"name":"On or near Chichester Road"},"longitude":"-0.186608"},"context":"","outcome_status":null,"persistent_id":"","id":74275684,"location_subtype":"","month":"2019-05"},{"category":"anti-social-behaviour","location_type":"Force","location":{"latitude":"51.521092","street":{"id":960305,"name":"On or near Chichester Road"},"longitude":"-0.186608"},"context":"","outcome_status":null,"persistent_id":"","id":74275685,"location_subtype":"","month":"2019-05"},{"category":"anti-social-behaviour","location_type":"Force","location":{"latitude":"51.521092","street":{"id":960305,"name":"On or near Chichester Road"},"longitude":"-0.186608"},"context":"","outcome_status":null,"persistent_id":"","id":74275686,"location_subtype":"","month":"2019-05"},{"category":"anti-social-behaviour","location_type":"Force","location":{"latitude":"51.516834","street":{"id":956951,"name":"On or near Parking Area"},"longitude":"-0.186273"},"context":"","outcome_status":null,"persistent_id":"","id":74275687,"location_subtype":"","month":"2019-05"},{"category":"anti-social-behaviour","location_type":"Force","location":{"latitude":"51.516834","street":{"id":956951,"name":"On or near Parking Area"},"longitude":"-0.186273"},"context":"","outcome_status":null,"persistent_id":"","id":74275688,"location_subtype":"","month":"2019-05"},{"category":"anti-social-behaviour","location_type":"Force","location":{"latitude":"51.516834","street":{"id":956951,"name":"On or near Parking Area"},"longitude":"-0.186273"},"context":"","outcome_status":null,"persistent_id":"","id":74275690,"location_subtype":"","month":"2019-05"},{"category":"anti-social-behaviour","location_type":"Force","location":{"latitude":"51.513825","street":{"id":956971,"name":"On or near Porchester Gardens"},"longitude":"-0.187084"},"context":"","outcome_status":null,"persistent_id":"","id":74275691,"location_subtype":"","month":"2019-05"},{"category":"anti-social-behaviour","location_type":"Force","location":{"latitude":"51.523654","street":{"id":960262,"name":"On or near Formosa Street"},"longitude":"-0.186506"},"context":"","outcome_status":null,"persistent_id":"","id":74275692,"location_subtype":"","month":"2019-05"},{"category":"anti-social-behaviour","location_type":"Force","location":{"latitude":"51.515399","street":{"id":956986,"name":"On or near Inver Court"},"longitude":"-0.187713"},"context":"","outcome_status":null,"persistent_id":"","id":74275696,"location_subtype":"","month":"2019-05"},{"category":"anti-social-behaviour","location_type":"Force","location":{"latitude":"51.519664","street":{"id":960290,"name":"On or near Pedestrian Subway"},"longitude":"-0.189043"},"context":"","outcome_status":null,"persistent_id":"","id":74275703,"location_subtype":"","month":"2019-05"},{"category":"anti-social-behaviour","location_type":"Force","location":{"latitude":"51.513034","street":{"id":956961,"name":"On or near Queensway"},"longitude":"-0.187663"},"context":"","outcome_status":null,"persistent_id":"","id":74275704,"location_subtype":"","month":"2019-05"},{"category":"anti-social-behaviour","location_type":"Force","location":{"latitude":"51.513034","street":{"id":956961,"name":"On or near Queensway"},"longitude":"-0.187663"},"context":"","outcome_status":null,"persistent_id":"","id":74275705,"location_subtype":"","month":"2019-05"},{"category":"anti-social-behaviour","location_type":"Force","location":{"latitude":"51.513034","street":{"id":956961,"name":"On or near Queensway"},"longitude":"-0.187663"},"context":"","outcome_status":null,"persistent_id":"","id":74275706,"location_subtype":"","month":"2019-05"},{"category":"anti-social-behaviour","location_type":"Force","location":{"latitude":"51.513034","street":{"id":956961,"name":"On or near Queensway"},"longitude":"-0.187663"},"context":"","outcome_status":null,"persistent_id":"","id":74275707,"location_subtype":"","month":"2019-05"},{"category":"anti-social-behaviour","location_type":"Force","location":{"latitude":"51.513034","street":{"id":956961,"name":"On or near Queensway"},"longitude":"-0.187663"},"context":"","outcome_status":null,"persistent_id":"","id":74275708,"location_subtype":"","month":"2019-05"},{"category":"anti-social-behaviour","location_type":"Force","location":{"latitude":"51.513034","street":{"id":956961,"name":"On or near Queensway"},"longitude":"-0.187663"},"context":"","outcome_status":null,"persistent_id":"","id":74275709,"location_subtype":"","month":"2019-05"},{"category":"anti-social-behaviour","location_type":"Force","location":{"latitude":"51.513034","street":{"id":956961,"name":"On or near Queensway"},"longitude":"-0.187663"},"context":"","outcome_status":null,"persistent_id":"","id":74275710,"location_subtype":"","month":"2019-05"},{"category":"anti-social-behaviour","location_type":"Force","location":{"latitude":"51.513034","street":{"id":956961,"name":"On or near Queensway"},"longitude":"-0.187663"},"context":"","outcome_status":null,"persistent_id":"","id":74275711,"location_subtype":"","month":"2019-05"},{"category":"anti-social-behaviour","location_type":"Force","location":{"latitude":"51.513034","street":{"id":956961,"name":"On or near Queensway"},"longitude":"-0.187663"},"context":"","outcome_status":null,"persistent_id":"","id":74275712,"location_subtype":"","month":"2019-05"},{"category":"anti-social-behaviour","location_type":"Force","location":{"latitude":"51.513034","street":{"id":956961,"name":"On or near Queensway"},"longitude":"-0.187663"},"context":"","outcome_status":null,"persistent_id":"","id":74275713,"location_subtype":"","month":"2019-05"},{"category":"anti-social-behaviour","location_type":"Force","location":{"latitude":"51.516151","street":{"id":956973,"name":"On or near Pickering Mews"},"longitude":"-0.188087"},"context":"","outcome_status":null,"persistent_id":"","id":74275720,"location_subtype":"","month":"2019-05"},{"category":"anti-social-behaviour","location_type":"Force","location":{"latitude":"51.516151","street":{"id":956973,"name":"On or near Pickering Mews"},"longitude":"-0.188087"},"context":"","outcome_status":null,"persistent_id":"","id":74275721,"location_subtype":"","month":"2019-05"},{"category":"anti-social-behaviour","location_type":"Force","location":{"latitude":"51.516151","street":{"id":956973,"name":"On or near Pickering Mews"},"longitude":"-0.188087"},"context":"","outcome_status":null,"persistent_id":"","id":74275722,"location_subtype":"","month":"2019-05"},{"category":"anti-social-behaviour","location_type":"Force","location":{"latitude":"51.517496","street":{"id":957019,"name":"On or near Porchester Square"},"longitude":"-0.187227"},"context":"","outcome_status":null,"persistent_id":"","id":74275723,"location_subtype":"","month":"2019-05"},{"category":"anti-social-behaviour","location_type":"Force","location":{"latitude":"51.517496","street":{"id":957019,"name":"On or near Porchester Square"},"longitude":"-0.187227"},"context":"","outcome_status":null,"persistent_id":"","id":74275724,"location_subtype":"","month":"2019-05"},{"category":"anti-social-behaviour","location_type":"Force","location":{"latitude":"51.517496","street":{"id":957019,"name":"On or near Porchester Square"},"longitude":"-0.187227"},"context":"","outcome_status":null,"persistent_id":"","id":74275725,"location_subtype":"","month":"2019-05"},{"category":"anti-social-behaviour","location_type":"Force","location":{"latitude":"51.517496","street":{"id":957019,"name":"On or near Porchester Square"},"longitude":"-0.187227"},"context":"","outcome_status":null,"persistent_id":"","id":74275726,"location_subtype":"","month":"2019-05"},{"category":"anti-social-behaviour","location_type":"Force","location":{"latitude":"51.523009","street":{"id":960264,"name":"On or near Formosa Street"},"longitude":"-0.187253"},"context":"","outcome_status":null,"persistent_id":"","id":74275727,"location_subtype":"","month":"2019-05"},{"category":"anti-social-behaviour","location_type":"Force","location":{"latitude":"51.516469","street":{"id":956962,"name":"On or near Queensway"},"longitude":"-0.188867"},"context":"","outcome_status":null,"persistent_id":"","id":74275729,"location_subtype":"","month":"2019-05"},{"category":"anti-social-behaviour","location_type":"Force","location":{"latitude":"51.523566","street":{"id":960274,"name":"On or near Clearwell Drive"},"longitude":"-0.188369"},"context":"","outcome_status":null,"persistent_id":"","id":74276305,"location_subtype":"","month":"2019-05"},{"category":"anti-social-behaviour","location_type":"Force","location":{"latitude":"51.517652","street":{"id":957020,"name":"On or near Porchester Road"},"longitude":"-0.188575"},"context":"","outcome_status":null,"persistent_id":"","id":74276306,"location_subtype":"","month":"2019-05"},{"category":"anti-social-behaviour","location_type":"Force","location":{"latitude":"51.519664","street":{"id":960290,"name":"On or near Pedestrian Subway"},"longitude":"-0.189043"},"context":"","outcome_status":null,"persistent_id":"","id":74276307,"location_subtype":"","month":"2019-05"},{"category":"anti-social-behaviour","location_type":"Force","location":{"latitude":"51.519664","street":{"id":960290,"name":"On or near Pedestrian Subway"},"longitude":"-0.189043"},"context":"","outcome_status":null,"persistent_id":"","id":74276308,"location_subtype":"","month":"2019-05"},{"category":"anti-social-behaviour","location_type":"Force","location":{"latitude":"51.519664","street":{"id":960290,"name":"On or near Pedestrian Subway"},"longitude":"-0.189043"},"context":"","outcome_status":null,"persistent_id":"","id":74276309,"location_subtype":"","month":"2019-05"},{"category":"anti-social-behaviour","location_type":"Force","location":{"latitude":"51.519664","street":{"id":960290,"name":"On or near Pedestrian Subway"},"longitude":"-0.189043"},"context":"","outcome_status":null,"persistent_id":"","id":74276310,"location_subtype":"","month":"2019-05"},{"category":"anti-social-behaviour","location_type":"Force","location":{"latitude":"51.519664","street":{"id":960290,"name":"On or near Pedestrian Subway"},"longitude":"-0.189043"},"context":"","outcome_status":null,"persistent_id":"","id":74276311,"location_subtype":"","month":"2019-05"},{"category":"anti-social-behaviour","location_type":"Force","location":{"latitude":"51.519664","street":{"id":960290,"name":"On or near Pedestrian Subway"},"longitude":"-0.189043"},"context":"","outcome_status":null,"persistent_id":"","id":74276312,"location_subtype":"","month":"2019-05"},{"category":"anti-social-behaviour","location_type":"Force","location":{"latitude":"51.517652","street":{"id":957020,"name":"On or near Porchester Road"},"longitude":"-0.188575"},"context":"","outcome_status":null,"persistent_id":"","id":74276313,"location_subtype":"","month":"2019-05"},{"category":"anti-social-behaviour","location_type":"Force","location":{"latitude":"51.516194","street":{"id":957344,"name":"On or near Hatherley Grove"},"longitude":"-0.189700"},"context":"","outcome_status":null,"persistent_id":"","id":74276316,"location_subtype":"","month":"2019-05"},{"category":"anti-social-behaviour","location_type":"Force","location":{"latitude":"51.522116","street":{"id":960297,"name":"On or near Rowington Close"},"longitude":"-0.188831"},"context":"","outcome_status":null,"persistent_id":"","id":74276318,"location_subtype":"","month":"2019-05"},{"category":"anti-social-behaviour","location_type":"Force","location":{"latitude":"51.522010","street":{"id":960142,"name":"On or near Woodchester Square"},"longitude":"-0.190680"},"context":"","outcome_status":null,"persistent_id":"","id":74276336,"location_subtype":"","month":"2019-05"},{"category":"anti-social-behaviour","location_type":"Force","location":{"latitude":"51.522010","street":{"id":960142,"name":"On or near Woodchester Square"},"longitude":"-0.190680"},"context":"","outcome_status":null,"persistent_id":"","id":74276337,"location_subtype":"","month":"2019-05"},{"category":"anti-social-behaviour","location_type":"Force","location":{"latitude":"51.522010","street":{"id":960142,"name":"On or near Woodchester Square"},"longitude":"-0.190680"},"context":"","outcome_status":null,"persistent_id":"","id":74276338,"location_subtype":"","month":"2019-05"},{"category":"anti-social-behaviour","location_type":"Force","location":{"latitude":"51.517422","street":{"id":957191,"name":"On or near Westbourne Gardens"},"longitude":"-0.190026"},"context":"","outcome_status":null,"persistent_id":"","id":74276341,"location_subtype":"","month":"2019-05"},{"category":"anti-social-behaviour","location_type":"Force","location":{"latitude":"51.522464","street":{"id":960389,"name":"On or near Shroton Street"},"longitude":"-0.166632"},"context":"","outcome_status":null,"persistent_id":"","id":74289707,"location_subtype":"","month":"2019-05"},{"category":"anti-social-behaviour","location_type":"Force","location":{"latitude":"51.526233","street":{"id":960383,"name":"On or near Tresham Crescent"},"longitude":"-0.166740"},"context":"","outcome_status":null,"persistent_id":"","id":74289706,"location_subtype":"","month":"2019-05"},{"category":"anti-social-behaviour","location_type":"Force","location":{"latitude":"51.524829","street":{"id":960400,"name":"On or near Mallory Street"},"longitude":"-0.166667"},"context":"","outcome_status":null,"persistent_id":"","id":74289705,"location_subtype":"","month":"2019-05"},{"category":"anti-social-behaviour","location_type":"Force","location":{"latitude":"51.519222","street":{"id":960442,"name":"On or near Transept Street"},"longitude":"-0.166964"},"context":"","outcome_status":null,"persistent_id":"","id":74289704,"location_subtype":"","month":"2019-05"},{"category":"anti-social-behaviour","location_type":"Force","location":{"latitude":"51.519222","street":{"id":960442,"name":"On or near Transept Street"},"longitude":"-0.166964"},"context":"","outcome_status":null,"persistent_id":"","id":74289703,"location_subtype":"","month":"2019-05"},{"category":"anti-social-behaviour","location_type":"Force","location":{"latitude":"51.528548","street":{"id":960414,"name":"On or near Grove Gardens"},"longitude":"-0.166388"},"context":"","outcome_status":null,"persistent_id":"","id":74289702,"location_subtype":"","month":"2019-05"},{"category":"anti-social-behaviour","location_type":"Force","location":{"latitude":"51.528548","street":{"id":960414,"name":"On or near Grove Gardens"},"longitude":"-0.166388"},"context":"","outcome_status":null,"persistent_id":"","id":74289701,"location_subtype":"","month":"2019-05"},{"category":"anti-social-behaviour","location_type":"Force","location":{"latitude":"51.528548","street":{"id":960414,"name":"On or near Grove Gardens"},"longitude":"-0.166388"},"context":"","outcome_status":null,"persistent_id":"","id":74289700,"location_subtype":"","month":"2019-05"},{"category":"anti-social-behaviour","location_type":"Force","location":{"latitude":"51.528548","street":{"id":960414,"name":"On or near Grove Gardens"},"longitude":"-0.166388"},"context":"","outcome_status":null,"persistent_id":"","id":74289699,"location_subtype":"","month":"2019-05"},{"category":"anti-social-behaviour","location_type":"Force","location":{"latitude":"51.526676","street":{"id":960394,"name":"On or near Paveley Street"},"longitude":"-0.165757"},"context":"","outcome_status":null,"persistent_id":"","id":74289696,"location_subtype":"","month":"2019-05"},{"category":"anti-social-behaviour","location_type":"Force","location":{"latitude":"51.532970","street":{"id":965134,"name":"On or near Culworth Street"},"longitude":"-0.166873"},"context":"","outcome_status":null,"persistent_id":"","id":74289695,"location_subtype":"","month":"2019-05"},{"category":"anti-social-behaviour","location_type":"Force","location":{"latitude":"51.528512","street":{"id":960413,"name":"On or near Hanover Gate"},"longitude":"-0.164717"},"context":"","outcome_status":null,"persistent_id":"","id":74289694,"location_subtype":"","month":"2019-05"},{"category":"anti-social-behaviour","location_type":"Force","location":{"latitude":"51.517988","street":{"id":956796,"name":"On or near Cato Street"},"longitude":"-0.165082"},"context":"","outcome_status":null,"persistent_id":"","id":74289690,"location_subtype":"","month":"2019-05"},{"category":"anti-social-behaviour","location_type":"Force","location":{"latitude":"51.517988","street":{"id":956796,"name":"On or near Cato Street"},"longitude":"-0.165082"},"context":"","outcome_status":null,"persistent_id":"","id":74289689,"location_subtype":"","month":"2019-05"},{"category":"anti-social-behaviour","location_type":"Force","location":{"latitude":"51.515739","street":{"id":956725,"name":"On or near Parking Area"},"longitude":"-0.165014"},"context":"","outcome_status":null,"persistent_id":"","id":74289688,"location_subtype":"","month":"2019-05"},{"category":"anti-social-behaviour","location_type":"Force","location":{"latitude":"51.519387","street":{"id":960448,"name":"On or near Old Marylebone Road"},"longitude":"-0.165978"},"context":"","outcome_status":null,"persistent_id":"","id":74289698,"location_subtype":"","month":"2019-05"},{"category":"anti-social-behaviour","location_type":"Force","location":{"latitude":"51.515739","street":{"id":956725,"name":"On or near Parking Area"},"longitude":"-0.165014"},"context":"","outcome_status":null,"persistent_id":"","id":74289687,"location_subtype":"","month":"2019-05"},{"category":"anti-social-behaviour","location_type":"Force","location":{"latitude":"51.519971","street":{"id":960455,"name":"On or near Harcourt Street"},"longitude":"-0.164801"},"context":"","outcome_status":null,"persistent_id":"","id":74289686,"location_subtype":"","month":"2019-05"},{"category":"anti-social-behaviour","location_type":"Force","location":{"latitude":"51.519431","street":{"id":960452,"name":"On or near Homer Street"},"longitude":"-0.164794"},"context":"","outcome_status":null,"persistent_id":"","id":74289685,"location_subtype":"","month":"2019-05"},{"category":"anti-social-behaviour","location_type":"Force","location":{"latitude":"51.524581","street":{"id":960224,"name":"On or near Boldero Place"},"longitude":"-0.169200"},"context":"","outcome_status":null,"persistent_id":"","id":74274682,"location_subtype":"","month":"2019-05"},{"category":"anti-social-behaviour","location_type":"Force","location":{"latitude":"51.519431","street":{"id":960452,"name":"On or near Homer Street"},"longitude":"-0.164794"},"context":"","outcome_status":null,"persistent_id":"","id":74289684,"location_subtype":"","month":"2019-05"},{"category":"anti-social-behaviour","location_type":"Force","location":{"latitude":"51.521789","street":{"id":960469,"name":"On or near Bendall Mews"},"longitude":"-0.165492"},"context":"","outcome_status":null,"persistent_id":"","id":74289683,"location_subtype":"","month":"2019-05"},{"category":"anti-social-behaviour","location_type":"Force","location":{"latitude":"51.521789","street":{"id":960469,"name":"On or near Bendall Mews"},"longitude":"-0.165492"},"context":"","outcome_status":null,"persistent_id":"","id":74289682,"location_subtype":"","month":"2019-05"},{"category":"anti-social-behaviour","location_type":"Force","location":{"latitude":"51.525183","street":{"id":960391,"name":"On or near Rossmore Road"},"longitude":"-0.164015"},"context":"","outcome_status":null,"persistent_id":"","id":74289681,"location_subtype":"","month":"2019-05"},{"category":"anti-social-behaviour","location_type":"Force","location":{"latitude":"51.521418","street":{"id":960327,"name":"On or near Church Street"},"longitude":"-0.173406"},"context":"","outcome_status":null,"persistent_id":"","id":74274751,"location_subtype":"","month":"2019-05"},{"category":"anti-social-behaviour","location_type":"Force","location":{"latitude":"51.516445","street":{"id":956759,"name":"On or near Forset Street"},"longitude":"-0.164179"},"context":"","outcome_status":null,"persistent_id":"","id":74289679,"location_subtype":"","month":"2019-05"},{"category":"anti-social-behaviour","location_type":"Force","location":{"latitude":"51.522325","street":{"id":960399,"name":"On or near Melcombe Place"},"longitude":"-0.162357"},"context":"","outcome_status":null,"persistent_id":"","id":74289676,"location_subtype":"","month":"2019-05"},{"category":"anti-social-behaviour","location_type":"Force","location":{"latitude":"51.522325","street":{"id":960399,"name":"On or near Melcombe Place"},"longitude":"-0.162357"},"context":"","outcome_status":null,"persistent_id":"","id":74289675,"location_subtype":"","month":"2019-05"},{"category":"anti-social-behaviour","location_type":"Force","location":{"latitude":"51.518383","street":{"id":956798,"name":"On or near Bryanston Place"},"longitude":"-0.162732"},"context":"","outcome_status":null,"persistent_id":"","id":74289674,"location_subtype":"","month":"2019-05"},{"category":"anti-social-behaviour","location_type":"Force","location":{"latitude":"51.519278","street":{"id":960433,"name":"On or near Parking Area"},"longitude":"-0.162465"},"context":"","outcome_status":null,"persistent_id":"","id":74289673,"location_subtype":"","month":"2019-05"},{"category":"anti-social-behaviour","location_type":"Force","location":{"latitude":"51.513459","street":{"id":956735,"name":"On or near Stanhope Place"},"longitude":"-0.163002"},"context":"","outcome_status":null,"persistent_id":"","id":74289671,"location_subtype":"","month":"2019-05"},{"category":"anti-social-behaviour","location_type":"Force","location":{"latitude":"51.515761","street":{"id":956734,"name":"On or near Stourcliffe Street"},"longitude":"-0.162390"},"context":"","outcome_status":null,"persistent_id":"","id":74289669,"location_subtype":"","month":"2019-05"},{"category":"anti-social-behaviour","location_type":"Force","location":{"latitude":"51.520774","street":{"id":960463,"name":"On or near Cosway Street"},"longitude":"-0.165533"},"context":"","outcome_status":null,"persistent_id":"","id":74289678,"location_subtype":"","month":"2019-05"},{"category":"anti-social-behaviour","location_type":"Force","location":{"latitude":"51.520530","street":{"id":960458,"name":"On or near Enford Street"},"longitude":"-0.162587"},"context":"","outcome_status":null,"persistent_id":"","id":74289668,"location_subtype":"","month":"2019-05"},{"category":"anti-social-behaviour","location_type":"Force","location":{"latitude":"51.521855","street":{"id":960456,"name":"On or near Great Central Street"},"longitude":"-0.162203"},"context":"","outcome_status":null,"persistent_id":"","id":74289667,"location_subtype":"","month":"2019-05"},{"category":"anti-social-behaviour","location_type":"Force","location":{"latitude":"51.521855","street":{"id":960456,"name":"On or near Great Central Street"},"longitude":"-0.162203"},"context":"","outcome_status":null,"persistent_id":"","id":74289666,"location_subtype":"","month":"2019-05"},{"category":"anti-social-behaviour","location_type":"Force","location":{"latitude":"51.513064","street":{"id":956762,"name":"On or near Cumberland Gate"},"longitude":"-0.161908"},"context":"","outcome_status":null,"persistent_id":"","id":74289665,"location_subtype":"","month":"2019-05"},{"category":"anti-social-behaviour","location_type":"Force","location":{"latitude":"51.521855","street":{"id":960456,"name":"On or near Great Central Street"},"longitude":"-0.162203"},"context":"","outcome_status":null,"persistent_id":"","id":74289664,"location_subtype":"","month":"2019-05"},{"category":"anti-social-behaviour","location_type":"Force","location":{"latitude":"51.516218","street":{"id":956999,"name":"On or near Cleveland Terrace"},"longitude":"-0.181930"},"context":"","outcome_status":null,"persistent_id":"","id":74275640,"location_subtype":"","month":"2019-05"},{"category":"anti-social-behaviour","location_type":"Force","location":{"latitude":"51.513648","street":{"id":957068,"name":"On or near Craven Road"},"longitude":"-0.179121"},"context":"","outcome_status":null,"persistent_id":"","id":74275611,"location_subtype":"","month":"2019-05"},{"category":"anti-social-behaviour","location_type":"Force","location":{"latitude":"51.526276","street":{"id":960219,"name":"On or near Jerome Crescent"},"longitude":"-0.169492"},"context":"","outcome_status":null,"persistent_id":"","id":74274711,"location_subtype":"","month":"2019-05"},{"category":"anti-social-behaviour","location_type":"Force","location":{"latitude":"51.521855","street":{"id":960456,"name":"On or near Great Central Street"},"longitude":"-0.162203"},"context":"","outcome_status":null,"persistent_id":"","id":74289663,"location_subtype":"","month":"2019-05"},{"category":"anti-social-behaviour","location_type":"Force","location":{"latitude":"51.514062","street":{"id":956737,"name":"On or near Seymour Street"},"longitude":"-0.162459"},"context":"","outcome_status":null,"persistent_id":"","id":74289662,"location_subtype":"","month":"2019-05"},{"category":"anti-social-behaviour","location_type":"Force","location":{"latitude":"51.517443","street":{"id":956799,"name":"On or near Bryanston Mews West"},"longitude":"-0.161890"},"context":"","outcome_status":null,"persistent_id":"","id":74289661,"location_subtype":"","month":"2019-05"},{"category":"anti-social-behaviour","location_type":"Force","location":{"latitude":"51.515761","street":{"id":956734,"name":"On or near Stourcliffe Street"},"longitude":"-0.162390"},"context":"","outcome_status":null,"persistent_id":"","id":74289660,"location_subtype":"","month":"2019-05"},{"category":"anti-social-behaviour","location_type":"Force","location":{"latitude":"51.524365","street":{"id":960406,"name":"On or near Ivor Place"},"longitude":"-0.161179"},"context":"","outcome_status":null,"persistent_id":"","id":74289659,"location_subtype":"","month":"2019-05"},{"category":"anti-social-behaviour","location_type":"Force","location":{"latitude":"51.524365","street":{"id":960406,"name":"On or near Ivor Place"},"longitude":"-0.161179"},"context":"","outcome_status":null,"persistent_id":"","id":74289658,"location_subtype":"","month":"2019-05"},{"category":"anti-social-behaviour","location_type":"Force","location":{"latitude":"51.521049","street":{"id":960447,"name":"On or near Salisbury Place"},"longitude":"-0.160159"},"context":"","outcome_status":null,"persistent_id":"","id":74289656,"location_subtype":"","month":"2019-05"},{"category":"anti-social-behaviour","location_type":"Force","location":{"latitude":"51.521049","street":{"id":960447,"name":"On or near Salisbury Place"},"longitude":"-0.160159"},"context":"","outcome_status":null,"persistent_id":"","id":74289655,"location_subtype":"","month":"2019-05"},{"category":"anti-social-behaviour","location_type":"Force","location":{"latitude":"51.521049","street":{"id":960447,"name":"On or near Salisbury Place"},"longitude":"-0.160159"},"context":"","outcome_status":null,"persistent_id":"","id":74289654,"location_subtype":"","month":"2019-05"},{"category":"anti-social-behaviour","location_type":"Force","location":{"latitude":"51.514847","street":{"id":956756,"name":"On or near Great Cumberland Mews"},"longitude":"-0.160870"},"context":"","outcome_status":null,"persistent_id":"","id":74289653,"location_subtype":"","month":"2019-05"},{"category":"anti-social-behaviour","location_type":"Force","location":{"latitude":"51.522202","street":{"id":960418,"name":"On or near Dorset Close"},"longitude":"-0.160243"},"context":"","outcome_status":null,"persistent_id":"","id":74289652,"location_subtype":"","month":"2019-05"},{"category":"anti-social-behaviour","location_type":"Force","location":{"latitude":"51.520055","street":{"id":960459,"name":"On or near Durweston Street"},"longitude":"-0.159810"},"context":"","outcome_status":null,"persistent_id":"","id":74289651,"location_subtype":"","month":"2019-05"},{"category":"anti-social-behaviour","location_type":"Force","location":{"latitude":"51.522507","street":{"id":960223,"name":"On or near Broadley Street"},"longitude":"-0.169427"},"context":"","outcome_status":null,"persistent_id":"","id":74274692,"location_subtype":"","month":"2019-05"},{"category":"anti-social-behaviour","location_type":"Force","location":{"latitude":"51.523310","street":{"id":960415,"name":"On or near Glentworth Street"},"longitude":"-0.159247"},"context":"","outcome_status":null,"persistent_id":"","id":74289650,"location_subtype":"","month":"2019-05"},{"category":"anti-social-behaviour","location_type":"Force","location":{"latitude":"51.517912","street":{"id":956788,"name":"On or near Montagu Square"},"longitude":"-0.159075"},"context":"","outcome_status":null,"persistent_id":"","id":74289649,"location_subtype":"","month":"2019-05"},{"category":"anti-social-behaviour","location_type":"Force","location":{"latitude":"51.517912","street":{"id":956788,"name":"On or near Montagu Square"},"longitude":"-0.159075"},"context":"","outcome_status":null,"persistent_id":"","id":74289648,"location_subtype":"","month":"2019-05"},{"category":"anti-social-behaviour","location_type":"Force","location":{"latitude":"51.522055","street":{"id":960379,"name":"On or near Parking Area"},"longitude":"-0.159499"},"context":"","outcome_status":null,"persistent_id":"","id":74289647,"location_subtype":"","month":"2019-05"},{"category":"anti-social-behaviour","location_type":"Force","location":{"latitude":"51.522893","street":{"id":960398,"name":"On or near Melcombe Street"},"longitude":"-0.159047"},"context":"","outcome_status":null,"persistent_id":"","id":74289646,"location_subtype":"","month":"2019-05"},{"category":"anti-social-behaviour","location_type":"Force","location":{"latitude":"51.522893","street":{"id":960398,"name":"On or near Melcombe Street"},"longitude":"-0.159047"},"context":"","outcome_status":null,"persistent_id":"","id":74289645,"location_subtype":"","month":"2019-05"},{"category":"anti-social-behaviour","location_type":"Force","location":{"latitude":"51.513846","street":{"id":956779,"name":"On or near Supermarket"},"longitude":"-0.160118"},"context":"","outcome_status":null,"persistent_id":"","id":74289644,"location_subtype":"","month":"2019-05"},{"category":"anti-social-behaviour","location_type":"Force","location":{"latitude":"51.513846","street":{"id":956779,"name":"On or near Supermarket"},"longitude":"-0.160118"},"context":"","outcome_status":null,"persistent_id":"","id":74289643,"location_subtype":"","month":"2019-05"},{"category":"anti-social-behaviour","location_type":"Force","location":{"latitude":"51.522507","street":{"id":960223,"name":"On or near Broadley Street"},"longitude":"-0.169427"},"context":"","outcome_status":null,"persistent_id":"","id":74274694,"location_subtype":"","month":"2019-05"},{"category":"anti-social-behaviour","location_type":"Force","location":{"latitude":"51.523565","street":{"id":960388,"name":"On or near Siddons Lane"},"longitude":"-0.158890"},"context":"","outcome_status":null,"persistent_id":"","id":74289341,"location_subtype":"","month":"2019-05"},{"category":"anti-social-behaviour","location_type":"Force","location":{"latitude":"51.523565","street":{"id":960388,"name":"On or near Siddons Lane"},"longitude":"-0.158890"},"context":"","outcome_status":null,"persistent_id":"","id":74289340,"location_subtype":"","month":"2019-05"},{"category":"anti-social-behaviour","location_type":"Force","location":{"latitude":"51.523565","street":{"id":960388,"name":"On or near Siddons Lane"},"longitude":"-0.158890"},"context":"","outcome_status":null,"persistent_id":"","id":74289338,"location_subtype":"","month":"2019-05"},{"category":"anti-social-behaviour","location_type":"Force","location":{"latitude":"51.523565","street":{"id":960388,"name":"On or near Siddons Lane"},"longitude":"-0.158890"},"context":"","outcome_status":null,"persistent_id":"","id":74289339,"location_subtype":"","month":"2019-05"},{"category":"anti-social-behaviour","location_type":"Force","location":{"latitude":"51.523565","street":{"id":960388,"name":"On or near Siddons Lane"},"longitude":"-0.158890"},"context":"","outcome_status":null,"persistent_id":"","id":74289337,"location_subtype":"","month":"2019-05"},{"category":"anti-social-behaviour","location_type":"Force","location":{"latitude":"51.523565","street":{"id":960388,"name":"On or near Siddons Lane"},"longitude":"-0.158890"},"context":"","outcome_status":null,"persistent_id":"","id":74289336,"location_subtype":"","month":"2019-05"},{"category":"anti-social-behaviour","location_type":"Force","location":{"latitude":"51.523565","street":{"id":960388,"name":"On or near Siddons Lane"},"longitude":"-0.158890"},"context":"","outcome_status":null,"persistent_id":"","id":74289335,"location_subtype":"","month":"2019-05"},{"category":"anti-social-behaviour","location_type":"Force","location":{"latitude":"51.523565","street":{"id":960388,"name":"On or near Siddons Lane"},"longitude":"-0.158890"},"context":"","outcome_status":null,"persistent_id":"","id":74289334,"location_subtype":"","month":"2019-05"},{"category":"anti-social-behaviour","location_type":"Force","location":{"latitude":"51.523565","street":{"id":960388,"name":"On or near Siddons Lane"},"longitude":"-0.158890"},"context":"","outcome_status":null,"persistent_id":"","id":74289333,"location_subtype":"","month":"2019-05"},{"category":"anti-social-behaviour","location_type":"Force","location":{"latitude":"51.523565","street":{"id":960388,"name":"On or near Siddons Lane"},"longitude":"-0.158890"},"context":"","outcome_status":null,"persistent_id":"","id":74289332,"location_subtype":"","month":"2019-05"},{"category":"anti-social-behaviour","location_type":"Force","location":{"latitude":"51.523565","street":{"id":960388,"name":"On or near Siddons Lane"},"longitude":"-0.158890"},"context":"","outcome_status":null,"persistent_id":"","id":74289331,"location_subtype":"","month":"2019-05"},{"category":"anti-social-behaviour","location_type":"Force","location":{"latitude":"51.523565","street":{"id":960388,"name":"On or near Siddons Lane"},"longitude":"-0.158890"},"context":"","outcome_status":null,"persistent_id":"","id":74289328,"location_subtype":"","month":"2019-05"},{"category":"anti-social-behaviour","location_type":"Force","location":{"latitude":"51.523565","street":{"id":960388,"name":"On or near Siddons Lane"},"longitude":"-0.158890"},"context":"","outcome_status":null,"persistent_id":"","id":74289326,"location_subtype":"","month":"2019-05"},{"category":"anti-social-behaviour","location_type":"Force","location":{"latitude":"51.515265","street":{"id":956748,"name":"On or near New Quebec Street"},"longitude":"-0.158288"},"context":"","outcome_status":null,"persistent_id":"","id":74289323,"location_subtype":"","month":"2019-05"},{"category":"anti-social-behaviour","location_type":"Force","location":{"latitude":"51.521729","street":{"id":960508,"name":"On or near Further\/higher Educational Building"},"longitude":"-0.157062"},"context":"","outcome_status":null,"persistent_id":"","id":74289322,"location_subtype":"","month":"2019-05"},{"category":"anti-social-behaviour","location_type":"Force","location":{"latitude":"51.521729","street":{"id":960508,"name":"On or near Further\/higher Educational Building"},"longitude":"-0.157062"},"context":"","outcome_status":null,"persistent_id":"","id":74289321,"location_subtype":"","month":"2019-05"},{"category":"anti-social-behaviour","location_type":"Force","location":{"latitude":"51.522254","street":{"id":960345,"name":"On or near Pedestrian Subway"},"longitude":"-0.157271"},"context":"","outcome_status":null,"persistent_id":"","id":74289320,"location_subtype":"","month":"2019-05"},{"category":"anti-social-behaviour","location_type":"Force","location":{"latitude":"51.514044","street":{"id":956807,"name":"On or near Parking Area"},"longitude":"-0.157257"},"context":"","outcome_status":null,"persistent_id":"","id":74289318,"location_subtype":"","month":"2019-05"},{"category":"anti-social-behaviour","location_type":"Force","location":{"latitude":"51.514397","street":{"id":956827,"name":"On or near Portman Street"},"longitude":"-0.156277"},"context":"","outcome_status":null,"persistent_id":"","id":74289317,"location_subtype":"","month":"2019-05"},{"category":"anti-social-behaviour","location_type":"Force","location":{"latitude":"51.517975","street":{"id":957090,"name":"On or near Junction Mews"},"longitude":"-0.168845"},"context":"","outcome_status":null,"persistent_id":"","id":74274664,"location_subtype":"","month":"2019-05"},{"category":"anti-social-behaviour","location_type":"Force","location":{"latitude":"51.521719","street":{"id":960460,"name":"On or near Daventry Street"},"longitude":"-0.167296"},"context":"","outcome_status":null,"persistent_id":"","id":74274665,"location_subtype":"","month":"2019-05"},{"category":"anti-social-behaviour","location_type":"Force","location":{"latitude":"51.517975","street":{"id":957090,"name":"On or near Junction Mews"},"longitude":"-0.168845"},"context":"","outcome_status":null,"persistent_id":"","id":74274656,"location_subtype":"","month":"2019-05"},{"category":"anti-social-behaviour","location_type":"Force","location":{"latitude":"51.517975","street":{"id":957090,"name":"On or near Junction Mews"},"longitude":"-0.168845"},"context":"","outcome_status":null,"persistent_id":"","id":74274657,"location_subtype":"","month":"2019-05"},{"category":"anti-social-behaviour","location_type":"Force","location":{"latitude":"51.517975","street":{"id":957090,"name":"On or near Junction Mews"},"longitude":"-0.168845"},"context":"","outcome_status":null,"persistent_id":"","id":74274658,"location_subtype":"","month":"2019-05"},{"category":"anti-social-behaviour","location_type":"Force","location":{"latitude":"51.517975","street":{"id":957090,"name":"On or near Junction Mews"},"longitude":"-0.168845"},"context":"","outcome_status":null,"persistent_id":"","id":74274659,"location_subtype":"","month":"2019-05"},{"category":"anti-social-behaviour","location_type":"Force","location":{"latitude":"51.517975","street":{"id":957090,"name":"On or near Junction Mews"},"longitude":"-0.168845"},"context":"","outcome_status":null,"persistent_id":"","id":74274660,"location_subtype":"","month":"2019-05"},{"category":"anti-social-behaviour","location_type":"Force","location":{"latitude":"51.517975","street":{"id":957090,"name":"On or near Junction Mews"},"longitude":"-0.168845"},"context":"","outcome_status":null,"persistent_id":"","id":74274663,"location_subtype":"","month":"2019-05"},{"category":"anti-social-behaviour","location_type":"Force","location":{"latitude":"51.522029","street":{"id":960387,"name":"On or near Stalbridge Street"},"longitude":"-0.167010"},"context":"","outcome_status":null,"persistent_id":"","id":74274666,"location_subtype":"","month":"2019-05"},{"category":"anti-social-behaviour","location_type":"Force","location":{"latitude":"51.521369","street":{"id":960341,"name":"On or near Bell Street"},"longitude":"-0.167945"},"context":"","outcome_status":null,"persistent_id":"","id":74274668,"location_subtype":"","month":"2019-05"},{"category":"anti-social-behaviour","location_type":"Force","location":{"latitude":"51.523406","street":{"id":960226,"name":"On or near Ashbridge Street"},"longitude":"-0.168238"},"context":"","outcome_status":null,"persistent_id":"","id":74274670,"location_subtype":"","month":"2019-05"},{"category":"anti-social-behaviour","location_type":"Force","location":{"latitude":"51.519227","street":{"id":960466,"name":"On or near Cabbell Street"},"longitude":"-0.167858"},"context":"","outcome_status":null,"persistent_id":"","id":74274672,"location_subtype":"","month":"2019-05"},{"category":"anti-social-behaviour","location_type":"Force","location":{"latitude":"51.526835","street":{"id":960386,"name":"On or near Swain Street"},"longitude":"-0.167278"},"context":"","outcome_status":null,"persistent_id":"","id":74274673,"location_subtype":"","month":"2019-05"},{"category":"anti-social-behaviour","location_type":"Force","location":{"latitude":"51.525767","street":{"id":960220,"name":"On or near Grendon Street"},"longitude":"-0.168013"},"context":"","outcome_status":null,"persistent_id":"","id":74274674,"location_subtype":"","month":"2019-05"},{"category":"anti-social-behaviour","location_type":"Force","location":{"latitude":"51.516296","street":{"id":957037,"name":"On or near Cambridge Square"},"longitude":"-0.168437"},"context":"","outcome_status":null,"persistent_id":"","id":74274676,"location_subtype":"","month":"2019-05"},{"category":"anti-social-behaviour","location_type":"Force","location":{"latitude":"51.513067","street":{"id":957034,"name":"On or near Clarendon Place"},"longitude":"-0.168998"},"context":"","outcome_status":null,"persistent_id":"","id":74274677,"location_subtype":"","month":"2019-05"},{"category":"anti-social-behaviour","location_type":"Force","location":{"latitude":"51.516296","street":{"id":957037,"name":"On or near Cambridge Square"},"longitude":"-0.168437"},"context":"","outcome_status":null,"persistent_id":"","id":74274679,"location_subtype":"","month":"2019-05"},{"category":"anti-social-behaviour","location_type":"Force","location":{"latitude":"51.520712","street":{"id":960340,"name":"On or near Burne Street"},"longitude":"-0.169067"},"context":"","outcome_status":null,"persistent_id":"","id":74274680,"location_subtype":"","month":"2019-05"},{"category":"anti-social-behaviour","location_type":"Force","location":{"latitude":"51.519657","street":{"id":960342,"name":"On or near Shopping Area"},"longitude":"-0.168849"},"context":"","outcome_status":null,"persistent_id":"","id":74274683,"location_subtype":"","month":"2019-05"},{"category":"anti-social-behaviour","location_type":"Force","location":{"latitude":"51.519657","street":{"id":960342,"name":"On or near Shopping Area"},"longitude":"-0.168849"},"context":"","outcome_status":null,"persistent_id":"","id":74274684,"location_subtype":"","month":"2019-05"},{"category":"anti-social-behaviour","location_type":"Force","location":{"latitude":"51.519657","street":{"id":960342,"name":"On or near Shopping Area"},"longitude":"-0.168849"},"context":"","outcome_status":null,"persistent_id":"","id":74274685,"location_subtype":"","month":"2019-05"},{"category":"anti-social-behaviour","location_type":"Force","location":{"latitude":"51.519657","street":{"id":960342,"name":"On or near Shopping Area"},"longitude":"-0.168849"},"context":"","outcome_status":null,"persistent_id":"","id":74274686,"location_subtype":"","month":"2019-05"},{"category":"anti-social-behaviour","location_type":"Force","location":{"latitude":"51.517545","street":{"id":957089,"name":"On or near Rainsford Street"},"longitude":"-0.169554"},"context":"","outcome_status":null,"persistent_id":"","id":74274687,"location_subtype":"","month":"2019-05"},{"category":"anti-social-behaviour","location_type":"Force","location":{"latitude":"51.517545","street":{"id":957089,"name":"On or near Rainsford Street"},"longitude":"-0.169554"},"context":"","outcome_status":null,"persistent_id":"","id":74274688,"location_subtype":"","month":"2019-05"},{"category":"anti-social-behaviour","location_type":"Force","location":{"latitude":"51.517545","street":{"id":957089,"name":"On or near Rainsford Street"},"longitude":"-0.169554"},"context":"","outcome_status":null,"persistent_id":"","id":74274689,"location_subtype":"","month":"2019-05"},{"category":"anti-social-behaviour","location_type":"Force","location":{"latitude":"51.517545","street":{"id":957089,"name":"On or near Rainsford Street"},"longitude":"-0.169554"},"context":"","outcome_status":null,"persistent_id":"","id":74274690,"location_subtype":"","month":"2019-05"},{"category":"anti-social-behaviour","location_type":"Force","location":{"latitude":"51.522507","street":{"id":960223,"name":"On or near Broadley Street"},"longitude":"-0.169427"},"context":"","outcome_status":null,"persistent_id":"","id":74274691,"location_subtype":"","month":"2019-05"},{"category":"anti-social-behaviour","location_type":"Force","location":{"latitude":"51.522507","street":{"id":960223,"name":"On or near Broadley Street"},"longitude":"-0.169427"},"context":"","outcome_status":null,"persistent_id":"","id":74274693,"location_subtype":"","month":"2019-05"},{"category":"anti-social-behaviour","location_type":"Force","location":{"latitude":"51.522507","street":{"id":960223,"name":"On or near Broadley Street"},"longitude":"-0.169427"},"context":"","outcome_status":null,"persistent_id":"","id":74274696,"location_subtype":"","month":"2019-05"},{"category":"anti-social-behaviour","location_type":"Force","location":{"latitude":"51.519657","street":{"id":960342,"name":"On or near Shopping Area"},"longitude":"-0.168849"},"context":"","outcome_status":null,"persistent_id":"","id":74274697,"location_subtype":"","month":"2019-05"},{"category":"anti-social-behaviour","location_type":"Force","location":{"latitude":"51.519657","street":{"id":960342,"name":"On or near Shopping Area"},"longitude":"-0.168849"},"context":"","outcome_status":null,"persistent_id":"","id":74274700,"location_subtype":"","month":"2019-05"},{"category":"anti-social-behaviour","location_type":"Force","location":{"latitude":"51.519657","street":{"id":960342,"name":"On or near Shopping Area"},"longitude":"-0.168849"},"context":"","outcome_status":null,"persistent_id":"","id":74274701,"location_subtype":"","month":"2019-05"},{"category":"anti-social-behaviour","location_type":"Force","location":{"latitude":"51.519657","street":{"id":960342,"name":"On or near Shopping Area"},"longitude":"-0.168849"},"context":"","outcome_status":null,"persistent_id":"","id":74274703,"location_subtype":"","month":"2019-05"},{"category":"anti-social-behaviour","location_type":"Force","location":{"latitude":"51.519657","street":{"id":960342,"name":"On or near Shopping Area"},"longitude":"-0.168849"},"context":"","outcome_status":null,"persistent_id":"","id":74274704,"location_subtype":"","month":"2019-05"},{"category":"anti-social-behaviour","location_type":"Force","location":{"latitude":"51.519657","street":{"id":960342,"name":"On or near Shopping Area"},"longitude":"-0.168849"},"context":"","outcome_status":null,"persistent_id":"","id":74274705,"location_subtype":"","month":"2019-05"},{"category":"anti-social-behaviour","location_type":"Force","location":{"latitude":"51.522507","street":{"id":960223,"name":"On or near Broadley Street"},"longitude":"-0.169427"},"context":"","outcome_status":null,"persistent_id":"","id":74274706,"location_subtype":"","month":"2019-05"},{"category":"anti-social-behaviour","location_type":"Force","location":{"latitude":"51.515463","street":{"id":957030,"name":"On or near Somers Crescent"},"longitude":"-0.169810"},"context":"","outcome_status":null,"persistent_id":"","id":74274709,"location_subtype":"","month":"2019-05"},{"category":"anti-social-behaviour","location_type":"Force","location":{"latitude":"51.526276","street":{"id":960219,"name":"On or near Jerome Crescent"},"longitude":"-0.169492"},"context":"","outcome_status":null,"persistent_id":"","id":74274712,"location_subtype":"","month":"2019-05"},{"category":"anti-social-behaviour","location_type":"Force","location":{"latitude":"51.516447","street":{"id":957029,"name":"On or near Southwick Street"},"longitude":"-0.170045"},"context":"","outcome_status":null,"persistent_id":"","id":74274714,"location_subtype":"","month":"2019-05"},{"category":"anti-social-behaviour","location_type":"Force","location":{"latitude":"51.528773","street":{"id":960162,"name":"On or near Oak Tree Road"},"longitude":"-0.170473"},"context":"","outcome_status":null,"persistent_id":"","id":74274715,"location_subtype":"","month":"2019-05"},{"category":"anti-social-behaviour","location_type":"Force","location":{"latitude":"51.534130","street":{"id":965261,"name":"On or near Charles Lane"},"longitude":"-0.169711"},"context":"","outcome_status":null,"persistent_id":"","id":74274717,"location_subtype":"","month":"2019-05"},{"category":"anti-social-behaviour","location_type":"Force","location":{"latitude":"51.528292","street":{"id":960169,"name":"On or near Lodge Road"},"longitude":"-0.170190"},"context":"","outcome_status":null,"persistent_id":"","id":74274718,"location_subtype":"","month":"2019-05"},{"category":"anti-social-behaviour","location_type":"Force","location":{"latitude":"51.521110","street":{"id":960316,"name":"On or near Penfold Place"},"longitude":"-0.170391"},"context":"","outcome_status":null,"persistent_id":"","id":74274719,"location_subtype":"","month":"2019-05"},{"category":"anti-social-behaviour","location_type":"Force","location":{"latitude":"51.526276","street":{"id":960219,"name":"On or near Jerome Crescent"},"longitude":"-0.169492"},"context":"","outcome_status":null,"persistent_id":"","id":74274720,"location_subtype":"","month":"2019-05"},{"category":"anti-social-behaviour","location_type":"Force","location":{"latitude":"51.517892","street":{"id":957082,"name":"On or near Junction Place"},"longitude":"-0.171039"},"context":"","outcome_status":null,"persistent_id":"","id":74274721,"location_subtype":"","month":"2019-05"},{"category":"anti-social-behaviour","location_type":"Force","location":{"latitude":"51.519392","street":{"id":960324,"name":"On or near Harbet Road"},"longitude":"-0.170907"},"context":"","outcome_status":null,"persistent_id":"","id":74274724,"location_subtype":"","month":"2019-05"},{"category":"anti-social-behaviour","location_type":"Force","location":{"latitude":"51.521110","street":{"id":960316,"name":"On or near Penfold Place"},"longitude":"-0.170391"},"context":"","outcome_status":null,"persistent_id":"","id":74274725,"location_subtype":"","month":"2019-05"},{"category":"anti-social-behaviour","location_type":"Force","location":{"latitude":"51.522502","street":{"id":960209,"name":"On or near Supermarket"},"longitude":"-0.171950"},"context":"","outcome_status":null,"persistent_id":"","id":74274727,"location_subtype":"","month":"2019-05"},{"category":"anti-social-behaviour","location_type":"Force","location":{"latitude":"51.522502","street":{"id":960209,"name":"On or near Supermarket"},"longitude":"-0.171950"},"context":"","outcome_status":null,"persistent_id":"","id":74274728,"location_subtype":"","month":"2019-05"},{"category":"anti-social-behaviour","location_type":"Force","location":{"latitude":"51.516610","street":{"id":957051,"name":"On or near Southwick Mews"},"longitude":"-0.171263"},"context":"","outcome_status":null,"persistent_id":"","id":74274729,"location_subtype":"","month":"2019-05"},{"category":"anti-social-behaviour","location_type":"Force","location":{"latitude":"51.521110","street":{"id":960316,"name":"On or near Penfold Place"},"longitude":"-0.170391"},"context":"","outcome_status":null,"persistent_id":"","id":74274730,"location_subtype":"","month":"2019-05"},{"category":"anti-social-behaviour","location_type":"Force","location":{"latitude":"51.521110","street":{"id":960316,"name":"On or near Penfold Place"},"longitude":"-0.170391"},"context":"","outcome_status":null,"persistent_id":"","id":74274731,"location_subtype":"","month":"2019-05"},{"category":"anti-social-behaviour","location_type":"Force","location":{"latitude":"51.525191","street":{"id":960200,"name":"On or near Capland Street"},"longitude":"-0.170833"},"context":"","outcome_status":null,"persistent_id":"","id":74274732,"location_subtype":"","month":"2019-05"},{"category":"anti-social-behaviour","location_type":"Force","location":{"latitude":"51.519929","street":{"id":960319,"name":"On or near Marylebone Flyover"},"longitude":"-0.172500"},"context":"","outcome_status":null,"persistent_id":"","id":74274733,"location_subtype":"","month":"2019-05"},{"category":"anti-social-behaviour","location_type":"Force","location":{"latitude":"51.517199","street":{"id":957081,"name":"On or near Praed Street"},"longitude":"-0.172739"},"context":"","outcome_status":null,"persistent_id":"","id":74274735,"location_subtype":"","month":"2019-05"},{"category":"anti-social-behaviour","location_type":"Force","location":{"latitude":"51.524056","street":{"id":960168,"name":"On or near Luton Street"},"longitude":"-0.172435"},"context":"","outcome_status":null,"persistent_id":"","id":74274737,"location_subtype":"","month":"2019-05"},{"category":"anti-social-behaviour","location_type":"Force","location":{"latitude":"51.524056","street":{"id":960168,"name":"On or near Luton Street"},"longitude":"-0.172435"},"context":"","outcome_status":null,"persistent_id":"","id":74274738,"location_subtype":"","month":"2019-05"},{"category":"anti-social-behaviour","location_type":"Force","location":{"latitude":"51.524056","street":{"id":960168,"name":"On or near Luton Street"},"longitude":"-0.172435"},"context":"","outcome_status":null,"persistent_id":"","id":74274739,"location_subtype":"","month":"2019-05"},{"category":"anti-social-behaviour","location_type":"Force","location":{"latitude":"51.524056","street":{"id":960168,"name":"On or near Luton Street"},"longitude":"-0.172435"},"context":"","outcome_status":null,"persistent_id":"","id":74274740,"location_subtype":"","month":"2019-05"},{"category":"anti-social-behaviour","location_type":"Force","location":{"latitude":"51.514721","street":{"id":957047,"name":"On or near Sussex Gardens"},"longitude":"-0.173544"},"context":"","outcome_status":null,"persistent_id":"","id":74274741,"location_subtype":"","month":"2019-05"},{"category":"anti-social-behaviour","location_type":"Force","location":{"latitude":"51.514721","street":{"id":957047,"name":"On or near Sussex Gardens"},"longitude":"-0.173544"},"context":"","outcome_status":null,"persistent_id":"","id":74274742,"location_subtype":"","month":"2019-05"},{"category":"anti-social-behaviour","location_type":"Force","location":{"latitude":"51.514721","street":{"id":957047,"name":"On or near Sussex Gardens"},"longitude":"-0.173544"},"context":"","outcome_status":null,"persistent_id":"","id":74274743,"location_subtype":"","month":"2019-05"},{"category":"anti-social-behaviour","location_type":"Force","location":{"latitude":"51.514721","street":{"id":957047,"name":"On or near Sussex Gardens"},"longitude":"-0.173544"},"context":"","outcome_status":null,"persistent_id":"","id":74274744,"location_subtype":"","month":"2019-05"},{"category":"anti-social-behaviour","location_type":"Force","location":{"latitude":"51.514721","street":{"id":957047,"name":"On or near Sussex Gardens"},"longitude":"-0.173544"},"context":"","outcome_status":null,"persistent_id":"","id":74274745,"location_subtype":"","month":"2019-05"},{"category":"anti-social-behaviour","location_type":"Force","location":{"latitude":"51.514721","street":{"id":957047,"name":"On or near Sussex Gardens"},"longitude":"-0.173544"},"context":"","outcome_status":null,"persistent_id":"","id":74274746,"location_subtype":"","month":"2019-05"},{"category":"anti-social-behaviour","location_type":"Force","location":{"latitude":"51.514721","street":{"id":957047,"name":"On or near Sussex Gardens"},"longitude":"-0.173544"},"context":"","outcome_status":null,"persistent_id":"","id":74274747,"location_subtype":"","month":"2019-05"},{"category":"anti-social-behaviour","location_type":"Force","location":{"latitude":"51.514721","street":{"id":957047,"name":"On or near Sussex Gardens"},"longitude":"-0.173544"},"context":"","outcome_status":null,"persistent_id":"","id":74274748,"location_subtype":"","month":"2019-05"},{"category":"anti-social-behaviour","location_type":"Force","location":{"latitude":"51.522096","street":{"id":960295,"name":"On or near Warwick Place"},"longitude":"-0.183484"},"context":"","outcome_status":null,"persistent_id":"","id":74275652,"location_subtype":"","month":"2019-05"},{"category":"anti-social-behaviour","location_type":"Force","location":{"latitude":"51.512603","street":{"id":956965,"name":"On or near Queensborough Mews"},"longitude":"-0.185403"},"context":"","outcome_status":null,"persistent_id":"","id":74275668,"location_subtype":"","month":"2019-05"},{"category":"anti-social-behaviour","location_type":"Force","location":{"latitude":"51.511609","street":{"id":957012,"name":"On or near B411"},"longitude":"-0.186279"},"context":"","outcome_status":null,"persistent_id":"","id":74275676,"location_subtype":"","month":"2019-05"},{"category":"anti-social-behaviour","location_type":"Force","location":{"latitude":"51.520526","street":{"id":960314,"name":"On or near St Mary's Square"},"longitude":"-0.176151"},"context":"","outcome_status":null,"persistent_id":"","id":74275585,"location_subtype":"","month":"2019-05"},{"category":"anti-social-behaviour","location_type":"Force","location":{"latitude":"51.516834","street":{"id":956951,"name":"On or near Parking Area"},"longitude":"-0.186273"},"context":"","outcome_status":null,"persistent_id":"","id":74275689,"location_subtype":"","month":"2019-05"},{"category":"anti-social-behaviour","location_type":"Force","location":{"latitude":"51.527419","street":{"id":960421,"name":"On or near Casey Close"},"longitude":"-0.167255"},"context":"","outcome_status":null,"persistent_id":"","id":74289715,"location_subtype":"","month":"2019-05"},{"category":"anti-social-behaviour","location_type":"Force","location":{"latitude":"51.522029","street":{"id":960387,"name":"On or near Stalbridge Street"},"longitude":"-0.167010"},"context":"","outcome_status":null,"persistent_id":"","id":74289712,"location_subtype":"","month":"2019-05"},{"category":"anti-social-behaviour","location_type":"Force","location":{"latitude":"51.513034","street":{"id":956961,"name":"On or near Queensway"},"longitude":"-0.187663"},"context":"","outcome_status":null,"persistent_id":"","id":74275701,"location_subtype":"","month":"2019-05"},{"category":"anti-social-behaviour","location_type":"Force","location":{"latitude":"51.517677","street":{"id":956801,"name":"On or near Brendon Street"},"longitude":"-0.165340"},"context":"","outcome_status":null,"persistent_id":"","id":74289693,"location_subtype":"","month":"2019-05"},{"category":"anti-social-behaviour","location_type":"Force","location":{"latitude":"51.517677","street":{"id":956801,"name":"On or near Brendon Street"},"longitude":"-0.165340"},"context":"","outcome_status":null,"persistent_id":"","id":74289692,"location_subtype":"","month":"2019-05"},{"category":"anti-social-behaviour","location_type":"Force","location":{"latitude":"51.517677","street":{"id":956801,"name":"On or near Brendon Street"},"longitude":"-0.165340"},"context":"","outcome_status":null,"persistent_id":"","id":74289691,"location_subtype":"","month":"2019-05"},{"category":"anti-social-behaviour","location_type":"Force","location":{"latitude":"51.519404","street":{"id":960434,"name":"On or near Parking Area"},"longitude":"-0.162460"},"context":"","outcome_status":null,"persistent_id":"","id":74289672,"location_subtype":"","month":"2019-05"},{"category":"anti-social-behaviour","location_type":"Force","location":{"latitude":"51.519278","street":{"id":960433,"name":"On or near Parking Area"},"longitude":"-0.162465"},"context":"","outcome_status":null,"persistent_id":"","id":74289670,"location_subtype":"","month":"2019-05"},{"category":"anti-social-behaviour","location_type":"Force","location":{"latitude":"51.520736","street":{"id":960451,"name":"On or near Knox Street"},"longitude":"-0.161412"},"context":"","outcome_status":null,"persistent_id":"","id":74289657,"location_subtype":"","month":"2019-05"},{"category":"anti-social-behaviour","location_type":"Force","location":{"latitude":"51.516469","street":{"id":956962,"name":"On or near Queensway"},"longitude":"-0.188867"},"context":"","outcome_status":null,"persistent_id":"","id":74275728,"location_subtype":"","month":"2019-05"},{"category":"anti-social-behaviour","location_type":"Force","location":{"latitude":"51.523565","street":{"id":960388,"name":"On or near Siddons Lane"},"longitude":"-0.158890"},"context":"","outcome_status":null,"persistent_id":"","id":74289330,"location_subtype":"","month":"2019-05"},{"category":"anti-social-behaviour","location_type":"Force","location":{"latitude":"51.523565","street":{"id":960388,"name":"On or near Siddons Lane"},"longitude":"-0.158890"},"context":"","outcome_status":null,"persistent_id":"","id":74289329,"location_subtype":"","month":"2019-05"},{"category":"anti-social-behaviour","location_type":"Force","location":{"latitude":"51.524193","street":{"id":960265,"name":"On or near Elnathan Mews"},"longitude":"-0.187681"},"context":"","outcome_status":null,"persistent_id":"","id":74275730,"location_subtype":"","month":"2019-05"},{"category":"anti-social-behaviour","location_type":"Force","location":{"latitude":"51.523565","street":{"id":960388,"name":"On or near Siddons Lane"},"longitude":"-0.158890"},"context":"","outcome_status":null,"persistent_id":"","id":74289327,"location_subtype":"","month":"2019-05"},{"category":"anti-social-behaviour","location_type":"Force","location":{"latitude":"51.516194","street":{"id":957344,"name":"On or near Hatherley Grove"},"longitude":"-0.189700"},"context":"","outcome_status":null,"persistent_id":"","id":74276317,"location_subtype":"","month":"2019-05"},{"category":"anti-social-behaviour","location_type":"Force","location":{"latitude":"51.523565","street":{"id":960388,"name":"On or near Siddons Lane"},"longitude":"-0.158890"},"context":"","outcome_status":null,"persistent_id":"","id":74289325,"location_subtype":"","month":"2019-05"},{"category":"anti-social-behaviour","location_type":"Force","location":{"latitude":"51.523565","street":{"id":960388,"name":"On or near Siddons Lane"},"longitude":"-0.158890"},"context":"","outcome_status":null,"persistent_id":"","id":74289324,"location_subtype":"","month":"2019-05"},{"category":"anti-social-behaviour","location_type":"Force","location":{"latitude":"51.514983","street":{"id":956949,"name":"On or near Shopping Area"},"longitude":"-0.147822"},"context":"","outcome_status":null,"persistent_id":"","id":74282238,"location_subtype":"","month":"2019-05"},{"category":"anti-social-behaviour","location_type":"Force","location":{"latitude":"51.514044","street":{"id":956807,"name":"On or near Parking Area"},"longitude":"-0.157257"},"context":"","outcome_status":null,"persistent_id":"","id":74289319,"location_subtype":"","month":"2019-05"},{"category":"anti-social-behaviour","location_type":"Force","location":{"latitude":"51.514983","street":{"id":956949,"name":"On or near Shopping Area"},"longitude":"-0.147822"},"context":"","outcome_status":null,"persistent_id":"","id":74282239,"location_subtype":"","month":"2019-05"},{"category":"anti-social-behaviour","location_type":"Force","location":{"latitude":"51.521306","street":{"id":960484,"name":"On or near Nottingham Street"},"longitude":"-0.153057"},"context":"","outcome_status":null,"persistent_id":"","id":74289304,"location_subtype":"","month":"2019-05"},{"category":"anti-social-behaviour","location_type":"Force","location":{"latitude":"51.521306","street":{"id":960484,"name":"On or near Nottingham Street"},"longitude":"-0.153057"},"context":"","outcome_status":null,"persistent_id":"","id":74289301,"location_subtype":"","month":"2019-05"},{"category":"anti-social-behaviour","location_type":"Force","location":{"latitude":"51.518382","street":{"id":956911,"name":"On or near Cross Keys Close"},"longitude":"-0.150653"},"context":"","outcome_status":null,"persistent_id":"","id":74289295,"location_subtype":"","month":"2019-05"},{"category":"anti-social-behaviour","location_type":"Force","location":{"latitude":"51.515886","street":{"id":956813,"name":"On or near Welbeck Street"},"longitude":"-0.148621"},"context":"","outcome_status":null,"persistent_id":"","id":74289291,"location_subtype":"","month":"2019-05"},{"category":"anti-social-behaviour","location_type":"Force","location":{"latitude":"51.522891","street":{"id":960608,"name":"On or near Park Crescent"},"longitude":"-0.146319"},"context":"","outcome_status":null,"persistent_id":"","id":74289288,"location_subtype":"","month":"2019-05"},{"category":"anti-social-behaviour","location_type":"Force","location":{"latitude":"51.516700","street":{"id":957054,"name":"On or near Praed Mews"},"longitude":"-0.172989"},"context":"","outcome_status":null,"persistent_id":"","id":74274755,"location_subtype":"","month":"2019-05"},{"category":"anti-social-behaviour","location_type":"Force","location":{"latitude":"51.517199","street":{"id":957081,"name":"On or near Praed Street"},"longitude":"-0.172739"},"context":"","outcome_status":null,"persistent_id":"","id":74274753,"location_subtype":"","month":"2019-05"},{"category":"anti-social-behaviour","location_type":"Force","location":{"latitude":"51.514721","street":{"id":957047,"name":"On or near Sussex Gardens"},"longitude":"-0.173544"},"context":"","outcome_status":null,"persistent_id":"","id":74274750,"location_subtype":"","month":"2019-05"},{"category":"anti-social-behaviour","location_type":"Force","location":{"latitude":"51.514721","street":{"id":957047,"name":"On or near Sussex Gardens"},"longitude":"-0.173544"},"context":"","outcome_status":null,"persistent_id":"","id":74274749,"location_subtype":"","month":"2019-05"},{"category":"anti-social-behaviour","location_type":"Force","location":{"latitude":"51.517199","street":{"id":957081,"name":"On or near Praed Street"},"longitude":"-0.172739"},"context":"","outcome_status":null,"persistent_id":"","id":74274736,"location_subtype":"","month":"2019-05"},{"category":"anti-social-behaviour","location_type":"Force","location":{"latitude":"51.519929","street":{"id":960319,"name":"On or near Marylebone Flyover"},"longitude":"-0.172500"},"context":"","outcome_status":null,"persistent_id":"","id":74274734,"location_subtype":"","month":"2019-05"},{"category":"anti-social-behaviour","location_type":"Force","location":{"latitude":"51.516610","street":{"id":957051,"name":"On or near Southwick Mews"},"longitude":"-0.171263"},"context":"","outcome_status":null,"persistent_id":"","id":74274726,"location_subtype":"","month":"2019-05"},{"category":"anti-social-behaviour","location_type":"Force","location":{"latitude":"51.519392","street":{"id":960324,"name":"On or near Harbet Road"},"longitude":"-0.170907"},"context":"","outcome_status":null,"persistent_id":"","id":74274723,"location_subtype":"","month":"2019-05"},{"category":"anti-social-behaviour","location_type":"Force","location":{"latitude":"51.522507","street":{"id":960223,"name":"On or near Broadley Street"},"longitude":"-0.169427"},"context":"","outcome_status":null,"persistent_id":"","id":74274695,"location_subtype":"","month":"2019-05"},{"category":"anti-social-behaviour","location_type":"Force","location":{"latitude":"51.519392","street":{"id":960324,"name":"On or near Harbet Road"},"longitude":"-0.170907"},"context":"","outcome_status":null,"persistent_id":"","id":74274722,"location_subtype":"","month":"2019-05"},{"category":"anti-social-behaviour","location_type":"Force","location":{"latitude":"51.517975","street":{"id":957090,"name":"On or near Junction Mews"},"longitude":"-0.168845"},"context":"","outcome_status":null,"persistent_id":"","id":74274661,"location_subtype":"","month":"2019-05"},{"category":"anti-social-behaviour","location_type":"Force","location":{"latitude":"51.522507","street":{"id":960223,"name":"On or near Broadley Street"},"longitude":"-0.169427"},"context":"","outcome_status":null,"persistent_id":"","id":74274716,"location_subtype":"","month":"2019-05"},{"category":"anti-social-behaviour","location_type":"Force","location":{"latitude":"51.517975","street":{"id":957090,"name":"On or near Junction Mews"},"longitude":"-0.168845"},"context":"","outcome_status":null,"persistent_id":"","id":74274662,"location_subtype":"","month":"2019-05"},{"category":"anti-social-behaviour","location_type":"Force","location":{"latitude":"51.534323","street":{"id":965263,"name":"On or near Allitsen Road"},"longitude":"-0.168247"},"context":"","outcome_status":null,"persistent_id":"","id":74274667,"location_subtype":"","month":"2019-05"},{"category":"anti-social-behaviour","location_type":"Force","location":{"latitude":"51.521369","street":{"id":960341,"name":"On or near Bell Street"},"longitude":"-0.167945"},"context":"","outcome_status":null,"persistent_id":"","id":74274669,"location_subtype":"","month":"2019-05"},{"category":"anti-social-behaviour","location_type":"Force","location":{"latitude":"51.521110","street":{"id":960316,"name":"On or near Penfold Place"},"longitude":"-0.170391"},"context":"","outcome_status":null,"persistent_id":"","id":74274713,"location_subtype":"","month":"2019-05"},{"category":"anti-social-behaviour","location_type":"Force","location":{"latitude":"51.514540","street":{"id":957067,"name":"On or near Craven Road"},"longitude":"-0.177529"},"context":"","outcome_status":null,"persistent_id":"","id":74275600,"location_subtype":"","month":"2019-05"},{"category":"anti-social-behaviour","location_type":"Force","location":{"latitude":"51.526276","street":{"id":960219,"name":"On or near Jerome Crescent"},"longitude":"-0.169492"},"context":"","outcome_status":null,"persistent_id":"","id":74274710,"location_subtype":"","month":"2019-05"},{"category":"anti-social-behaviour","location_type":"Force","location":{"latitude":"51.514915","street":{"id":957091,"name":"On or near Southwick Place"},"longitude":"-0.169241"},"context":"","outcome_status":null,"persistent_id":"","id":74274678,"location_subtype":"","month":"2019-05"},{"category":"anti-social-behaviour","location_type":"Force","location":{"latitude":"51.522507","street":{"id":960223,"name":"On or near Broadley Street"},"longitude":"-0.169427"},"context":"","outcome_status":null,"persistent_id":"","id":74274708,"location_subtype":"","month":"2019-05"},{"category":"anti-social-behaviour","location_type":"Force","location":{"latitude":"51.522507","street":{"id":960223,"name":"On or near Broadley Street"},"longitude":"-0.169427"},"context":"","outcome_status":null,"persistent_id":"","id":74274707,"location_subtype":"","month":"2019-05"},{"category":"anti-social-behaviour","location_type":"Force","location":{"latitude":"51.519657","street":{"id":960342,"name":"On or near Shopping Area"},"longitude":"-0.168849"},"context":"","outcome_status":null,"persistent_id":"","id":74274702,"location_subtype":"","month":"2019-05"},{"category":"anti-social-behaviour","location_type":"Force","location":{"latitude":"51.519657","street":{"id":960342,"name":"On or near Shopping Area"},"longitude":"-0.168849"},"context":"","outcome_status":null,"persistent_id":"","id":74274699,"location_subtype":"","month":"2019-05"},{"category":"anti-social-behaviour","location_type":"Force","location":{"latitude":"51.514605","street":{"id":956883,"name":"On or near Shopping Area"},"longitude":"-0.150662"},"context":"","outcome_status":null,"persistent_id":"","id":74282263,"location_subtype":"","month":"2019-05"},{"category":"anti-social-behaviour","location_type":"Force","location":{"latitude":"51.514605","street":{"id":956883,"name":"On or near Shopping Area"},"longitude":"-0.150662"},"context":"","outcome_status":null,"persistent_id":"","id":74282264,"location_subtype":"","month":"2019-05"},{"category":"anti-social-behaviour","location_type":"Force","location":{"latitude":"51.514605","street":{"id":956883,"name":"On or near Shopping Area"},"longitude":"-0.150662"},"context":"","outcome_status":null,"persistent_id":"","id":74282265,"location_subtype":"","month":"2019-05"},{"category":"anti-social-behaviour","location_type":"Force","location":{"latitude":"51.513234","street":{"id":956857,"name":"On or near Duke Street"},"longitude":"-0.150934"},"context":"","outcome_status":null,"persistent_id":"","id":74282272,"location_subtype":"","month":"2019-05"},{"category":"anti-social-behaviour","location_type":"Force","location":{"latitude":"51.512719","street":{"id":956806,"name":"On or near Parking Area"},"longitude":"-0.151387"},"context":"","outcome_status":null,"persistent_id":"","id":74282273,"location_subtype":"","month":"2019-05"},{"category":"anti-social-behaviour","location_type":"Force","location":{"latitude":"51.510725","street":{"id":956868,"name":"On or near Blackburne's Mews"},"longitude":"-0.152649"},"context":"","outcome_status":null,"persistent_id":"","id":74282281,"location_subtype":"","month":"2019-05"},{"category":"anti-social-behaviour","location_type":"Force","location":{"latitude":"51.510365","street":{"id":956816,"name":"On or near Upper Grosvenor Street"},"longitude":"-0.154364"},"context":"","outcome_status":null,"persistent_id":"","id":74282286,"location_subtype":"","month":"2019-05"},{"category":"anti-social-behaviour","location_type":"Force","location":{"latitude":"51.514341","street":{"id":956850,"name":"On or near Granville Place"},"longitude":"-0.155558"},"context":"","outcome_status":null,"persistent_id":"","id":74282287,"location_subtype":"","month":"2019-05"},{"category":"anti-social-behaviour","location_type":"Force","location":{"latitude":"51.514341","street":{"id":956850,"name":"On or near Granville Place"},"longitude":"-0.155558"},"context":"","outcome_status":null,"persistent_id":"","id":74282288,"location_subtype":"","month":"2019-05"},{"category":"anti-social-behaviour","location_type":"Force","location":{"latitude":"51.514341","street":{"id":956850,"name":"On or near Granville Place"},"longitude":"-0.155558"},"context":"","outcome_status":null,"persistent_id":"","id":74282289,"location_subtype":"","month":"2019-05"},{"category":"anti-social-behaviour","location_type":"Force","location":{"latitude":"51.514341","street":{"id":956850,"name":"On or near Granville Place"},"longitude":"-0.155558"},"context":"","outcome_status":null,"persistent_id":"","id":74282290,"location_subtype":"","month":"2019-05"},{"category":"anti-social-behaviour","location_type":"Force","location":{"latitude":"51.512672","street":{"id":956889,"name":"On or near Further\/higher Educational Building"},"longitude":"-0.156980"},"context":"","outcome_status":null,"persistent_id":"","id":74282294,"location_subtype":"","month":"2019-05"},{"category":"anti-social-behaviour","location_type":"Force","location":{"latitude":"51.511924","street":{"id":956805,"name":"On or near Pedestrian Subway"},"longitude":"-0.158005"},"context":"","outcome_status":null,"persistent_id":"","id":74282296,"location_subtype":"","month":"2019-05"},{"category":"anti-social-behaviour","location_type":"Force","location":{"latitude":"51.512465","street":{"id":956715,"name":"On or near Pedestrian Subway"},"longitude":"-0.158661"},"context":"","outcome_status":null,"persistent_id":"","id":74282297,"location_subtype":"","month":"2019-05"},{"category":"anti-social-behaviour","location_type":"Force","location":{"latitude":"51.513952","street":{"id":956377,"name":"On or near Woodstock Street"},"longitude":"-0.146883"},"context":"","outcome_status":null,"persistent_id":"","id":74282235,"location_subtype":"","month":"2019-05"},{"category":"anti-social-behaviour","location_type":"Force","location":{"latitude":"51.514983","street":{"id":956949,"name":"On or near Shopping Area"},"longitude":"-0.147822"},"context":"","outcome_status":null,"persistent_id":"","id":74282237,"location_subtype":"","month":"2019-05"},{"category":"anti-social-behaviour","location_type":"Force","location":{"latitude":"51.514983","street":{"id":956949,"name":"On or near Shopping Area"},"longitude":"-0.147822"},"context":"","outcome_status":null,"persistent_id":"","id":74282240,"location_subtype":"","month":"2019-05"},{"category":"anti-social-behaviour","location_type":"Force","location":{"latitude":"51.514605","street":{"id":956883,"name":"On or near Shopping Area"},"longitude":"-0.150662"},"context":"","outcome_status":null,"persistent_id":"","id":74282261,"location_subtype":"","month":"2019-05"},{"category":"anti-social-behaviour","location_type":"Force","location":{"latitude":"51.514605","street":{"id":956883,"name":"On or near Shopping Area"},"longitude":"-0.150662"},"context":"","outcome_status":null,"persistent_id":"","id":74282262,"location_subtype":"","month":"2019-05"},{"category":"anti-social-behaviour","location_type":"Force","location":{"latitude":"51.522646","street":{"id":960426,"name":"On or near Ashmill Street"},"longitude":"-0.167375"},"context":"","outcome_status":null,"persistent_id":"","id":74274671,"location_subtype":"","month":"2019-05"},{"category":"anti-social-behaviour","location_type":"Force","location":{"latitude":"51.519657","street":{"id":960342,"name":"On or near Shopping Area"},"longitude":"-0.168849"},"context":"","outcome_status":null,"persistent_id":"","id":74274698,"location_subtype":"","month":"2019-05"},{"category":"anti-social-behaviour","location_type":"Force","location":{"latitude":"51.516296","street":{"id":957037,"name":"On or near Cambridge Square"},"longitude":"-0.168437"},"context":"","outcome_status":null,"persistent_id":"","id":74274675,"location_subtype":"","month":"2019-05"},{"category":"anti-social-behaviour","location_type":"Force","location":{"latitude":"51.519657","street":{"id":960342,"name":"On or near Shopping Area"},"longitude":"-0.168849"},"context":"","outcome_status":null,"persistent_id":"","id":74274681,"location_subtype":"","month":"2019-05"},{"category":"anti-social-behaviour","location_type":"Force","location":{"latitude":"51.517975","street":{"id":957090,"name":"On or near Junction Mews"},"longitude":"-0.168845"},"context":"","outcome_status":null,"persistent_id":"","id":74289716,"location_subtype":"","month":"2019-05"},{"category":"anti-social-behaviour","location_type":"Force","location":{"latitude":"51.527419","street":{"id":960421,"name":"On or near Casey Close"},"longitude":"-0.167255"},"context":"","outcome_status":null,"persistent_id":"","id":74289714,"location_subtype":"","month":"2019-05"},{"category":"anti-social-behaviour","location_type":"Force","location":{"latitude":"51.522029","street":{"id":960387,"name":"On or near Stalbridge Street"},"longitude":"-0.167010"},"context":"","outcome_status":null,"persistent_id":"","id":74289713,"location_subtype":"","month":"2019-05"},{"category":"anti-social-behaviour","location_type":"Force","location":{"latitude":"51.524829","street":{"id":960400,"name":"On or near Mallory Street"},"longitude":"-0.166667"},"context":"","outcome_status":null,"persistent_id":"","id":74289711,"location_subtype":"","month":"2019-05"},{"category":"anti-social-behaviour","location_type":"Force","location":{"latitude":"51.522589","street":{"id":960402,"name":"On or near Lisson Grove"},"longitude":"-0.165431"},"context":"","outcome_status":null,"persistent_id":"","id":74289697,"location_subtype":"","month":"2019-05"},{"category":"anti-social-behaviour","location_type":"Force","location":{"latitude":"51.517199","street":{"id":957081,"name":"On or near Praed Street"},"longitude":"-0.172739"},"context":"","outcome_status":null,"persistent_id":"","id":74275557,"location_subtype":"","month":"2019-05"},{"category":"anti-social-behaviour","location_type":"Force","location":{"latitude":"51.522585","street":{"id":960189,"name":"On or near Edgware Road"},"longitude":"-0.173849"},"context":"","outcome_status":null,"persistent_id":"","id":74275559,"location_subtype":"","month":"2019-05"},{"category":"anti-social-behaviour","location_type":"Force","location":{"latitude":"51.522585","street":{"id":960189,"name":"On or near Edgware Road"},"longitude":"-0.173849"},"context":"","outcome_status":null,"persistent_id":"","id":74275560,"location_subtype":"","month":"2019-05"},{"category":"anti-social-behaviour","location_type":"Force","location":{"latitude":"51.522585","street":{"id":960189,"name":"On or near Edgware Road"},"longitude":"-0.173849"},"context":"","outcome_status":null,"persistent_id":"","id":74275561,"location_subtype":"","month":"2019-05"},{"category":"anti-social-behaviour","location_type":"Force","location":{"latitude":"51.522585","street":{"id":960189,"name":"On or near Edgware Road"},"longitude":"-0.173849"},"context":"","outcome_status":null,"persistent_id":"","id":74275562,"location_subtype":"","month":"2019-05"},{"category":"anti-social-behaviour","location_type":"Force","location":{"latitude":"51.522585","street":{"id":960189,"name":"On or near Edgware Road"},"longitude":"-0.173849"},"context":"","outcome_status":null,"persistent_id":"","id":74275563,"location_subtype":"","month":"2019-05"},{"category":"anti-social-behaviour","location_type":"Force","location":{"latitude":"51.523512","street":{"id":960174,"name":"On or near Hatton Row"},"longitude":"-0.173899"},"context":"","outcome_status":null,"persistent_id":"","id":74275564,"location_subtype":"","month":"2019-05"},