[{"category":"anti-social-behaviour","location_type":"Force","location":{"latitude":"51.523895","street":{"id":960906,"name":"On or near Parking Area"},"longitude":"-0.124093"},"context":"","outcome_status":null,"persistent_id":"","id":74286562,"location_subtype":"","month":"2019-05"},{"category":"anti-social-behaviour","location_type":"Force","location":{"latitude":"51.506340","street":{"id":956280,"name":"On or near Paris Garden"},"longitude":"-0.106110"},"context":"","outcome_status":null,"persistent_id":"","id":74272694,"location_subtype":"","month":"2019-05"},{"category":"anti-social-behaviour","location_type":"Force","location":{"latitude":"51.506340","street":{"id":956280,"name":"On or near Paris Garden"},"longitude":"-0.106110"},"context":"","outcome_status":null,"persistent_id":"","id":74272695,"location_subtype":"","month":"2019-05"},{"category":"anti-social-behaviour","location_type":"Force","location":{"latitude":"51.506340","street":{"id":956280,"name":"On or near Paris Garden"},"longitude":"-0.106110"},"context":"","outcome_status":null,"persistent_id":"","id":74272696,"location_subtype":"","month":"2019-05"},{"category":"anti-social-behaviour","location_type":"Force","location":{"latitude":"51.506340","street":{"id":956280,"name":"On or near Paris Garden"},"longitude":"-0.106110"},"context":"","outcome_status":null,"persistent_id":"","id":74272697,"location_subtype":"","month":"2019-05"},{"category":"anti-social-behaviour","location_type":"Force","location":{"latitude":"51.506340","street":{"id":956280,"name":"On or near Paris Garden"},"longitude":"-0.106110"},"context":"","outcome_status":null,"persistent_id":"","id":74272698,"location_subtype":"","month":"2019-05"},{"category":"anti-social-behaviour","location_type":"Force","location":{"latitude":"51.506340","street":{"id":956280,"name":"On or near Paris Garden"},"longitude":"-0.106110"},"context":"","outcome_status":null,"persistent_id":"","id":74273256,"location_subtype":"","month":"2019-05"},{"category":"anti-social-behaviour","location_type":"Force","location":{"latitude":"51.508055","street":{"id":956265,"name":"On or near Barge House Street"},"longitude":"-0.108143"},"context":"","outcome_status":null,"persistent_id":"","id":74273291,"location_subtype":"","month":"2019-05"},{"category":"anti-social-behaviour","location_type":"Force","location":{"latitude":"51.508055","street":{"id":956265,"name":"On or near Barge House Street"},"longitude":"-0.108143"},"context":"","outcome_status":null,"persistent_id":"","id":74273292,"location_subtype":"","month":"2019-05"},{"category":"anti-social-behaviour","location_type":"Force","location":{"latitude":"51.507339","street":{"id":956287,"name":"On or near Broadwall"},"longitude":"-0.108388"},"context":"","outcome_status":null,"persistent_id":"","id":74273297,"location_subtype":"","month":"2019-05"},{"category":"anti-social-behaviour","location_type":"Force","location":{"latitude":"51.507339","street":{"id":956287,"name":"On or near Broadwall"},"longitude":"-0.108388"},"context":"","outcome_status":null,"persistent_id":"","id":74273306,"location_subtype":"","month":"2019-05"},{"category":"anti-social-behaviour","location_type":"Force","location":{"latitude":"51.507339","street":{"id":956287,"name":"On or near Broadwall"},"longitude":"-0.108388"},"context":"","outcome_status":null,"persistent_id":"","id":74273307,"location_subtype":"","month":"2019-05"},{"category":"anti-social-behaviour","location_type":"Force","location":{"latitude":"51.507339","street":{"id":956287,"name":"On or near Broadwall"},"longitude":"-0.108388"},"context":"","outcome_status":null,"persistent_id":"","id":74273308,"location_subtype":"","month":"2019-05"},{"category":"anti-social-behaviour","location_type":"Force","location":{"latitude":"51.506344","street":{"id":956286,"name":"On or near Coin Street"},"longitude":"-0.110216"},"context":"","outcome_status":null,"persistent_id":"","id":74273330,"location_subtype":"","month":"2019-05"},{"category":"anti-social-behaviour","location_type":"Force","location":{"latitude":"51.506344","street":{"id":956286,"name":"On or near Coin Street"},"longitude":"-0.110216"},"context":"","outcome_status":null,"persistent_id":"","id":74273331,"location_subtype":"","month":"2019-05"},{"category":"anti-social-behaviour","location_type":"Force","location":{"latitude":"51.525884","street":{"id":961184,"name":"On or near Nightclub"},"longitude":"-0.085203"},"context":"","outcome_status":null,"persistent_id":"","id":74278437,"location_subtype":"","month":"2019-05"},{"category":"anti-social-behaviour","location_type":"Force","location":{"latitude":"51.522143","street":{"id":961130,"name":"On or near Worship Street"},"longitude":"-0.085792"},"context":"","outcome_status":null,"persistent_id":"","id":74278431,"location_subtype":"","month":"2019-05"},{"category":"anti-social-behaviour","location_type":"Force","location":{"latitude":"51.522143","street":{"id":961130,"name":"On or near Worship Street"},"longitude":"-0.085792"},"context":"","outcome_status":null,"persistent_id":"","id":74278432,"location_subtype":"","month":"2019-05"},{"category":"anti-social-behaviour","location_type":"Force","location":{"latitude":"51.522143","street":{"id":961130,"name":"On or near Worship Street"},"longitude":"-0.085792"},"context":"","outcome_status":null,"persistent_id":"","id":74278433,"location_subtype":"","month":"2019-05"},{"category":"anti-social-behaviour","location_type":"Force","location":{"latitude":"51.522143","street":{"id":961130,"name":"On or near Worship Street"},"longitude":"-0.085792"},"context":"","outcome_status":null,"persistent_id":"","id":74278434,"location_subtype":"","month":"2019-05"},{"category":"anti-social-behaviour","location_type":"Force","location":{"latitude":"51.522143","street":{"id":961130,"name":"On or near Worship Street"},"longitude":"-0.085792"},"context":"","outcome_status":null,"persistent_id":"","id":74278435,"location_subtype":"","month":"2019-05"},{"category":"anti-social-behaviour","location_type":"Force","location":{"latitude":"51.522143","street":{"id":961130,"name":"On or near Worship Street"},"longitude":"-0.085792"},"context":"","outcome_status":null,"persistent_id":"","id":74278436,"location_subtype":"","month":"2019-05"},{"category":"anti-social-behaviour","location_type":"Force","location":{"latitude":"51.525525","street":{"id":961178,"name":"On or near Theatre\/concert Hall"},"longitude":"-0.085261"},"context":"","outcome_status":null,"persistent_id":"","id":74278438,"location_subtype":"","month":"2019-05"},{"category":"anti-social-behaviour","location_type":"Force","location":{"latitude":"51.525525","street":{"id":961178,"name":"On or near Theatre\/concert Hall"},"longitude":"-0.085261"},"context":"","outcome_status":null,"persistent_id":"","id":74278439,"location_subtype":"","month":"2019-05"},{"category":"anti-social-behaviour","location_type":"Force","location":{"latitude":"51.522388","street":{"id":961179,"name":"On or near Nightclub"},"longitude":"-0.086459"},"context":"","outcome_status":null,"persistent_id":"","id":74278441,"location_subtype":"","month":"2019-05"},{"category":"anti-social-behaviour","location_type":"Force","location":{"latitude":"51.523313","street":{"id":961156,"name":"On or near Epworth Street"},"longitude":"-0.085858"},"context":"","outcome_status":null,"persistent_id":"","id":74278444,"location_subtype":"","month":"2019-05"},{"category":"anti-social-behaviour","location_type":"Force","location":{"latitude":"51.520174","street":{"id":961280,"name":"On or near Charterhouse Street"},"longitude":"-0.100750"},"context":"","outcome_status":null,"persistent_id":"","id":74279701,"location_subtype":"","month":"2019-05"},{"category":"anti-social-behaviour","location_type":"Force","location":{"latitude":"51.532234","street":{"id":964590,"name":"On or near Rocliffe Street"},"longitude":"-0.100220"},"context":"","outcome_status":null,"persistent_id":"","id":74279702,"location_subtype":"","month":"2019-05"},{"category":"anti-social-behaviour","location_type":"Force","location":{"latitude":"51.527461","street":{"id":961243,"name":"On or near Goswell Place"},"longitude":"-0.100923"},"context":"","outcome_status":null,"persistent_id":"","id":74279703,"location_subtype":"","month":"2019-05"},{"category":"anti-social-behaviour","location_type":"Force","location":{"latitude":"51.527461","street":{"id":961243,"name":"On or near Goswell Place"},"longitude":"-0.100923"},"context":"","outcome_status":null,"persistent_id":"","id":74279704,"location_subtype":"","month":"2019-05"},{"category":"anti-social-behaviour","location_type":"Force","location":{"latitude":"51.527461","street":{"id":961243,"name":"On or near Goswell Place"},"longitude":"-0.100923"},"context":"","outcome_status":null,"persistent_id":"","id":74279705,"location_subtype":"","month":"2019-05"},{"category":"anti-social-behaviour","location_type":"Force","location":{"latitude":"51.527461","street":{"id":961243,"name":"On or near Goswell Place"},"longitude":"-0.100923"},"context":"","outcome_status":null,"persistent_id":"","id":74279706,"location_subtype":"","month":"2019-05"},{"category":"anti-social-behaviour","location_type":"Force","location":{"latitude":"51.525757","street":{"id":961252,"name":"On or near Cyrus Street"},"longitude":"-0.101224"},"context":"","outcome_status":null,"persistent_id":"","id":74279707,"location_subtype":"","month":"2019-05"},{"category":"anti-social-behaviour","location_type":"Force","location":{"latitude":"51.524477","street":{"id":961251,"name":"On or near Dallington Street"},"longitude":"-0.100456"},"context":"","outcome_status":null,"persistent_id":"","id":74279717,"location_subtype":"","month":"2019-05"},{"category":"anti-social-behaviour","location_type":"Force","location":{"latitude":"51.531098","street":{"id":961224,"name":"On or near Nelson Terrace"},"longitude":"-0.101175"},"context":"","outcome_status":null,"persistent_id":"","id":74279719,"location_subtype":"","month":"2019-05"},{"category":"anti-social-behaviour","location_type":"Force","location":{"latitude":"51.524997","street":{"id":961255,"name":"On or near Compton Street"},"longitude":"-0.101501"},"context":"","outcome_status":null,"persistent_id":"","id":74279725,"location_subtype":"","month":"2019-05"},{"category":"anti-social-behaviour","location_type":"Force","location":{"latitude":"51.529262","street":{"id":961230,"name":"On or near Manningford Close"},"longitude":"-0.102203"},"context":"","outcome_status":null,"persistent_id":"","id":74279727,"location_subtype":"","month":"2019-05"},{"category":"anti-social-behaviour","location_type":"Force","location":{"latitude":"51.514639","street":{"id":956146,"name":"On or near Wild Street"},"longitude":"-0.120567"},"context":"","outcome_status":null,"persistent_id":"","id":74280382,"location_subtype":"","month":"2019-05"},{"category":"anti-social-behaviour","location_type":"Force","location":{"latitude":"51.514639","street":{"id":956146,"name":"On or near Wild Street"},"longitude":"-0.120567"},"context":"","outcome_status":null,"persistent_id":"","id":74280383,"location_subtype":"","month":"2019-05"},{"category":"anti-social-behaviour","location_type":"Force","location":{"latitude":"51.513734","street":{"id":956189,"name":"On or near Drury Lane"},"longitude":"-0.120158"},"context":"","outcome_status":null,"persistent_id":"","id":74280384,"location_subtype":"","month":"2019-05"},{"category":"anti-social-behaviour","location_type":"Force","location":{"latitude":"51.512899","street":{"id":956161,"name":"On or near Russell Street"},"longitude":"-0.120812"},"context":"","outcome_status":null,"persistent_id":"","id":74280385,"location_subtype":"","month":"2019-05"},{"category":"anti-social-behaviour","location_type":"Force","location":{"latitude":"51.513828","street":{"id":956176,"name":"On or near Kean Street"},"longitude":"-0.118741"},"context":"","outcome_status":null,"persistent_id":"","id":74280356,"location_subtype":"","month":"2019-05"},{"category":"anti-social-behaviour","location_type":"Force","location":{"latitude":"51.513828","street":{"id":956176,"name":"On or near Kean Street"},"longitude":"-0.118741"},"context":"","outcome_status":null,"persistent_id":"","id":74280357,"location_subtype":"","month":"2019-05"},{"category":"anti-social-behaviour","location_type":"Force","location":{"latitude":"51.511914","street":{"id":956211,"name":"On or near Theatre\/concert Hall"},"longitude":"-0.119425"},"context":"","outcome_status":null,"persistent_id":"","id":74280358,"location_subtype":"","month":"2019-05"},{"category":"anti-social-behaviour","location_type":"Force","location":{"latitude":"51.511914","street":{"id":956211,"name":"On or near Theatre\/concert Hall"},"longitude":"-0.119425"},"context":"","outcome_status":null,"persistent_id":"","id":74280359,"location_subtype":"","month":"2019-05"},{"category":"anti-social-behaviour","location_type":"Force","location":{"latitude":"51.513306","street":{"id":956195,"name":"On or near Bow Street"},"longitude":"-0.122078"},"context":"","outcome_status":null,"persistent_id":"","id":74280389,"location_subtype":"","month":"2019-05"},{"category":"anti-social-behaviour","location_type":"Force","location":{"latitude":"51.513306","street":{"id":956195,"name":"On or near Bow Street"},"longitude":"-0.122078"},"context":"","outcome_status":null,"persistent_id":"","id":74280392,"location_subtype":"","month":"2019-05"},{"category":"anti-social-behaviour","location_type":"Force","location":{"latitude":"51.511096","street":{"id":956151,"name":"On or near Southampton Street"},"longitude":"-0.122226"},"context":"","outcome_status":null,"persistent_id":"","id":74280393,"location_subtype":"","month":"2019-05"},{"category":"anti-social-behaviour","location_type":"Force","location":{"latitude":"51.515381","street":{"id":956254,"name":"On or near Star Yard"},"longitude":"-0.112422"},"context":"","outcome_status":null,"persistent_id":"","id":74279237,"location_subtype":"","month":"2019-05"},{"category":"anti-social-behaviour","location_type":"Force","location":{"latitude":"51.512953","street":{"id":956253,"name":"On or near Strand"},"longitude":"-0.114670"},"context":"","outcome_status":null,"persistent_id":"","id":74279238,"location_subtype":"","month":"2019-05"},{"category":"anti-social-behaviour","location_type":"Force","location":{"latitude":"51.512063","street":{"id":956266,"name":"On or near Arundel Street"},"longitude":"-0.114130"},"context":"","outcome_status":null,"persistent_id":"","id":74279239,"location_subtype":"","month":"2019-05"},{"category":"anti-social-behaviour","location_type":"Force","location":{"latitude":"51.510724","street":{"id":956228,"name":"On or near Further\/higher Educational Building"},"longitude":"-0.116953"},"context":"","outcome_status":null,"persistent_id":"","id":74279240,"location_subtype":"","month":"2019-05"},{"category":"anti-social-behaviour","location_type":"Force","location":{"latitude":"51.511315","street":{"id":956213,"name":"On or near Conference\/exhibition Centre"},"longitude":"-0.118528"},"context":"","outcome_status":null,"persistent_id":"","id":74279241,"location_subtype":"","month":"2019-05"},{"category":"anti-social-behaviour","location_type":"Force","location":{"latitude":"51.513101","street":{"id":956201,"name":"On or near Aldwych"},"longitude":"-0.117719"},"context":"","outcome_status":null,"persistent_id":"","id":74279242,"location_subtype":"","month":"2019-05"},{"category":"anti-social-behaviour","location_type":"Force","location":{"latitude":"51.513101","street":{"id":956201,"name":"On or near Aldwych"},"longitude":"-0.117719"},"context":"","outcome_status":null,"persistent_id":"","id":74279243,"location_subtype":"","month":"2019-05"},{"category":"anti-social-behaviour","location_type":"Force","location":{"latitude":"51.510570","street":{"id":956171,"name":"On or near Lancaster Place"},"longitude":"-0.118559"},"context":"","outcome_status":null,"persistent_id":"","id":74279244,"location_subtype":"","month":"2019-05"},{"category":"anti-social-behaviour","location_type":"Force","location":{"latitude":"51.513012","street":{"id":956178,"name":"On or near James Street"},"longitude":"-0.123978"},"context":"","outcome_status":null,"persistent_id":"","id":74280420,"location_subtype":"","month":"2019-05"},{"category":"anti-social-behaviour","location_type":"Force","location":{"latitude":"51.513100","street":{"id":956169,"name":"On or near Long Acre"},"longitude":"-0.124406"},"context":"","outcome_status":null,"persistent_id":"","id":74280428,"location_subtype":"","month":"2019-05"},{"category":"anti-social-behaviour","location_type":"Force","location":{"latitude":"51.512505","street":{"id":956183,"name":"On or near Floral Street"},"longitude":"-0.124316"},"context":"","outcome_status":null,"persistent_id":"","id":74280435,"location_subtype":"","month":"2019-05"},{"category":"anti-social-behaviour","location_type":"Force","location":{"latitude":"51.512505","street":{"id":956183,"name":"On or near Floral Street"},"longitude":"-0.124316"},"context":"","outcome_status":null,"persistent_id":"","id":74280436,"location_subtype":"","month":"2019-05"},{"category":"anti-social-behaviour","location_type":"Force","location":{"latitude":"51.512505","street":{"id":956183,"name":"On or near Floral Street"},"longitude":"-0.124316"},"context":"","outcome_status":null,"persistent_id":"","id":74280439,"location_subtype":"","month":"2019-05"},{"category":"anti-social-behaviour","location_type":"Force","location":{"latitude":"51.514017","street":{"id":956186,"name":"On or near Endell Street"},"longitude":"-0.123850"},"context":"","outcome_status":null,"persistent_id":"","id":74280441,"location_subtype":"","month":"2019-05"},{"category":"anti-social-behaviour","location_type":"Force","location":{"latitude":"51.511914","street":{"id":956211,"name":"On or near Theatre\/concert Hall"},"longitude":"-0.119425"},"context":"","outcome_status":null,"persistent_id":"","id":74280360,"location_subtype":"","month":"2019-05"},{"category":"anti-social-behaviour","location_type":"Force","location":{"latitude":"51.511914","street":{"id":956211,"name":"On or near Theatre\/concert Hall"},"longitude":"-0.119425"},"context":"","outcome_status":null,"persistent_id":"","id":74280362,"location_subtype":"","month":"2019-05"},{"category":"anti-social-behaviour","location_type":"Force","location":{"latitude":"51.511914","street":{"id":956211,"name":"On or near Theatre\/concert Hall"},"longitude":"-0.119425"},"context":"","outcome_status":null,"persistent_id":"","id":74280363,"location_subtype":"","month":"2019-05"},{"category":"anti-social-behaviour","location_type":"Force","location":{"latitude":"51.511315","street":{"id":956213,"name":"On or near Conference\/exhibition Centre"},"longitude":"-0.118528"},"context":"","outcome_status":null,"persistent_id":"","id":74280364,"location_subtype":"","month":"2019-05"},{"category":"anti-social-behaviour","location_type":"Force","location":{"latitude":"51.511315","street":{"id":956213,"name":"On or near Conference\/exhibition Centre"},"longitude":"-0.118528"},"context":"","outcome_status":null,"persistent_id":"","id":74280365,"location_subtype":"","month":"2019-05"},{"category":"anti-social-behaviour","location_type":"Force","location":{"latitude":"51.511315","street":{"id":956213,"name":"On or near Conference\/exhibition Centre"},"longitude":"-0.118528"},"context":"","outcome_status":null,"persistent_id":"","id":74280366,"location_subtype":"","month":"2019-05"},{"category":"anti-social-behaviour","location_type":"Force","location":{"latitude":"51.511315","street":{"id":956213,"name":"On or near Conference\/exhibition Centre"},"longitude":"-0.118528"},"context":"","outcome_status":null,"persistent_id":"","id":74280367,"location_subtype":"","month":"2019-05"},{"category":"anti-social-behaviour","location_type":"Force","location":{"latitude":"51.510761","street":{"id":956157,"name":"On or near Savoy Row"},"longitude":"-0.119833"},"context":"","outcome_status":null,"persistent_id":"","id":74280369,"location_subtype":"","month":"2019-05"},{"category":"anti-social-behaviour","location_type":"Force","location":{"latitude":"51.513734","street":{"id":956189,"name":"On or near Drury Lane"},"longitude":"-0.120158"},"context":"","outcome_status":null,"persistent_id":"","id":74280371,"location_subtype":"","month":"2019-05"},{"category":"anti-social-behaviour","location_type":"Force","location":{"latitude":"51.512427","street":{"id":956193,"name":"On or near Catherine Street"},"longitude":"-0.119966"},"context":"","outcome_status":null,"persistent_id":"","id":74280372,"location_subtype":"","month":"2019-05"},{"category":"anti-social-behaviour","location_type":"Force","location":{"latitude":"51.510893","street":{"id":956150,"name":"On or near Strand"},"longitude":"-0.120231"},"context":"","outcome_status":null,"persistent_id":"","id":74280373,"location_subtype":"","month":"2019-05"},{"category":"anti-social-behaviour","location_type":"Force","location":{"latitude":"51.525066","street":{"id":961147,"name":"On or near Mallow Street"},"longitude":"-0.088582"},"context":"","outcome_status":null,"persistent_id":"","id":74279561,"location_subtype":"","month":"2019-05"},{"category":"anti-social-behaviour","location_type":"Force","location":{"latitude":"51.524579","street":{"id":961094,"name":"On or near Featherstone Street"},"longitude":"-0.089034"},"context":"","outcome_status":null,"persistent_id":"","id":74279562,"location_subtype":"","month":"2019-05"},{"category":"anti-social-behaviour","location_type":"Force","location":{"latitude":"51.524579","street":{"id":961094,"name":"On or near Featherstone Street"},"longitude":"-0.089034"},"context":"","outcome_status":null,"persistent_id":"","id":74279563,"location_subtype":"","month":"2019-05"},{"category":"anti-social-behaviour","location_type":"Force","location":{"latitude":"51.524579","street":{"id":961094,"name":"On or near Featherstone Street"},"longitude":"-0.089034"},"context":"","outcome_status":null,"persistent_id":"","id":74279564,"location_subtype":"","month":"2019-05"},{"category":"anti-social-behaviour","location_type":"Force","location":{"latitude":"51.524579","street":{"id":961094,"name":"On or near Featherstone Street"},"longitude":"-0.089034"},"context":"","outcome_status":null,"persistent_id":"","id":74279565,"location_subtype":"","month":"2019-05"},{"category":"anti-social-behaviour","location_type":"Force","location":{"latitude":"51.524579","street":{"id":961094,"name":"On or near Featherstone Street"},"longitude":"-0.089034"},"context":"","outcome_status":null,"persistent_id":"","id":74279566,"location_subtype":"","month":"2019-05"},{"category":"anti-social-behaviour","location_type":"Force","location":{"latitude":"51.524579","street":{"id":961094,"name":"On or near Featherstone Street"},"longitude":"-0.089034"},"context":"","outcome_status":null,"persistent_id":"","id":74279567,"location_subtype":"","month":"2019-05"},{"category":"anti-social-behaviour","location_type":"Force","location":{"latitude":"51.524579","street":{"id":961094,"name":"On or near Featherstone Street"},"longitude":"-0.089034"},"context":"","outcome_status":null,"persistent_id":"","id":74279568,"location_subtype":"","month":"2019-05"},{"category":"anti-social-behaviour","location_type":"Force","location":{"latitude":"51.524579","street":{"id":961094,"name":"On or near Featherstone Street"},"longitude":"-0.089034"},"context":"","outcome_status":null,"persistent_id":"","id":74279569,"location_subtype":"","month":"2019-05"},{"category":"anti-social-behaviour","location_type":"Force","location":{"latitude":"51.521643","street":{"id":961088,"name":"On or near Lamb's Passage"},"longitude":"-0.090930"},"context":"","outcome_status":null,"persistent_id":"","id":74279571,"location_subtype":"","month":"2019-05"},{"category":"anti-social-behaviour","location_type":"Force","location":{"latitude":"51.526984","street":{"id":961079,"name":"On or near Peerless Street"},"longitude":"-0.089842"},"context":"","outcome_status":null,"persistent_id":"","id":74279575,"location_subtype":"","month":"2019-05"},{"category":"anti-social-behaviour","location_type":"Force","location":{"latitude":"51.526984","street":{"id":961079,"name":"On or near Peerless Street"},"longitude":"-0.089842"},"context":"","outcome_status":null,"persistent_id":"","id":74279576,"location_subtype":"","month":"2019-05"},{"category":"anti-social-behaviour","location_type":"Force","location":{"latitude":"51.523382","street":{"id":961103,"name":"On or near Chequer Street"},"longitude":"-0.091160"},"context":"","outcome_status":null,"persistent_id":"","id":74279579,"location_subtype":"","month":"2019-05"},{"category":"anti-social-behaviour","location_type":"Force","location":{"latitude":"51.520744","street":{"id":961102,"name":"On or near Chiswell Street"},"longitude":"-0.089858"},"context":"","outcome_status":null,"persistent_id":"","id":74279580,"location_subtype":"","month":"2019-05"},{"category":"anti-social-behaviour","location_type":"Force","location":{"latitude":"51.525655","street":{"id":961117,"name":"On or near Supermarket"},"longitude":"-0.090517"},"context":"","outcome_status":null,"persistent_id":"","id":74279581,"location_subtype":"","month":"2019-05"},{"category":"anti-social-behaviour","location_type":"Force","location":{"latitude":"51.523186","street":{"id":961098,"name":"On or near Dufferin Avenue"},"longitude":"-0.091284"},"context":"","outcome_status":null,"persistent_id":"","id":74279584,"location_subtype":"","month":"2019-05"},{"category":"anti-social-behaviour","location_type":"Force","location":{"latitude":"51.514639","street":{"id":956146,"name":"On or near Wild Street"},"longitude":"-0.120567"},"context":"","outcome_status":null,"persistent_id":"","id":74280376,"location_subtype":"","month":"2019-05"},{"category":"anti-social-behaviour","location_type":"Force","location":{"latitude":"51.514639","street":{"id":956146,"name":"On or near Wild Street"},"longitude":"-0.120567"},"context":"","outcome_status":null,"persistent_id":"","id":74280377,"location_subtype":"","month":"2019-05"},{"category":"anti-social-behaviour","location_type":"Force","location":{"latitude":"51.525724","street":{"id":961109,"name":"On or near Bartholomew Square"},"longitude":"-0.093052"},"context":"","outcome_status":null,"persistent_id":"","id":74279602,"location_subtype":"","month":"2019-05"},{"category":"anti-social-behaviour","location_type":"Force","location":{"latitude":"51.528018","street":{"id":961084,"name":"On or near Mora Street"},"longitude":"-0.093143"},"context":"","outcome_status":null,"persistent_id":"","id":74279606,"location_subtype":"","month":"2019-05"},{"category":"anti-social-behaviour","location_type":"Force","location":{"latitude":"51.526975","street":{"id":961092,"name":"On or near Galway Street"},"longitude":"-0.092567"},"context":"","outcome_status":null,"persistent_id":"","id":74279610,"location_subtype":"","month":"2019-05"},{"category":"anti-social-behaviour","location_type":"Force","location":{"latitude":"51.527798","street":{"id":961099,"name":"On or near Dingley Place"},"longitude":"-0.093960"},"context":"","outcome_status":null,"persistent_id":"","id":74279616,"location_subtype":"","month":"2019-05"},{"category":"anti-social-behaviour","location_type":"Force","location":{"latitude":"51.527798","street":{"id":961099,"name":"On or near Dingley Place"},"longitude":"-0.093960"},"context":"","outcome_status":null,"persistent_id":"","id":74279617,"location_subtype":"","month":"2019-05"},{"category":"anti-social-behaviour","location_type":"Force","location":{"latitude":"51.527798","street":{"id":961099,"name":"On or near Dingley Place"},"longitude":"-0.093960"},"context":"","outcome_status":null,"persistent_id":"","id":74279618,"location_subtype":"","month":"2019-05"},{"category":"anti-social-behaviour","location_type":"Force","location":{"latitude":"51.528864","street":{"id":961101,"name":"On or near City Road"},"longitude":"-0.094261"},"context":"","outcome_status":null,"persistent_id":"","id":74279623,"location_subtype":"","month":"2019-05"},{"category":"anti-social-behaviour","location_type":"Force","location":{"latitude":"51.528864","street":{"id":961101,"name":"On or near City Road"},"longitude":"-0.094261"},"context":"","outcome_status":null,"persistent_id":"","id":74279624,"location_subtype":"","month":"2019-05"},{"category":"anti-social-behaviour","location_type":"Force","location":{"latitude":"51.523932","street":{"id":961091,"name":"On or near Garrett Street"},"longitude":"-0.094554"},"context":"","outcome_status":null,"persistent_id":"","id":74279625,"location_subtype":"","month":"2019-05"},{"category":"anti-social-behaviour","location_type":"Force","location":{"latitude":"51.526294","street":{"id":961081,"name":"On or near Norman Street"},"longitude":"-0.094931"},"context":"","outcome_status":null,"persistent_id":"","id":74279633,"location_subtype":"","month":"2019-05"},{"category":"anti-social-behaviour","location_type":"Force","location":{"latitude":"51.523901","street":{"id":961236,"name":"On or near Honduras Street"},"longitude":"-0.096011"},"context":"","outcome_status":null,"persistent_id":"","id":74279639,"location_subtype":"","month":"2019-05"},{"category":"anti-social-behaviour","location_type":"Force","location":{"latitude":"51.523901","street":{"id":961236,"name":"On or near Honduras Street"},"longitude":"-0.096011"},"context":"","outcome_status":null,"persistent_id":"","id":74279640,"location_subtype":"","month":"2019-05"},{"category":"anti-social-behaviour","location_type":"Force","location":{"latitude":"51.530255","street":{"id":961196,"name":"On or near Wharf Road"},"longitude":"-0.095213"},"context":"","outcome_status":null,"persistent_id":"","id":74279641,"location_subtype":"","month":"2019-05"},{"category":"anti-social-behaviour","location_type":"Force","location":{"latitude":"51.531646","street":{"id":964587,"name":"On or near Wharf Road"},"longitude":"-0.096121"},"context":"","outcome_status":null,"persistent_id":"","id":74279657,"location_subtype":"","month":"2019-05"},{"category":"anti-social-behaviour","location_type":"Force","location":{"latitude":"51.533305","street":{"id":964602,"name":"On or near Baldwin Terrace"},"longitude":"-0.096441"},"context":"","outcome_status":null,"persistent_id":"","id":74279659,"location_subtype":"","month":"2019-05"},{"category":"anti-social-behaviour","location_type":"Force","location":{"latitude":"51.524531","street":{"id":961245,"name":"On or near Gee Street"},"longitude":"-0.097657"},"context":"","outcome_status":null,"persistent_id":"","id":74279678,"location_subtype":"","month":"2019-05"},{"category":"anti-social-behaviour","location_type":"Force","location":{"latitude":"51.524531","street":{"id":961245,"name":"On or near Gee Street"},"longitude":"-0.097657"},"context":"","outcome_status":null,"persistent_id":"","id":74279679,"location_subtype":"","month":"2019-05"},{"category":"anti-social-behaviour","location_type":"Force","location":{"latitude":"51.533690","street":{"id":964596,"name":"On or near Provence Street"},"longitude":"-0.096843"},"context":"","outcome_status":null,"persistent_id":"","id":74279680,"location_subtype":"","month":"2019-05"},{"category":"anti-social-behaviour","location_type":"Force","location":{"latitude":"51.533690","street":{"id":964596,"name":"On or near Provence Street"},"longitude":"-0.096843"},"context":"","outcome_status":null,"persistent_id":"","id":74279681,"location_subtype":"","month":"2019-05"},{"category":"anti-social-behaviour","location_type":"Force","location":{"latitude":"51.526149","street":{"id":961207,"name":"On or near Seward Street"},"longitude":"-0.098224"},"context":"","outcome_status":null,"persistent_id":"","id":74279683,"location_subtype":"","month":"2019-05"},{"category":"anti-social-behaviour","location_type":"Force","location":{"latitude":"51.526149","street":{"id":961207,"name":"On or near Seward Street"},"longitude":"-0.098224"},"context":"","outcome_status":null,"persistent_id":"","id":74279684,"location_subtype":"","month":"2019-05"},{"category":"anti-social-behaviour","location_type":"Force","location":{"latitude":"51.524555","street":{"id":961233,"name":"On or near Ludlow Street"},"longitude":"-0.098060"},"context":"","outcome_status":null,"persistent_id":"","id":74279686,"location_subtype":"","month":"2019-05"},{"category":"anti-social-behaviour","location_type":"Force","location":{"latitude":"51.531101","street":{"id":961257,"name":"On or near City Garden Row"},"longitude":"-0.098609"},"context":"","outcome_status":null,"persistent_id":"","id":74279687,"location_subtype":"","month":"2019-05"},{"category":"anti-social-behaviour","location_type":"Force","location":{"latitude":"51.526149","street":{"id":961207,"name":"On or near Seward Street"},"longitude":"-0.098224"},"context":"","outcome_status":null,"persistent_id":"","id":74279688,"location_subtype":"","month":"2019-05"},{"category":"anti-social-behaviour","location_type":"Force","location":{"latitude":"51.520174","street":{"id":961280,"name":"On or near Charterhouse Street"},"longitude":"-0.100750"},"context":"","outcome_status":null,"persistent_id":"","id":74279696,"location_subtype":"","month":"2019-05"},{"category":"anti-social-behaviour","location_type":"Force","location":{"latitude":"51.520174","street":{"id":961280,"name":"On or near Charterhouse Street"},"longitude":"-0.100750"},"context":"","outcome_status":null,"persistent_id":"","id":74279697,"location_subtype":"","month":"2019-05"},{"category":"anti-social-behaviour","location_type":"Force","location":{"latitude":"51.529144","street":{"id":961223,"name":"On or near New Charles Street"},"longitude":"-0.100983"},"context":"","outcome_status":null,"persistent_id":"","id":74279699,"location_subtype":"","month":"2019-05"},{"category":"anti-social-behaviour","location_type":"Force","location":{"latitude":"51.529144","street":{"id":961223,"name":"On or near New Charles Street"},"longitude":"-0.100983"},"context":"","outcome_status":null,"persistent_id":"","id":74279700,"location_subtype":"","month":"2019-05"},{"category":"anti-social-behaviour","location_type":"Force","location":{"latitude":"51.519888","street":{"id":961277,"name":"On or near Greenhill's Rents"},"longitude":"-0.102506"},"context":"","outcome_status":null,"persistent_id":"","id":74281377,"location_subtype":"","month":"2019-05"},{"category":"anti-social-behaviour","location_type":"Force","location":{"latitude":"51.528457","street":{"id":961249,"name":"On or near Earlstoke Street"},"longitude":"-0.103029"},"context":"","outcome_status":null,"persistent_id":"","id":74281381,"location_subtype":"","month":"2019-05"},{"category":"anti-social-behaviour","location_type":"Force","location":{"latitude":"51.534061","street":{"id":964434,"name":"On or near Colebrooke Row"},"longitude":"-0.102566"},"context":"","outcome_status":null,"persistent_id":"","id":74281382,"location_subtype":"","month":"2019-05"},{"category":"anti-social-behaviour","location_type":"Force","location":{"latitude":"51.530524","street":{"id":960895,"name":"On or near Further\/higher Educational Building"},"longitude":"-0.104039"},"context":"","outcome_status":null,"persistent_id":"","id":74281388,"location_subtype":"","month":"2019-05"},{"category":"anti-social-behaviour","location_type":"Force","location":{"latitude":"51.530524","street":{"id":960895,"name":"On or near Further\/higher Educational Building"},"longitude":"-0.104039"},"context":"","outcome_status":null,"persistent_id":"","id":74281395,"location_subtype":"","month":"2019-05"},{"category":"anti-social-behaviour","location_type":"Force","location":{"latitude":"51.533584","street":{"id":964807,"name":"On or near Duncan Street"},"longitude":"-0.104172"},"context":"","outcome_status":null,"persistent_id":"","id":74281403,"location_subtype":"","month":"2019-05"},{"category":"anti-social-behaviour","location_type":"Force","location":{"latitude":"51.529481","street":{"id":960843,"name":"On or near Hermit Street"},"longitude":"-0.104025"},"context":"","outcome_status":null,"persistent_id":"","id":74281404,"location_subtype":"","month":"2019-05"},{"category":"anti-social-behaviour","location_type":"Force","location":{"latitude":"51.524717","street":{"id":961204,"name":"On or near St John Street"},"longitude":"-0.103603"},"context":"","outcome_status":null,"persistent_id":"","id":74281405,"location_subtype":"","month":"2019-05"},{"category":"anti-social-behaviour","location_type":"Force","location":{"latitude":"51.520786","street":{"id":961282,"name":"On or near Benjamin Street"},"longitude":"-0.104098"},"context":"","outcome_status":null,"persistent_id":"","id":74281406,"location_subtype":"","month":"2019-05"},{"category":"anti-social-behaviour","location_type":"Force","location":{"latitude":"51.523484","street":{"id":961264,"name":"On or near Aylesbury Street"},"longitude":"-0.104101"},"context":"","outcome_status":null,"persistent_id":"","id":74281408,"location_subtype":"","month":"2019-05"},{"category":"anti-social-behaviour","location_type":"Force","location":{"latitude":"51.522360","street":{"id":960872,"name":"On or near Clerkenwell Road"},"longitude":"-0.105200"},"context":"","outcome_status":null,"persistent_id":"","id":74281410,"location_subtype":"","month":"2019-05"},{"category":"anti-social-behaviour","location_type":"Force","location":{"latitude":"51.533584","street":{"id":964807,"name":"On or near Duncan Street"},"longitude":"-0.104172"},"context":"","outcome_status":null,"persistent_id":"","id":74281414,"location_subtype":"","month":"2019-05"},{"category":"anti-social-behaviour","location_type":"Force","location":{"latitude":"51.533584","street":{"id":964807,"name":"On or near Duncan Street"},"longitude":"-0.104172"},"context":"","outcome_status":null,"persistent_id":"","id":74281416,"location_subtype":"","month":"2019-05"},{"category":"anti-social-behaviour","location_type":"Force","location":{"latitude":"51.527102","street":{"id":961060,"name":"On or near Whiskin Street"},"longitude":"-0.105436"},"context":"","outcome_status":null,"persistent_id":"","id":74281417,"location_subtype":"","month":"2019-05"},{"category":"anti-social-behaviour","location_type":"Force","location":{"latitude":"51.519873","street":{"id":961054,"name":"On or near Nightclub"},"longitude":"-0.106038"},"context":"","outcome_status":null,"persistent_id":"","id":74281418,"location_subtype":"","month":"2019-05"},{"category":"anti-social-behaviour","location_type":"Force","location":{"latitude":"51.519873","street":{"id":961054,"name":"On or near Nightclub"},"longitude":"-0.106038"},"context":"","outcome_status":null,"persistent_id":"","id":74281419,"location_subtype":"","month":"2019-05"},{"category":"anti-social-behaviour","location_type":"Force","location":{"latitude":"51.533838","street":{"id":964803,"name":"On or near Upper Street"},"longitude":"-0.105430"},"context":"","outcome_status":null,"persistent_id":"","id":74281421,"location_subtype":"","month":"2019-05"},{"category":"anti-social-behaviour","location_type":"Force","location":{"latitude":"51.533838","street":{"id":964803,"name":"On or near Upper Street"},"longitude":"-0.105430"},"context":"","outcome_status":null,"persistent_id":"","id":74281422,"location_subtype":"","month":"2019-05"},{"category":"anti-social-behaviour","location_type":"Force","location":{"latitude":"51.533838","street":{"id":964803,"name":"On or near Upper Street"},"longitude":"-0.105430"},"context":"","outcome_status":null,"persistent_id":"","id":74281423,"location_subtype":"","month":"2019-05"},{"category":"anti-social-behaviour","location_type":"Force","location":{"latitude":"51.534460","street":{"id":964727,"name":"On or near Gateway Arcade"},"longitude":"-0.104986"},"context":"","outcome_status":null,"persistent_id":"","id":74281425,"location_subtype":"","month":"2019-05"},{"category":"anti-social-behaviour","location_type":"Force","location":{"latitude":"51.529409","street":{"id":960890,"name":"On or near Theatre\/concert Hall"},"longitude":"-0.106263"},"context":"","outcome_status":null,"persistent_id":"","id":74281434,"location_subtype":"","month":"2019-05"},{"category":"anti-social-behaviour","location_type":"Force","location":{"latitude":"51.524017","street":{"id":960875,"name":"On or near Clerkenwell Close"},"longitude":"-0.106501"},"context":"","outcome_status":null,"persistent_id":"","id":74281439,"location_subtype":"","month":"2019-05"},{"category":"anti-social-behaviour","location_type":"Force","location":{"latitude":"51.531480","street":{"id":964798,"name":"On or near Theatre\/concert Hall"},"longitude":"-0.105888"},"context":"","outcome_status":null,"persistent_id":"","id":74281440,"location_subtype":"","month":"2019-05"},{"category":"anti-social-behaviour","location_type":"Force","location":{"latitude":"51.527760","street":{"id":960849,"name":"On or near Hardwick Street"},"longitude":"-0.108321"},"context":"","outcome_status":null,"persistent_id":"","id":74281446,"location_subtype":"","month":"2019-05"},{"category":"anti-social-behaviour","location_type":"Force","location":{"latitude":"51.518661","street":{"id":961016,"name":"On or near Eagle Street"},"longitude":"-0.117908"},"context":"","outcome_status":null,"persistent_id":"","id":74286481,"location_subtype":"","month":"2019-05"},{"category":"anti-social-behaviour","location_type":"Force","location":{"latitude":"51.521853","street":{"id":960784,"name":"On or near Theobald's Road"},"longitude":"-0.111708"},"context":"","outcome_status":null,"persistent_id":"","id":74285830,"location_subtype":"","month":"2019-05"},{"category":"anti-social-behaviour","location_type":"Force","location":{"latitude":"51.520624","street":{"id":961037,"name":"On or near Leather Lane"},"longitude":"-0.109640"},"context":"","outcome_status":null,"persistent_id":"","id":74285822,"location_subtype":"","month":"2019-05"},{"category":"anti-social-behaviour","location_type":"Force","location":{"latitude":"51.529710","street":{"id":960901,"name":"On or near Parking Area"},"longitude":"-0.117726"},"context":"","outcome_status":null,"persistent_id":"","id":74285849,"location_subtype":"","month":"2019-05"},{"category":"anti-social-behaviour","location_type":"Force","location":{"latitude":"51.517683","street":{"id":956609,"name":"On or near Willoughby Street"},"longitude":"-0.127000"},"context":"","outcome_status":null,"persistent_id":"","id":74286627,"location_subtype":"","month":"2019-05"},{"category":"anti-social-behaviour","location_type":"Force","location":{"latitude":"51.523630","street":{"id":960511,"name":"On or near Parking Area"},"longitude":"-0.126641"},"context":"","outcome_status":null,"persistent_id":"","id":74286626,"location_subtype":"","month":"2019-05"},{"category":"anti-social-behaviour","location_type":"Force","location":{"latitude":"51.516598","street":{"id":956633,"name":"On or near Bloomsbury Street"},"longitude":"-0.126641"},"context":"","outcome_status":null,"persistent_id":"","id":74286624,"location_subtype":"","month":"2019-05"},{"category":"anti-social-behaviour","location_type":"Force","location":{"latitude":"51.518080","street":{"id":956630,"name":"On or near Great Russell Street"},"longitude":"-0.126522"},"context":"","outcome_status":null,"persistent_id":"","id":74286623,"location_subtype":"","month":"2019-05"},{"category":"anti-social-behaviour","location_type":"Force","location":{"latitude":"51.518080","street":{"id":956630,"name":"On or near Great Russell Street"},"longitude":"-0.126522"},"context":"","outcome_status":null,"persistent_id":"","id":74286622,"location_subtype":"","month":"2019-05"},{"category":"anti-social-behaviour","location_type":"Force","location":{"latitude":"51.523469","street":{"id":960515,"name":"On or near Parking Area"},"longitude":"-0.126114"},"context":"","outcome_status":null,"persistent_id":"","id":74286620,"location_subtype":"","month":"2019-05"},{"category":"anti-social-behaviour","location_type":"Force","location":{"latitude":"51.516368","street":{"id":956507,"name":"On or near Grape Street"},"longitude":"-0.125742"},"context":"","outcome_status":null,"persistent_id":"","id":74286609,"location_subtype":"","month":"2019-05"},{"category":"anti-social-behaviour","location_type":"Force","location":{"latitude":"51.514518","street":{"id":956166,"name":"On or near Nottingham Court"},"longitude":"-0.125343"},"context":"","outcome_status":null,"persistent_id":"","id":74286608,"location_subtype":"","month":"2019-05"},{"category":"anti-social-behaviour","location_type":"Force","location":{"latitude":"51.516692","street":{"id":956232,"name":"On or near West Central Street"},"longitude":"-0.125225"},"context":"","outcome_status":null,"persistent_id":"","id":74286607,"location_subtype":"","month":"2019-05"},{"category":"anti-social-behaviour","location_type":"Force","location":{"latitude":"51.516692","street":{"id":956232,"name":"On or near West Central Street"},"longitude":"-0.125225"},"context":"","outcome_status":null,"persistent_id":"","id":74286606,"location_subtype":"","month":"2019-05"},{"category":"anti-social-behaviour","location_type":"Force","location":{"latitude":"51.516692","street":{"id":956232,"name":"On or near West Central Street"},"longitude":"-0.125225"},"context":"","outcome_status":null,"persistent_id":"","id":74286604,"location_subtype":"","month":"2019-05"},{"category":"anti-social-behaviour","location_type":"Force","location":{"latitude":"51.516692","street":{"id":956232,"name":"On or near West Central Street"},"longitude":"-0.125225"},"context":"","outcome_status":null,"persistent_id":"","id":74286602,"location_subtype":"","month":"2019-05"},{"category":"anti-social-behaviour","location_type":"Force","location":{"latitude":"51.516692","street":{"id":956232,"name":"On or near West Central Street"},"longitude":"-0.125225"},"context":"","outcome_status":null,"persistent_id":"","id":74286601,"location_subtype":"","month":"2019-05"},{"category":"anti-social-behaviour","location_type":"Force","location":{"latitude":"51.524465","street":{"id":960938,"name":"On or near Marchmont Street"},"longitude":"-0.124891"},"context":"","outcome_status":null,"persistent_id":"","id":74286598,"location_subtype":"","month":"2019-05"},{"category":"anti-social-behaviour","location_type":"Force","location":{"latitude":"51.526496","street":{"id":961132,"name":"On or near Vince Street"},"longitude":"-0.085840"},"context":"","outcome_status":null,"persistent_id":"","id":74282750,"location_subtype":"","month":"2019-05"},{"category":"anti-social-behaviour","location_type":"Force","location":{"latitude":"51.524465","street":{"id":960938,"name":"On or near Marchmont Street"},"longitude":"-0.124891"},"context":"","outcome_status":null,"persistent_id":"","id":74286597,"location_subtype":"","month":"2019-05"},{"category":"anti-social-behaviour","location_type":"Force","location":{"latitude":"51.514976","street":{"id":956185,"name":"On or near Endell Street"},"longitude":"-0.125309"},"context":"","outcome_status":null,"persistent_id":"","id":74286595,"location_subtype":"","month":"2019-05"},{"category":"anti-social-behaviour","location_type":"Force","location":{"latitude":"51.514976","street":{"id":956185,"name":"On or near Endell Street"},"longitude":"-0.125309"},"context":"","outcome_status":null,"persistent_id":"","id":74286594,"location_subtype":"","month":"2019-05"},{"category":"anti-social-behaviour","location_type":"Force","location":{"latitude":"51.514976","street":{"id":956185,"name":"On or near Endell Street"},"longitude":"-0.125309"},"context":"","outcome_status":null,"persistent_id":"","id":74286593,"location_subtype":"","month":"2019-05"},{"category":"anti-social-behaviour","location_type":"Force","location":{"latitude":"51.514976","street":{"id":956185,"name":"On or near Endell Street"},"longitude":"-0.125309"},"context":"","outcome_status":null,"persistent_id":"","id":74286591,"location_subtype":"","month":"2019-05"},{"category":"anti-social-behaviour","location_type":"Force","location":{"latitude":"51.514976","street":{"id":956185,"name":"On or near Endell Street"},"longitude":"-0.125309"},"context":"","outcome_status":null,"persistent_id":"","id":74286592,"location_subtype":"","month":"2019-05"},{"category":"anti-social-behaviour","location_type":"Force","location":{"latitude":"51.513745","street":{"id":956153,"name":"On or near Shelton Street"},"longitude":"-0.125360"},"context":"","outcome_status":null,"persistent_id":"","id":74286589,"location_subtype":"","month":"2019-05"},{"category":"anti-social-behaviour","location_type":"Force","location":{"latitude":"51.526496","street":{"id":961132,"name":"On or near Vince Street"},"longitude":"-0.085840"},"context":"","outcome_status":null,"persistent_id":"","id":74282751,"location_subtype":"","month":"2019-05"},{"category":"anti-social-behaviour","location_type":"Force","location":{"latitude":"51.513745","street":{"id":956153,"name":"On or near Shelton Street"},"longitude":"-0.125360"},"context":"","outcome_status":null,"persistent_id":"","id":74286588,"location_subtype":"","month":"2019-05"},{"category":"anti-social-behaviour","location_type":"Force","location":{"latitude":"51.513745","street":{"id":956153,"name":"On or near Shelton Street"},"longitude":"-0.125360"},"context":"","outcome_status":null,"persistent_id":"","id":74286587,"location_subtype":"","month":"2019-05"},{"category":"anti-social-behaviour","location_type":"Force","location":{"latitude":"51.513745","street":{"id":956153,"name":"On or near Shelton Street"},"longitude":"-0.125360"},"context":"","outcome_status":null,"persistent_id":"","id":74286586,"location_subtype":"","month":"2019-05"},{"category":"anti-social-behaviour","location_type":"Force","location":{"latitude":"51.521797","street":{"id":960924,"name":"On or near Russell Square"},"longitude":"-0.124482"},"context":"","outcome_status":null,"persistent_id":"","id":74286584,"location_subtype":"","month":"2019-05"},{"category":"anti-social-behaviour","location_type":"Force","location":{"latitude":"51.514017","street":{"id":956186,"name":"On or near Endell Street"},"longitude":"-0.123850"},"context":"","outcome_status":null,"persistent_id":"","id":74286579,"location_subtype":"","month":"2019-05"},{"category":"anti-social-behaviour","location_type":"Force","location":{"latitude":"51.523301","street":{"id":960975,"name":"On or near Bernard Street"},"longitude":"-0.124031"},"context":"","outcome_status":null,"persistent_id":"","id":74286575,"location_subtype":"","month":"2019-05"},{"category":"anti-social-behaviour","location_type":"Force","location":{"latitude":"51.527640","street":{"id":960920,"name":"On or near Speedy Place"},"longitude":"-0.124342"},"context":"","outcome_status":null,"persistent_id":"","id":74286577,"location_subtype":"","month":"2019-05"},{"category":"anti-social-behaviour","location_type":"Force","location":{"latitude":"51.523301","street":{"id":960975,"name":"On or near Bernard Street"},"longitude":"-0.124031"},"context":"","outcome_status":null,"persistent_id":"","id":74286576,"location_subtype":"","month":"2019-05"},{"category":"anti-social-behaviour","location_type":"Force","location":{"latitude":"51.524465","street":{"id":960938,"name":"On or near Marchmont Street"},"longitude":"-0.124891"},"context":"","outcome_status":null,"persistent_id":"","id":74286596,"location_subtype":"","month":"2019-05"},{"category":"anti-social-behaviour","location_type":"Force","location":{"latitude":"51.523301","street":{"id":960975,"name":"On or near Bernard Street"},"longitude":"-0.124031"},"context":"","outcome_status":null,"persistent_id":"","id":74286574,"location_subtype":"","month":"2019-05"},{"category":"anti-social-behaviour","location_type":"Force","location":{"latitude":"51.523301","street":{"id":960975,"name":"On or near Bernard Street"},"longitude":"-0.124031"},"context":"","outcome_status":null,"persistent_id":"","id":74286573,"location_subtype":"","month":"2019-05"},{"category":"anti-social-behaviour","location_type":"Force","location":{"latitude":"51.523301","street":{"id":960975,"name":"On or near Bernard Street"},"longitude":"-0.124031"},"context":"","outcome_status":null,"persistent_id":"","id":74286571,"location_subtype":"","month":"2019-05"},{"category":"anti-social-behaviour","location_type":"Force","location":{"latitude":"51.525811","street":{"id":960950,"name":"On or near Hunter Street"},"longitude":"-0.123567"},"context":"","outcome_status":null,"persistent_id":"","id":74286570,"location_subtype":"","month":"2019-05"},{"category":"anti-social-behaviour","location_type":"Force","location":{"latitude":"51.526818","street":{"id":960912,"name":"On or near Wakefield Mews"},"longitude":"-0.123569"},"context":"","outcome_status":null,"persistent_id":"","id":74286568,"location_subtype":"","month":"2019-05"},{"category":"anti-social-behaviour","location_type":"Force","location":{"latitude":"51.528137","street":{"id":960910,"name":"On or near Whidborne Street"},"longitude":"-0.123342"},"context":"","outcome_status":null,"persistent_id":"","id":74286567,"location_subtype":"","month":"2019-05"},{"category":"anti-social-behaviour","location_type":"Force","location":{"latitude":"51.515412","street":{"id":956190,"name":"On or near Drury Lane"},"longitude":"-0.123317"},"context":"","outcome_status":null,"persistent_id":"","id":74286566,"location_subtype":"","month":"2019-05"},{"category":"anti-social-behaviour","location_type":"Force","location":{"latitude":"51.515412","street":{"id":956190,"name":"On or near Drury Lane"},"longitude":"-0.123317"},"context":"","outcome_status":null,"persistent_id":"","id":74286565,"location_subtype":"","month":"2019-05"},{"category":"anti-social-behaviour","location_type":"Force","location":{"latitude":"51.515412","street":{"id":956190,"name":"On or near Drury Lane"},"longitude":"-0.123317"},"context":"","outcome_status":null,"persistent_id":"","id":74286561,"location_subtype":"","month":"2019-05"},{"category":"anti-social-behaviour","location_type":"Force","location":{"latitude":"51.517821","street":{"id":956246,"name":"On or near Bloomsbury Way"},"longitude":"-0.123809"},"context":"","outcome_status":null,"persistent_id":"","id":74286560,"location_subtype":"","month":"2019-05"},{"category":"anti-social-behaviour","location_type":"Force","location":{"latitude":"51.517821","street":{"id":956246,"name":"On or near Bloomsbury Way"},"longitude":"-0.123809"},"context":"","outcome_status":null,"persistent_id":"","id":74286559,"location_subtype":"","month":"2019-05"},{"category":"anti-social-behaviour","location_type":"Force","location":{"latitude":"51.517821","street":{"id":956246,"name":"On or near Bloomsbury Way"},"longitude":"-0.123809"},"context":"","outcome_status":null,"persistent_id":"","id":74286558,"location_subtype":"","month":"2019-05"},{"category":"anti-social-behaviour","location_type":"Force","location":{"latitude":"51.517821","street":{"id":956246,"name":"On or near Bloomsbury Way"},"longitude":"-0.123809"},"context":"","outcome_status":null,"persistent_id":"","id":74286557,"location_subtype":"","month":"2019-05"},{"category":"anti-social-behaviour","location_type":"Force","location":{"latitude":"51.521137","street":{"id":961019,"name":"On or near Cosmo Place"},"longitude":"-0.122563"},"context":"","outcome_status":null,"persistent_id":"","id":74286556,"location_subtype":"","month":"2019-05"},{"category":"anti-social-behaviour","location_type":"Force","location":{"latitude":"51.529697","street":{"id":960985,"name":"On or near Conference\/exhibition Centre"},"longitude":"-0.118592"},"context":"","outcome_status":null,"persistent_id":"","id":74283085,"location_subtype":"","month":"2019-05"},{"category":"anti-social-behaviour","location_type":"Force","location":{"latitude":"51.529697","street":{"id":960985,"name":"On or near Conference\/exhibition Centre"},"longitude":"-0.118592"},"context":"","outcome_status":null,"persistent_id":"","id":74283086,"location_subtype":"","month":"2019-05"},{"category":"anti-social-behaviour","location_type":"Force","location":{"latitude":"51.521137","street":{"id":961019,"name":"On or near Cosmo Place"},"longitude":"-0.122563"},"context":"","outcome_status":null,"persistent_id":"","id":74286555,"location_subtype":"","month":"2019-05"},{"category":"anti-social-behaviour","location_type":"Force","location":{"latitude":"51.527871","street":{"id":960969,"name":"On or near Cromer Street"},"longitude":"-0.121925"},"context":"","outcome_status":null,"persistent_id":"","id":74286554,"location_subtype":"","month":"2019-05"},{"category":"anti-social-behaviour","location_type":"Force","location":{"latitude":"51.529697","street":{"id":960985,"name":"On or near Conference\/exhibition Centre"},"longitude":"-0.118592"},"context":"","outcome_status":null,"persistent_id":"","id":74283087,"location_subtype":"","month":"2019-05"},{"category":"anti-social-behaviour","location_type":"Force","location":{"latitude":"51.529697","street":{"id":960985,"name":"On or near Conference\/exhibition Centre"},"longitude":"-0.118592"},"context":"","outcome_status":null,"persistent_id":"","id":74283088,"location_subtype":"","month":"2019-05"},{"category":"anti-social-behaviour","location_type":"Force","location":{"latitude":"51.525521","street":{"id":960951,"name":"On or near Henrietta Mews"},"longitude":"-0.122310"},"context":"","outcome_status":null,"persistent_id":"","id":74286553,"location_subtype":"","month":"2019-05"},{"category":"anti-social-behaviour","location_type":"Force","location":{"latitude":"51.529571","street":{"id":960780,"name":"On or near Vernon Rise"},"longitude":"-0.115195"},"context":"","outcome_status":null,"persistent_id":"","id":74283018,"location_subtype":"","month":"2019-05"},{"category":"anti-social-behaviour","location_type":"Force","location":{"latitude":"51.531341","street":{"id":960982,"name":"On or near Affleck Street"},"longitude":"-0.116217"},"context":"","outcome_status":null,"persistent_id":"","id":74283023,"location_subtype":"","month":"2019-05"},{"category":"anti-social-behaviour","location_type":"Force","location":{"latitude":"51.531341","street":{"id":960982,"name":"On or near Affleck Street"},"longitude":"-0.116217"},"context":"","outcome_status":null,"persistent_id":"","id":74283024,"location_subtype":"","month":"2019-05"},{"category":"anti-social-behaviour","location_type":"Force","location":{"latitude":"51.529697","street":{"id":960985,"name":"On or near Conference\/exhibition Centre"},"longitude":"-0.118592"},"context":"","outcome_status":null,"persistent_id":"","id":74283082,"location_subtype":"","month":"2019-05"},{"category":"anti-social-behaviour","location_type":"Force","location":{"latitude":"51.529697","street":{"id":960985,"name":"On or near Conference\/exhibition Centre"},"longitude":"-0.118592"},"context":"","outcome_status":null,"persistent_id":"","id":74283083,"location_subtype":"","month":"2019-05"},{"category":"anti-social-behaviour","location_type":"Force","location":{"latitude":"51.530950","street":{"id":960945,"name":"On or near King's Cross Road"},"longitude":"-0.119895"},"context":"","outcome_status":null,"persistent_id":"","id":74283114,"location_subtype":"","month":"2019-05"},{"category":"anti-social-behaviour","location_type":"Force","location":{"latitude":"51.530950","street":{"id":960945,"name":"On or near King's Cross Road"},"longitude":"-0.119895"},"context":"","outcome_status":null,"persistent_id":"","id":74283115,"location_subtype":"","month":"2019-05"},{"category":"anti-social-behaviour","location_type":"Force","location":{"latitude":"51.530950","street":{"id":960945,"name":"On or near King's Cross Road"},"longitude":"-0.119895"},"context":"","outcome_status":null,"persistent_id":"","id":74283116,"location_subtype":"","month":"2019-05"},{"category":"anti-social-behaviour","location_type":"Force","location":{"latitude":"51.506837","street":{"id":956277,"name":"On or near Upper Ground"},"longitude":"-0.111824"},"context":"","outcome_status":null,"persistent_id":"","id":74273737,"location_subtype":"","month":"2019-05"},{"category":"anti-social-behaviour","location_type":"Force","location":{"latitude":"51.515431","street":{"id":956220,"name":"On or near Theatre\/concert Hall"},"longitude":"-0.122812"},"context":"","outcome_status":null,"persistent_id":"","id":74286552,"location_subtype":"","month":"2019-05"},{"category":"anti-social-behaviour","location_type":"Force","location":{"latitude":"51.525521","street":{"id":960951,"name":"On or near Henrietta Mews"},"longitude":"-0.122310"},"context":"","outcome_status":null,"persistent_id":"","id":74286551,"location_subtype":"","month":"2019-05"},{"category":"anti-social-behaviour","location_type":"Force","location":{"latitude":"51.527871","street":{"id":960969,"name":"On or near Cromer Street"},"longitude":"-0.121925"},"context":"","outcome_status":null,"persistent_id":"","id":74286550,"location_subtype":"","month":"2019-05"},{"category":"anti-social-behaviour","location_type":"Force","location":{"latitude":"51.529766","street":{"id":960918,"name":"On or near St Chad's Street"},"longitude":"-0.121790"},"context":"","outcome_status":null,"persistent_id":"","id":74286549,"location_subtype":"","month":"2019-05"},{"category":"anti-social-behaviour","location_type":"Force","location":{"latitude":"51.529766","street":{"id":960918,"name":"On or near St Chad's Street"},"longitude":"-0.121790"},"context":"","outcome_status":null,"persistent_id":"","id":74286548,"location_subtype":"","month":"2019-05"},{"category":"anti-social-behaviour","location_type":"Force","location":{"latitude":"51.529766","street":{"id":960918,"name":"On or near St Chad's Street"},"longitude":"-0.121790"},"context":"","outcome_status":null,"persistent_id":"","id":74286546,"location_subtype":"","month":"2019-05"},{"category":"anti-social-behaviour","location_type":"Force","location":{"latitude":"51.529766","street":{"id":960918,"name":"On or near St Chad's Street"},"longitude":"-0.121790"},"context":"","outcome_status":null,"persistent_id":"","id":74286547,"location_subtype":"","month":"2019-05"},{"category":"anti-social-behaviour","location_type":"Force","location":{"latitude":"51.529766","street":{"id":960918,"name":"On or near St Chad's Street"},"longitude":"-0.121790"},"context":"","outcome_status":null,"persistent_id":"","id":74286545,"location_subtype":"","month":"2019-05"},{"category":"anti-social-behaviour","location_type":"Force","location":{"latitude":"51.529766","street":{"id":960918,"name":"On or near St Chad's Street"},"longitude":"-0.121790"},"context":"","outcome_status":null,"persistent_id":"","id":74286544,"location_subtype":"","month":"2019-05"},{"category":"anti-social-behaviour","location_type":"Force","location":{"latitude":"51.529766","street":{"id":960918,"name":"On or near St Chad's Street"},"longitude":"-0.121790"},"context":"","outcome_status":null,"persistent_id":"","id":74286543,"location_subtype":"","month":"2019-05"},{"category":"anti-social-behaviour","location_type":"Force","location":{"latitude":"51.529766","street":{"id":960918,"name":"On or near St Chad's Street"},"longitude":"-0.121790"},"context":"","outcome_status":null,"persistent_id":"","id":74286542,"location_subtype":"","month":"2019-05"},{"category":"anti-social-behaviour","location_type":"Force","location":{"latitude":"51.529766","street":{"id":960918,"name":"On or near St Chad's Street"},"longitude":"-0.121790"},"context":"","outcome_status":null,"persistent_id":"","id":74286541,"location_subtype":"","month":"2019-05"},{"category":"anti-social-behaviour","location_type":"Force","location":{"latitude":"51.529720","street":{"id":961077,"name":"On or near Provost Street"},"longitude":"-0.088877"},"context":"","outcome_status":null,"persistent_id":"","id":74282765,"location_subtype":"","month":"2019-05"},{"category":"anti-social-behaviour","location_type":"Force","location":{"latitude":"51.529750","street":{"id":961067,"name":"On or near Underwood Street"},"longitude":"-0.091254"},"context":"","outcome_status":null,"persistent_id":"","id":74282782,"location_subtype":"","month":"2019-05"},{"category":"anti-social-behaviour","location_type":"Force","location":{"latitude":"51.529766","street":{"id":960918,"name":"On or near St Chad's Street"},"longitude":"-0.121790"},"context":"","outcome_status":null,"persistent_id":"","id":74286540,"location_subtype":"","month":"2019-05"},{"category":"anti-social-behaviour","location_type":"Force","location":{"latitude":"51.529766","street":{"id":960918,"name":"On or near St Chad's Street"},"longitude":"-0.121790"},"context":"","outcome_status":null,"persistent_id":"","id":74286539,"location_subtype":"","month":"2019-05"},{"category":"anti-social-behaviour","location_type":"Force","location":{"latitude":"51.529766","street":{"id":960918,"name":"On or near St Chad's Street"},"longitude":"-0.121790"},"context":"","outcome_status":null,"persistent_id":"","id":74286538,"location_subtype":"","month":"2019-05"},{"category":"anti-social-behaviour","location_type":"Force","location":{"latitude":"51.529766","street":{"id":960918,"name":"On or near St Chad's Street"},"longitude":"-0.121790"},"context":"","outcome_status":null,"persistent_id":"","id":74286537,"location_subtype":"","month":"2019-05"},{"category":"anti-social-behaviour","location_type":"Force","location":{"latitude":"51.529766","street":{"id":960918,"name":"On or near St Chad's Street"},"longitude":"-0.121790"},"context":"","outcome_status":null,"persistent_id":"","id":74286536,"location_subtype":"","month":"2019-05"},{"category":"anti-social-behaviour","location_type":"Force","location":{"latitude":"51.529766","street":{"id":960918,"name":"On or near St Chad's Street"},"longitude":"-0.121790"},"context":"","outcome_status":null,"persistent_id":"","id":74286535,"location_subtype":"","month":"2019-05"},{"category":"anti-social-behaviour","location_type":"Force","location":{"latitude":"51.529766","street":{"id":960918,"name":"On or near St Chad's Street"},"longitude":"-0.121790"},"context":"","outcome_status":null,"persistent_id":"","id":74286533,"location_subtype":"","month":"2019-05"},{"category":"anti-social-behaviour","location_type":"Force","location":{"latitude":"51.519206","street":{"id":961026,"name":"On or near Conference\/exhibition Centre"},"longitude":"-0.122152"},"context":"","outcome_status":null,"persistent_id":"","id":74286532,"location_subtype":"","month":"2019-05"},{"category":"anti-social-behaviour","location_type":"Force","location":{"latitude":"51.519206","street":{"id":961026,"name":"On or near Conference\/exhibition Centre"},"longitude":"-0.122152"},"context":"","outcome_status":null,"persistent_id":"","id":74286531,"location_subtype":"","month":"2019-05"},{"category":"anti-social-behaviour","location_type":"Force","location":{"latitude":"51.519206","street":{"id":961026,"name":"On or near Conference\/exhibition Centre"},"longitude":"-0.122152"},"context":"","outcome_status":null,"persistent_id":"","id":74286530,"location_subtype":"","month":"2019-05"},{"category":"anti-social-behaviour","location_type":"Force","location":{"latitude":"51.519206","street":{"id":961026,"name":"On or near Conference\/exhibition Centre"},"longitude":"-0.122152"},"context":"","outcome_status":null,"persistent_id":"","id":74286529,"location_subtype":"","month":"2019-05"},{"category":"anti-social-behaviour","location_type":"Force","location":{"latitude":"51.519206","street":{"id":961026,"name":"On or near Conference\/exhibition Centre"},"longitude":"-0.122152"},"context":"","outcome_status":null,"persistent_id":"","id":74286528,"location_subtype":"","month":"2019-05"},{"category":"anti-social-behaviour","location_type":"Force","location":{"latitude":"51.529611","street":{"id":960974,"name":"On or near Birkenhead Street"},"longitude":"-0.121652"},"context":"","outcome_status":null,"persistent_id":"","id":74286526,"location_subtype":"","month":"2019-05"},{"category":"anti-social-behaviour","location_type":"Force","location":{"latitude":"51.529611","street":{"id":960974,"name":"On or near Birkenhead Street"},"longitude":"-0.121652"},"context":"","outcome_status":null,"persistent_id":"","id":74286525,"location_subtype":"","month":"2019-05"},{"category":"anti-social-behaviour","location_type":"Force","location":{"latitude":"51.529611","street":{"id":960974,"name":"On or near Birkenhead Street"},"longitude":"-0.121652"},"context":"","outcome_status":null,"persistent_id":"","id":74286527,"location_subtype":"","month":"2019-05"},{"category":"anti-social-behaviour","location_type":"Force","location":{"latitude":"51.528620","street":{"id":960978,"name":"On or near Argyle Street"},"longitude":"-0.121548"},"context":"","outcome_status":null,"persistent_id":"","id":74286524,"location_subtype":"","month":"2019-05"},{"category":"anti-social-behaviour","location_type":"Force","location":{"latitude":"51.517748","street":{"id":956247,"name":"On or near Barter Street"},"longitude":"-0.122659"},"context":"","outcome_status":null,"persistent_id":"","id":74286522,"location_subtype":"","month":"2019-05"},{"category":"anti-social-behaviour","location_type":"Force","location":{"latitude":"51.527620","street":{"id":960953,"name":"On or near Harrison Street"},"longitude":"-0.120854"},"context":"","outcome_status":null,"persistent_id":"","id":74286521,"location_subtype":"","month":"2019-05"},{"category":"anti-social-behaviour","location_type":"Force","location":{"latitude":"51.527620","street":{"id":960953,"name":"On or near Harrison Street"},"longitude":"-0.120854"},"context":"","outcome_status":null,"persistent_id":"","id":74286520,"location_subtype":"","month":"2019-05"},{"category":"anti-social-behaviour","location_type":"Force","location":{"latitude":"51.527620","street":{"id":960953,"name":"On or near Harrison Street"},"longitude":"-0.120854"},"context":"","outcome_status":null,"persistent_id":"","id":74286519,"location_subtype":"","month":"2019-05"},{"category":"anti-social-behaviour","location_type":"Force","location":{"latitude":"51.515957","street":{"id":956164,"name":"On or near Parker Street"},"longitude":"-0.121421"},"context":"","outcome_status":null,"persistent_id":"","id":74286518,"location_subtype":"","month":"2019-05"},{"category":"anti-social-behaviour","location_type":"Force","location":{"latitude":"51.515678","street":{"id":956181,"name":"On or near Great Queen Street"},"longitude":"-0.120841"},"context":"","outcome_status":null,"persistent_id":"","id":74286517,"location_subtype":"","month":"2019-05"},{"category":"anti-social-behaviour","location_type":"Force","location":{"latitude":"51.515678","street":{"id":956181,"name":"On or near Great Queen Street"},"longitude":"-0.120841"},"context":"","outcome_status":null,"persistent_id":"","id":74286516,"location_subtype":"","month":"2019-05"},{"category":"anti-social-behaviour","location_type":"Force","location":{"latitude":"51.515678","street":{"id":956181,"name":"On or near Great Queen Street"},"longitude":"-0.120841"},"context":"","outcome_status":null,"persistent_id":"","id":74286515,"location_subtype":"","month":"2019-05"},{"category":"anti-social-behaviour","location_type":"Force","location":{"latitude":"51.515678","street":{"id":956181,"name":"On or near Great Queen Street"},"longitude":"-0.120841"},"context":"","outcome_status":null,"persistent_id":"","id":74286514,"location_subtype":"","month":"2019-05"},{"category":"anti-social-behaviour","location_type":"Force","location":{"latitude":"51.515678","street":{"id":956181,"name":"On or near Great Queen Street"},"longitude":"-0.120841"},"context":"","outcome_status":null,"persistent_id":"","id":74286513,"location_subtype":"","month":"2019-05"},{"category":"anti-social-behaviour","location_type":"Force","location":{"latitude":"51.516586","street":{"id":956237,"name":"On or near Newton Street"},"longitude":"-0.121395"},"context":"","outcome_status":null,"persistent_id":"","id":74286512,"location_subtype":"","month":"2019-05"},{"category":"anti-social-behaviour","location_type":"Force","location":{"latitude":"51.521070","street":{"id":961007,"name":"On or near Ormond Close"},"longitude":"-0.121211"},"context":"","outcome_status":null,"persistent_id":"","id":74286511,"location_subtype":"","month":"2019-05"},{"category":"anti-social-behaviour","location_type":"Force","location":{"latitude":"51.521070","street":{"id":961007,"name":"On or near Ormond Close"},"longitude":"-0.121211"},"context":"","outcome_status":null,"persistent_id":"","id":74286510,"location_subtype":"","month":"2019-05"},{"category":"anti-social-behaviour","location_type":"Force","location":{"latitude":"51.530950","street":{"id":960945,"name":"On or near King's Cross Road"},"longitude":"-0.119895"},"context":"","outcome_status":null,"persistent_id":"","id":74286509,"location_subtype":"","month":"2019-05"},{"category":"anti-social-behaviour","location_type":"Force","location":{"latitude":"51.518181","street":{"id":956244,"name":"On or near Catton Street"},"longitude":"-0.119946"},"context":"","outcome_status":null,"persistent_id":"","id":74286508,"location_subtype":"","month":"2019-05"},{"category":"anti-social-behaviour","location_type":"Force","location":{"latitude":"51.527327","street":{"id":960921,"name":"On or near Sidmouth Mews"},"longitude":"-0.119382"},"context":"","outcome_status":null,"persistent_id":"","id":74286507,"location_subtype":"","month":"2019-05"},{"category":"anti-social-behaviour","location_type":"Force","location":{"latitude":"51.526975","street":{"id":961092,"name":"On or near Galway Street"},"longitude":"-0.092567"},"context":"","outcome_status":null,"persistent_id":"","id":74282789,"location_subtype":"","month":"2019-05"},{"category":"anti-social-behaviour","location_type":"Force","location":{"latitude":"51.531646","street":{"id":964587,"name":"On or near Wharf Road"},"longitude":"-0.096121"},"context":"","outcome_status":null,"persistent_id":"","id":74282800,"location_subtype":"","month":"2019-05"},{"category":"anti-social-behaviour","location_type":"Force","location":{"latitude":"51.529697","street":{"id":960985,"name":"On or near Conference\/exhibition Centre"},"longitude":"-0.118592"},"context":"","outcome_status":null,"persistent_id":"","id":74283084,"location_subtype":"","month":"2019-05"},{"category":"anti-social-behaviour","location_type":"Force","location":{"latitude":"51.516213","street":{"id":956172,"name":"On or near Kingsway"},"longitude":"-0.119450"},"context":"","outcome_status":null,"persistent_id":"","id":74286506,"location_subtype":"","month":"2019-05"},{"category":"anti-social-behaviour","location_type":"Force","location":{"latitude":"51.516213","street":{"id":956172,"name":"On or near Kingsway"},"longitude":"-0.119450"},"context":"","outcome_status":null,"persistent_id":"","id":74286505,"location_subtype":"","month":"2019-05"},{"category":"anti-social-behaviour","location_type":"Force","location":{"latitude":"51.516213","street":{"id":956172,"name":"On or near Kingsway"},"longitude":"-0.119450"},"context":"","outcome_status":null,"persistent_id":"","id":74286504,"location_subtype":"","month":"2019-05"},{"category":"anti-social-behaviour","location_type":"Force","location":{"latitude":"51.516213","street":{"id":956172,"name":"On or near Kingsway"},"longitude":"-0.119450"},"context":"","outcome_status":null,"persistent_id":"","id":74286503,"location_subtype":"","month":"2019-05"},{"category":"anti-social-behaviour","location_type":"Force","location":{"latitude":"51.516213","street":{"id":956172,"name":"On or near Kingsway"},"longitude":"-0.119450"},"context":"","outcome_status":null,"persistent_id":"","id":74286502,"location_subtype":"","month":"2019-05"},{"category":"anti-social-behaviour","location_type":"Force","location":{"latitude":"51.518544","street":{"id":960999,"name":"On or near Yorkshire Grey Yard"},"longitude":"-0.119008"},"context":"","outcome_status":null,"persistent_id":"","id":74286501,"location_subtype":"","month":"2019-05"},{"category":"anti-social-behaviour","location_type":"Force","location":{"latitude":"51.530211","street":{"id":960942,"name":"On or near Leeke Street"},"longitude":"-0.118700"},"context":"","outcome_status":null,"persistent_id":"","id":74286499,"location_subtype":"","month":"2019-05"},{"category":"anti-social-behaviour","location_type":"Force","location":{"latitude":"51.526357","street":{"id":960952,"name":"On or near Heathcote Street"},"longitude":"-0.118888"},"context":"","outcome_status":null,"persistent_id":"","id":74286500,"location_subtype":"","month":"2019-05"},{"category":"anti-social-behaviour","location_type":"Force","location":{"latitude":"51.530211","street":{"id":960942,"name":"On or near Leeke Street"},"longitude":"-0.118700"},"context":"","outcome_status":null,"persistent_id":"","id":74286498,"location_subtype":"","month":"2019-05"},{"category":"anti-social-behaviour","location_type":"Force","location":{"latitude":"51.518544","street":{"id":960999,"name":"On or near Yorkshire Grey Yard"},"longitude":"-0.119008"},"context":"","outcome_status":null,"persistent_id":"","id":74286497,"location_subtype":"","month":"2019-05"},{"category":"anti-social-behaviour","location_type":"Force","location":{"latitude":"51.516523","street":{"id":956236,"name":"On or near Remnant Street"},"longitude":"-0.119135"},"context":"","outcome_status":null,"persistent_id":"","id":74286495,"location_subtype":"","month":"2019-05"},{"category":"anti-social-behaviour","location_type":"Force","location":{"latitude":"51.516523","street":{"id":956236,"name":"On or near Remnant Street"},"longitude":"-0.119135"},"context":"","outcome_status":null,"persistent_id":"","id":74286494,"location_subtype":"","month":"2019-05"},{"category":"anti-social-behaviour","location_type":"Force","location":{"latitude":"51.516523","street":{"id":956236,"name":"On or near Remnant Street"},"longitude":"-0.119135"},"context":"","outcome_status":null,"persistent_id":"","id":74286493,"location_subtype":"","month":"2019-05"},{"category":"anti-social-behaviour","location_type":"Force","location":{"latitude":"51.516523","street":{"id":956236,"name":"On or near Remnant Street"},"longitude":"-0.119135"},"context":"","outcome_status":null,"persistent_id":"","id":74286492,"location_subtype":"","month":"2019-05"},{"category":"anti-social-behaviour","location_type":"Force","location":{"latitude":"51.516523","street":{"id":956236,"name":"On or near Remnant Street"},"longitude":"-0.119135"},"context":"","outcome_status":null,"persistent_id":"","id":74286491,"location_subtype":"","month":"2019-05"},{"category":"anti-social-behaviour","location_type":"Force","location":{"latitude":"51.516523","street":{"id":956236,"name":"On or near Remnant Street"},"longitude":"-0.119135"},"context":"","outcome_status":null,"persistent_id":"","id":74286490,"location_subtype":"","month":"2019-05"},{"category":"anti-social-behaviour","location_type":"Force","location":{"latitude":"51.516523","street":{"id":956236,"name":"On or near Remnant Street"},"longitude":"-0.119135"},"context":"","outcome_status":null,"persistent_id":"","id":74286489,"location_subtype":"","month":"2019-05"},{"category":"anti-social-behaviour","location_type":"Force","location":{"latitude":"51.518544","street":{"id":960999,"name":"On or near Yorkshire Grey Yard"},"longitude":"-0.119008"},"context":"","outcome_status":null,"persistent_id":"","id":74286488,"location_subtype":"","month":"2019-05"},{"category":"anti-social-behaviour","location_type":"Force","location":{"latitude":"51.529697","street":{"id":960985,"name":"On or near Conference\/exhibition Centre"},"longitude":"-0.118592"},"context":"","outcome_status":null,"persistent_id":"","id":74286486,"location_subtype":"","month":"2019-05"},{"category":"anti-social-behaviour","location_type":"Force","location":{"latitude":"51.529697","street":{"id":960985,"name":"On or near Conference\/exhibition Centre"},"longitude":"-0.118592"},"context":"","outcome_status":null,"persistent_id":"","id":74286485,"location_subtype":"","month":"2019-05"},{"category":"anti-social-behaviour","location_type":"Force","location":{"latitude":"51.529697","street":{"id":960985,"name":"On or near Conference\/exhibition Centre"},"longitude":"-0.118592"},"context":"","outcome_status":null,"persistent_id":"","id":74286484,"location_subtype":"","month":"2019-05"},{"category":"anti-social-behaviour","location_type":"Force","location":{"latitude":"51.519000","street":{"id":961005,"name":"On or near Red Lion Square"},"longitude":"-0.118860"},"context":"","outcome_status":null,"persistent_id":"","id":74286482,"location_subtype":"","month":"2019-05"},{"category":"anti-social-behaviour","location_type":"Force","location":{"latitude":"51.529697","street":{"id":960985,"name":"On or near Conference\/exhibition Centre"},"longitude":"-0.118592"},"context":"","outcome_status":null,"persistent_id":"","id":74286483,"location_subtype":"","month":"2019-05"},{"category":"anti-social-behaviour","location_type":"Force","location":{"latitude":"51.529026","street":{"id":960916,"name":"On or near Swinton Street"},"longitude":"-0.117668"},"context":"","outcome_status":null,"persistent_id":"","id":74286480,"location_subtype":"","month":"2019-05"},{"category":"anti-social-behaviour","location_type":"Force","location":{"latitude":"51.529026","street":{"id":960916,"name":"On or near Swinton Street"},"longitude":"-0.117668"},"context":"","outcome_status":null,"persistent_id":"","id":74285851,"location_subtype":"","month":"2019-05"},{"category":"anti-social-behaviour","location_type":"Force","location":{"latitude":"51.529026","street":{"id":960916,"name":"On or near Swinton Street"},"longitude":"-0.117668"},"context":"","outcome_status":null,"persistent_id":"","id":74285850,"location_subtype":"","month":"2019-05"},{"category":"anti-social-behaviour","location_type":"Force","location":{"latitude":"51.519205","street":{"id":961004,"name":"On or near Red Lion Street"},"longitude":"-0.117064"},"context":"","outcome_status":null,"persistent_id":"","id":74285848,"location_subtype":"","month":"2019-05"},{"category":"anti-social-behaviour","location_type":"Force","location":{"latitude":"51.519205","street":{"id":961004,"name":"On or near Red Lion Street"},"longitude":"-0.117064"},"context":"","outcome_status":null,"persistent_id":"","id":74285847,"location_subtype":"","month":"2019-05"},{"category":"anti-social-behaviour","location_type":"Force","location":{"latitude":"51.519205","street":{"id":961004,"name":"On or near Red Lion Street"},"longitude":"-0.117064"},"context":"","outcome_status":null,"persistent_id":"","id":74285846,"location_subtype":"","month":"2019-05"},{"category":"anti-social-behaviour","location_type":"Force","location":{"latitude":"51.525824","street":{"id":960993,"name":"On or near Hospital"},"longitude":"-0.117050"},"context":"","outcome_status":null,"persistent_id":"","id":74285845,"location_subtype":"","month":"2019-05"},{"category":"anti-social-behaviour","location_type":"Force","location":{"latitude":"51.523449","street":{"id":960965,"name":"On or near Doughty Street"},"longitude":"-0.116471"},"context":"","outcome_status":null,"persistent_id":"","id":74285844,"location_subtype":"","month":"2019-05"},{"category":"anti-social-behaviour","location_type":"Force","location":{"latitude":"51.527078","street":{"id":960963,"name":"On or near Fleet Square"},"longitude":"-0.116206"},"context":"","outcome_status":null,"persistent_id":"","id":74285843,"location_subtype":"","month":"2019-05"},{"category":"anti-social-behaviour","location_type":"Force","location":{"latitude":"51.518098","street":{"id":956248,"name":"On or near Race Track"},"longitude":"-0.116966"},"context":"","outcome_status":null,"persistent_id":"","id":74285842,"location_subtype":"","month":"2019-05"},{"category":"anti-social-behaviour","location_type":"Force","location":{"latitude":"51.524954","street":{"id":960851,"name":"On or near Green Yard"},"longitude":"-0.115558"},"context":"","outcome_status":null,"persistent_id":"","id":74285839,"location_subtype":"","month":"2019-05"},{"category":"anti-social-behaviour","location_type":"Force","location":{"latitude":"51.520049","street":{"id":961039,"name":"On or near Jockey's Fields"},"longitude":"-0.115299"},"context":"","outcome_status":null,"persistent_id":"","id":74285838,"location_subtype":"","month":"2019-05"},{"category":"anti-social-behaviour","location_type":"Force","location":{"latitude":"51.525332","street":{"id":960770,"name":"On or near Wren Street"},"longitude":"-0.115528"},"context":"","outcome_status":null,"persistent_id":"","id":74285840,"location_subtype":"","month":"2019-05"},{"category":"anti-social-behaviour","location_type":"Force","location":{"latitude":"51.520049","street":{"id":961039,"name":"On or near Jockey's Fields"},"longitude":"-0.115299"},"context":"","outcome_status":null,"persistent_id":"","id":74285837,"location_subtype":"","month":"2019-05"},{"category":"anti-social-behaviour","location_type":"Force","location":{"latitude":"51.520049","street":{"id":961039,"name":"On or near Jockey's Fields"},"longitude":"-0.115299"},"context":"","outcome_status":null,"persistent_id":"","id":74285836,"location_subtype":"","month":"2019-05"},{"category":"anti-social-behaviour","location_type":"Force","location":{"latitude":"51.522862","street":{"id":960800,"name":"On or near Roger Street"},"longitude":"-0.115198"},"context":"","outcome_status":null,"persistent_id":"","id":74285835,"location_subtype":"","month":"2019-05"},{"category":"anti-social-behaviour","location_type":"Force","location":{"latitude":"51.522820","street":{"id":960863,"name":"On or near Elm Street"},"longitude":"-0.113657"},"context":"","outcome_status":null,"persistent_id":"","id":74285834,"location_subtype":"","month":"2019-05"},{"category":"anti-social-behaviour","location_type":"Force","location":{"latitude":"51.522820","street":{"id":960807,"name":"On or near Pooles Buildings"},"longitude":"-0.112547"},"context":"","outcome_status":null,"persistent_id":"","id":74285833,"location_subtype":"","month":"2019-05"},{"category":"anti-social-behaviour","location_type":"Force","location":{"latitude":"51.521853","street":{"id":960784,"name":"On or near Theobald's Road"},"longitude":"-0.111708"},"context":"","outcome_status":null,"persistent_id":"","id":74285832,"location_subtype":"","month":"2019-05"},{"category":"anti-social-behaviour","location_type":"Force","location":{"latitude":"51.521853","street":{"id":960784,"name":"On or near Theobald's Road"},"longitude":"-0.111708"},"context":"","outcome_status":null,"persistent_id":"","id":74285831,"location_subtype":"","month":"2019-05"},{"category":"anti-social-behaviour","location_type":"Force","location":{"latitude":"51.518226","street":{"id":956268,"name":"On or near Pedestrian Subway"},"longitude":"-0.111497"},"context":"","outcome_status":null,"persistent_id":"","id":74285829,"location_subtype":"","month":"2019-05"},{"category":"anti-social-behaviour","location_type":"Force","location":{"latitude":"51.518226","street":{"id":956268,"name":"On or near Pedestrian Subway"},"longitude":"-0.111497"},"context":"","outcome_status":null,"persistent_id":"","id":74285828,"location_subtype":"","month":"2019-05"},{"category":"anti-social-behaviour","location_type":"Force","location":{"latitude":"51.520373","street":{"id":961030,"name":"On or near Verulam Street"},"longitude":"-0.111942"},"context":"","outcome_status":null,"persistent_id":"","id":74285827,"location_subtype":"","month":"2019-05"},{"category":"anti-social-behaviour","location_type":"Force","location":{"latitude":"51.520373","street":{"id":961030,"name":"On or near Verulam Street"},"longitude":"-0.111942"},"context":"","outcome_status":null,"persistent_id":"","id":74285826,"location_subtype":"","month":"2019-05"},{"category":"anti-social-behaviour","location_type":"Force","location":{"latitude":"51.519632","street":{"id":961046,"name":"On or near Dorrington Street"},"longitude":"-0.110070"},"context":"","outcome_status":null,"persistent_id":"","id":74285824,"location_subtype":"","month":"2019-05"},{"category":"anti-social-behaviour","location_type":"Force","location":{"latitude":"51.519409","street":{"id":961052,"name":"On or near Beauchamp Street"},"longitude":"-0.110151"},"context":"","outcome_status":null,"persistent_id":"","id":74285825,"location_subtype":"","month":"2019-05"},{"category":"anti-social-behaviour","location_type":"Force","location":{"latitude":"51.522642","street":{"id":960785,"name":"On or near Summers Street"},"longitude":"-0.109888"},"context":"","outcome_status":null,"persistent_id":"","id":74285823,"location_subtype":"","month":"2019-05"},{"category":"anti-social-behaviour","location_type":"Force","location":{"latitude":"51.520624","street":{"id":961037,"name":"On or near Leather Lane"},"longitude":"-0.109640"},"context":"","outcome_status":null,"persistent_id":"","id":74285821,"location_subtype":"","month":"2019-05"},{"category":"anti-social-behaviour","location_type":"Force","location":{"latitude":"51.520624","street":{"id":961037,"name":"On or near Leather Lane"},"longitude":"-0.109640"},"context":"","outcome_status":null,"persistent_id":"","id":74285820,"location_subtype":"","month":"2019-05"},{"category":"anti-social-behaviour","location_type":"Force","location":{"latitude":"51.518098","street":{"id":956248,"name":"On or near Race Track"},"longitude":"-0.116966"},"context":"","outcome_status":null,"persistent_id":"","id":74285841,"location_subtype":"","month":"2019-05"},{"category":"anti-social-behaviour","location_type":"Force","location":{"latitude":"51.520624","street":{"id":961037,"name":"On or near Leather Lane"},"longitude":"-0.109640"},"context":"","outcome_status":null,"persistent_id":"","id":74285819,"location_subtype":"","month":"2019-05"},{"category":"anti-social-behaviour","location_type":"Force","location":{"latitude":"51.517909","street":{"id":587581,"name":"On or near High Holborn"},"longitude":"-0.109709"},"context":"","outcome_status":null,"persistent_id":"","id":74285817,"location_subtype":"","month":"2019-05"},{"category":"anti-social-behaviour","location_type":"Force","location":{"latitude":"51.520339","street":{"id":961044,"name":"On or near Farringdon Road"},"longitude":"-0.105904"},"context":"","outcome_status":null,"persistent_id":"","id":74285816,"location_subtype":"","month":"2019-05"},{"category":"anti-social-behaviour","location_type":"Force","location":{"latitude":"51.520339","street":{"id":961044,"name":"On or near Farringdon Road"},"longitude":"-0.105904"},"context":"","outcome_status":null,"persistent_id":"","id":74285815,"location_subtype":"","month":"2019-05"},{"category":"anti-social-behaviour","location_type":"Force","location":{"latitude":"51.507339","street":{"id":956287,"name":"On or near Broadwall"},"longitude":"-0.108388"},"context":"","outcome_status":null,"persistent_id":"","id":74273325,"location_subtype":"","month":"2019-05"},{"category":"anti-social-behaviour","location_type":"Force","location":{"latitude":"51.517974","street":{"id":956634,"name":"On or near Bloomsbury Street"},"longitude":"-0.127781"},"context":"","outcome_status":null,"persistent_id":"","id":74286653,"location_subtype":"","month":"2019-05"},{"category":"anti-social-behaviour","location_type":"Force","location":{"latitude":"51.523901","street":{"id":961236,"name":"On or near Honduras Street"},"longitude":"-0.096011"},"context":"","outcome_status":null,"persistent_id":"","id":74279638,"location_subtype":"","month":"2019-05"},{"category":"anti-social-behaviour","location_type":"Force","location":{"latitude":"51.523469","street":{"id":960515,"name":"On or near Parking Area"},"longitude":"-0.126114"},"context":"","outcome_status":null,"persistent_id":"","id":74286621,"location_subtype":"","month":"2019-05"},{"category":"anti-social-behaviour","location_type":"Force","location":{"latitude":"51.523793","street":{"id":960545,"name":"On or near Herbrand Street"},"longitude":"-0.125567"},"context":"","outcome_status":null,"persistent_id":"","id":74286611,"location_subtype":"","month":"2019-05"},{"category":"anti-social-behaviour","location_type":"Force","location":{"latitude":"51.516692","street":{"id":956232,"name":"On or near West Central Street"},"longitude":"-0.125225"},"context":"","outcome_status":null,"persistent_id":"","id":74286605,"location_subtype":"","month":"2019-05"},{"category":"anti-social-behaviour","location_type":"Force","location":{"latitude":"51.516692","street":{"id":956232,"name":"On or near West Central Street"},"longitude":"-0.125225"},"context":"","outcome_status":null,"persistent_id":"","id":74286603,"location_subtype":"","month":"2019-05"},{"category":"anti-social-behaviour","location_type":"Force","location":{"latitude":"51.514696","street":{"id":956152,"name":"On or near Shorts Gardens"},"longitude":"-0.125234"},"context":"","outcome_status":null,"persistent_id":"","id":74286590,"location_subtype":"","month":"2019-05"},{"category":"anti-social-behaviour","location_type":"Force","location":{"latitude":"51.526131","street":{"id":961214,"name":"On or near Percival Street"},"longitude":"-0.102074"},"context":"","outcome_status":null,"persistent_id":"","id":74279720,"location_subtype":"","month":"2019-05"},{"category":"anti-social-behaviour","location_type":"Force","location":{"latitude":"51.526056","street":{"id":960971,"name":"On or near Compton Place"},"longitude":"-0.124797"},"context":"","outcome_status":null,"persistent_id":"","id":74286581,"location_subtype":"","month":"2019-05"},{"category":"anti-social-behaviour","location_type":"Force","location":{"latitude":"51.513100","street":{"id":956169,"name":"On or near Long Acre"},"longitude":"-0.124406"},"context":"","outcome_status":null,"persistent_id":"","id":74280427,"location_subtype":"","month":"2019-05"},{"category":"anti-social-behaviour","location_type":"Force","location":{"latitude":"51.510855","street":{"id":587500,"name":"On or near Gophir Lane"},"longitude":"-0.089465"},"context":"","outcome_status":null,"persistent_id":"","id":74597642,"location_subtype":"","month":"2019-05"},{"category":"anti-social-behaviour","location_type":"Force","location":{"latitude":"51.513447","street":{"id":587517,"name":"On or near Bow Lane"},"longitude":"-0.093493"},"context":"","outcome_status":null,"persistent_id":"","id":74597640,"location_subtype":"","month":"2019-05"},{"category":"anti-social-behaviour","location_type":"Force","location":{"latitude":"51.514887","street":{"id":587564,"name":"On or near Fetter Lane"},"longitude":"-0.109647"},"context":"","outcome_status":null,"persistent_id":"","id":74597607,"location_subtype":"","month":"2019-05"},{"category":"anti-social-behaviour","location_type":"Force","location":{"latitude":"51.533584","street":{"id":964807,"name":"On or near Duncan Street"},"longitude":"-0.104172"},"context":"","outcome_status":null,"persistent_id":"","id":74281413,"location_subtype":"","month":"2019-05"},{"category":"anti-social-behaviour","location_type":"Force","location":{"latitude":"51.511477","street":{"id":587476,"name":"On or near Queen Street"},"longitude":"-0.092926"},"context":"","outcome_status":null,"persistent_id":"","id":74597758,"location_subtype":"","month":"2019-05"},{"category":"anti-social-behaviour","location_type":"Force","location":{"latitude":"51.515281","street":{"id":587450,"name":"On or near Conference\/exhibition Centre"},"longitude":"-0.084105"},"context":"","outcome_status":null,"persistent_id":"","id":74597755,"location_subtype":"","month":"2019-05"},{"category":"anti-social-behaviour","location_type":"Force","location":{"latitude":"51.509848","street":{"id":587368,"name":"On or near A201"},"longitude":"-0.104494"},"context":"","outcome_status":null,"persistent_id":"","id":74597754,"location_subtype":"","month":"2019-05"},{"category":"anti-social-behaviour","location_type":"Force","location":{"latitude":"51.513569","street":{"id":587429,"name":"On or near Finch Lane"},"longitude":"-0.086051"},"context":"","outcome_status":null,"persistent_id":"","id":74597752,"location_subtype":"","month":"2019-05"},{"category":"anti-social-behaviour","location_type":"Force","location":{"latitude":"51.520747","street":{"id":587607,"name":"On or near Park\/open Space"},"longitude":"-0.096114"},"context":"","outcome_status":null,"persistent_id":"","id":74597749,"location_subtype":"","month":"2019-05"},{"category":"anti-social-behaviour","location_type":"Force","location":{"latitude":"51.511435","street":{"id":587400,"name":"On or near Nicholas Lane"},"longitude":"-0.087581"},"context":"","outcome_status":null,"persistent_id":"","id":74597745,"location_subtype":"","month":"2019-05"},{"category":"anti-social-behaviour","location_type":"Force","location":{"latitude":"51.523156","street":{"id":587602,"name":"On or near Baltic Street West"},"longitude":"-0.097210"},"context":"","outcome_status":null,"persistent_id":"","id":74597743,"location_subtype":"","month":"2019-05"},{"category":"anti-social-behaviour","location_type":"Force","location":{"latitude":"51.520747","street":{"id":587607,"name":"On or near Park\/open Space"},"longitude":"-0.096114"},"context":"","outcome_status":null,"persistent_id":"","id":74597733,"location_subtype":"","month":"2019-05"},{"category":"anti-social-behaviour","location_type":"Force","location":{"latitude":"51.520206","street":{"id":587624,"name":"On or near Conference\/exhibition Centre"},"longitude":"-0.097736"},"context":"","outcome_status":null,"persistent_id":"","id":74597731,"location_subtype":"","month":"2019-05"},{"category":"anti-social-behaviour","location_type":"Force","location":{"latitude":"51.520875","street":{"id":587597,"name":"On or near Shopping Area"},"longitude":"-0.094033"},"context":"","outcome_status":null,"persistent_id":"","id":74597727,"location_subtype":"","month":"2019-05"},{"category":"anti-social-behaviour","location_type":"Force","location":{"latitude":"51.518709","street":{"id":587603,"name":"On or near Parking Area"},"longitude":"-0.101345"},"context":"","outcome_status":null,"persistent_id":"","id":74597725,"location_subtype":"","month":"2019-05"},{"category":"anti-social-behaviour","location_type":"Force","location":{"latitude":"51.516032","street":{"id":587364,"name":"On or near Bear Alley"},"longitude":"-0.104281"},"context":"","outcome_status":null,"persistent_id":"","id":74597721,"location_subtype":"","month":"2019-05"},{"category":"anti-social-behaviour","location_type":"Force","location":{"latitude":"51.515281","street":{"id":587450,"name":"On or near Conference\/exhibition Centre"},"longitude":"-0.084105"},"context":"","outcome_status":null,"persistent_id":"","id":74597718,"location_subtype":"","month":"2019-05"},{"category":"anti-social-behaviour","location_type":"Force","location":{"latitude":"51.523156","street":{"id":587602,"name":"On or near Baltic Street West"},"longitude":"-0.097210"},"context":"","outcome_status":null,"persistent_id":"","id":74597716,"location_subtype":"","month":"2019-05"},{"category":"anti-social-behaviour","location_type":"Force","location":{"latitude":"51.522868","street":{"id":587594,"name":"On or near Golden Lane"},"longitude":"-0.094959"},"context":"","outcome_status":null,"persistent_id":"","id":74597714,"location_subtype":"","month":"2019-05"},{"category":"anti-social-behaviour","location_type":"Force","location":{"latitude":"51.519703","street":{"id":587616,"name":"On or near Grand Avenue"},"longitude":"-0.101649"},"context":"","outcome_status":null,"persistent_id":"","id":74597712,"location_subtype":"","month":"2019-05"},{"category":"anti-social-behaviour","location_type":"Force","location":{"latitude":"51.516966","street":{"id":587577,"name":"On or near Plumtree Court"},"longitude":"-0.105900"},