[{"category":"anti-social-behaviour","location_type":"Force","location":{"latitude":"51.479118","street":{"id":948775,"name":"On or near Old Pearson Street"},"longitude":"-0.014118"},"context":"","outcome_status":null,"persistent_id":"","id":74280058,"location_subtype":"","month":"2019-05"},{"category":"anti-social-behaviour","location_type":"Force","location":{"latitude":"51.475631","street":{"id":946669,"name":"On or near Lewisham Way"},"longitude":"-0.037224"},"context":"","outcome_status":null,"persistent_id":"","id":74277478,"location_subtype":"","month":"2019-05"},{"category":"anti-social-behaviour","location_type":"Force","location":{"latitude":"51.478838","street":{"id":948925,"name":"On or near Primrose Walk"},"longitude":"-0.037014"},"context":"","outcome_status":null,"persistent_id":"","id":74277480,"location_subtype":"","month":"2019-05"},{"category":"anti-social-behaviour","location_type":"Force","location":{"latitude":"51.478838","street":{"id":948925,"name":"On or near Primrose Walk"},"longitude":"-0.037014"},"context":"","outcome_status":null,"persistent_id":"","id":74277481,"location_subtype":"","month":"2019-05"},{"category":"anti-social-behaviour","location_type":"Force","location":{"latitude":"51.478838","street":{"id":948925,"name":"On or near Primrose Walk"},"longitude":"-0.037014"},"context":"","outcome_status":null,"persistent_id":"","id":74277482,"location_subtype":"","month":"2019-05"},{"category":"anti-social-behaviour","location_type":"Force","location":{"latitude":"51.478838","street":{"id":948925,"name":"On or near Primrose Walk"},"longitude":"-0.037014"},"context":"","outcome_status":null,"persistent_id":"","id":74277483,"location_subtype":"","month":"2019-05"},{"category":"anti-social-behaviour","location_type":"Force","location":{"latitude":"51.478838","street":{"id":948925,"name":"On or near Primrose Walk"},"longitude":"-0.037014"},"context":"","outcome_status":null,"persistent_id":"","id":74277484,"location_subtype":"","month":"2019-05"},{"category":"anti-social-behaviour","location_type":"Force","location":{"latitude":"51.475902","street":{"id":946675,"name":"On or near Batavia Mews"},"longitude":"-0.037817"},"context":"","outcome_status":null,"persistent_id":"","id":74277485,"location_subtype":"","month":"2019-05"},{"category":"anti-social-behaviour","location_type":"Force","location":{"latitude":"51.481759","street":{"id":948716,"name":"On or near Clavell Street"},"longitude":"-0.011829"},"context":"","outcome_status":null,"persistent_id":"","id":74280045,"location_subtype":"","month":"2019-05"},{"category":"anti-social-behaviour","location_type":"Force","location":{"latitude":"51.481759","street":{"id":948716,"name":"On or near Clavell Street"},"longitude":"-0.011829"},"context":"","outcome_status":null,"persistent_id":"","id":74280046,"location_subtype":"","month":"2019-05"},{"category":"anti-social-behaviour","location_type":"Force","location":{"latitude":"51.481759","street":{"id":948716,"name":"On or near Clavell Street"},"longitude":"-0.011829"},"context":"","outcome_status":null,"persistent_id":"","id":74280047,"location_subtype":"","month":"2019-05"},{"category":"anti-social-behaviour","location_type":"Force","location":{"latitude":"51.468949","street":{"id":946746,"name":"On or near Smiles Place"},"longitude":"-0.012126"},"context":"","outcome_status":null,"persistent_id":"","id":74280048,"location_subtype":"","month":"2019-05"},{"category":"anti-social-behaviour","location_type":"Force","location":{"latitude":"51.468949","street":{"id":946746,"name":"On or near Smiles Place"},"longitude":"-0.012126"},"context":"","outcome_status":null,"persistent_id":"","id":74280049,"location_subtype":"","month":"2019-05"},{"category":"anti-social-behaviour","location_type":"Force","location":{"latitude":"51.473661","street":{"id":946759,"name":"On or near Dutton Street"},"longitude":"-0.012613"},"context":"","outcome_status":null,"persistent_id":"","id":74280050,"location_subtype":"","month":"2019-05"},{"category":"anti-social-behaviour","location_type":"Force","location":{"latitude":"51.472753","street":{"id":946760,"name":"On or near Dabin Crescent"},"longitude":"-0.013156"},"context":"","outcome_status":null,"persistent_id":"","id":74280051,"location_subtype":"","month":"2019-05"},{"category":"anti-social-behaviour","location_type":"Force","location":{"latitude":"51.481104","street":{"id":948717,"name":"On or near Bardsley Lane"},"longitude":"-0.012462"},"context":"","outcome_status":null,"persistent_id":"","id":74280052,"location_subtype":"","month":"2019-05"},{"category":"anti-social-behaviour","location_type":"Force","location":{"latitude":"51.480563","street":{"id":948672,"name":"On or near Haddo Street"},"longitude":"-0.013983"},"context":"","outcome_status":null,"persistent_id":"","id":74280053,"location_subtype":"","month":"2019-05"},{"category":"anti-social-behaviour","location_type":"Force","location":{"latitude":"51.480563","street":{"id":948672,"name":"On or near Haddo Street"},"longitude":"-0.013983"},"context":"","outcome_status":null,"persistent_id":"","id":74280054,"location_subtype":"","month":"2019-05"},{"category":"anti-social-behaviour","location_type":"Force","location":{"latitude":"51.480563","street":{"id":948672,"name":"On or near Haddo Street"},"longitude":"-0.013983"},"context":"","outcome_status":null,"persistent_id":"","id":74280055,"location_subtype":"","month":"2019-05"},{"category":"anti-social-behaviour","location_type":"Force","location":{"latitude":"51.476982","street":{"id":946775,"name":"On or near Maitland Close"},"longitude":"-0.014412"},"context":"","outcome_status":null,"persistent_id":"","id":74280056,"location_subtype":"","month":"2019-05"},{"category":"anti-social-behaviour","location_type":"Force","location":{"latitude":"51.476982","street":{"id":946775,"name":"On or near Maitland Close"},"longitude":"-0.014412"},"context":"","outcome_status":null,"persistent_id":"","id":74280057,"location_subtype":"","month":"2019-05"},{"category":"anti-social-behaviour","location_type":"Force","location":{"latitude":"51.479118","street":{"id":948775,"name":"On or near Old Pearson Street"},"longitude":"-0.014118"},"context":"","outcome_status":null,"persistent_id":"","id":74280059,"location_subtype":"","month":"2019-05"},{"category":"anti-social-behaviour","location_type":"Force","location":{"latitude":"51.473221","street":{"id":946771,"name":"On or near Plumbridge Street"},"longitude":"-0.014273"},"context":"","outcome_status":null,"persistent_id":"","id":74280060,"location_subtype":"","month":"2019-05"},{"category":"anti-social-behaviour","location_type":"Force","location":{"latitude":"51.473221","street":{"id":946771,"name":"On or near Plumbridge Street"},"longitude":"-0.014273"},"context":"","outcome_status":null,"persistent_id":"","id":74280061,"location_subtype":"","month":"2019-05"},{"category":"anti-social-behaviour","location_type":"Force","location":{"latitude":"51.471855","street":{"id":946767,"name":"On or near Sparta Street"},"longitude":"-0.014865"},"context":"","outcome_status":null,"persistent_id":"","id":74280062,"location_subtype":"","month":"2019-05"},{"category":"anti-social-behaviour","location_type":"Force","location":{"latitude":"51.473155","street":{"id":946798,"name":"On or near Blackheath Road"},"longitude":"-0.016739"},"context":"","outcome_status":null,"persistent_id":"","id":74280063,"location_subtype":"","month":"2019-05"},{"category":"anti-social-behaviour","location_type":"Force","location":{"latitude":"51.479194","street":{"id":948774,"name":"On or near Tarves Way"},"longitude":"-0.015454"},"context":"","outcome_status":null,"persistent_id":"","id":74280064,"location_subtype":"","month":"2019-05"},{"category":"anti-social-behaviour","location_type":"Force","location":{"latitude":"51.475013","street":{"id":946787,"name":"On or near Devonshire Drive"},"longitude":"-0.016514"},"context":"","outcome_status":null,"persistent_id":"","id":74280065,"location_subtype":"","month":"2019-05"},{"category":"anti-social-behaviour","location_type":"Force","location":{"latitude":"51.479376","street":{"id":948776,"name":"On or near Norman Road"},"longitude":"-0.017146"},"context":"","outcome_status":null,"persistent_id":"","id":74280066,"location_subtype":"","month":"2019-05"},{"category":"anti-social-behaviour","location_type":"Force","location":{"latitude":"51.479376","street":{"id":948776,"name":"On or near Norman Road"},"longitude":"-0.017146"},"context":"","outcome_status":null,"persistent_id":"","id":74280067,"location_subtype":"","month":"2019-05"},{"category":"anti-social-behaviour","location_type":"Force","location":{"latitude":"51.481677","street":{"id":948694,"name":"On or near Greenwich Quay"},"longitude":"-0.017593"},"context":"","outcome_status":null,"persistent_id":"","id":74280068,"location_subtype":"","month":"2019-05"},{"category":"anti-social-behaviour","location_type":"Force","location":{"latitude":"51.471249","street":{"id":946801,"name":"On or near Beck Close"},"longitude":"-0.018333"},"context":"","outcome_status":null,"persistent_id":"","id":74280069,"location_subtype":"","month":"2019-05"},{"category":"anti-social-behaviour","location_type":"Force","location":{"latitude":"51.480880","street":{"id":948698,"name":"On or near Copperas Street"},"longitude":"-0.017844"},"context":"","outcome_status":null,"persistent_id":"","id":74280070,"location_subtype":"","month":"2019-05"},{"category":"anti-social-behaviour","location_type":"Force","location":{"latitude":"51.480615","street":{"id":948674,"name":"On or near Copperas Street"},"longitude":"-0.019180"},"context":"","outcome_status":null,"persistent_id":"","id":74280071,"location_subtype":"","month":"2019-05"},{"category":"anti-social-behaviour","location_type":"Force","location":{"latitude":"51.480615","street":{"id":948674,"name":"On or near Copperas Street"},"longitude":"-0.019180"},"context":"","outcome_status":null,"persistent_id":"","id":74280072,"location_subtype":"","month":"2019-05"},{"category":"anti-social-behaviour","location_type":"Force","location":{"latitude":"51.474108","street":{"id":946789,"name":"On or near Dean's Gateway"},"longitude":"-0.021536"},"context":"","outcome_status":null,"persistent_id":"","id":74280073,"location_subtype":"","month":"2019-05"},{"category":"anti-social-behaviour","location_type":"Force","location":{"latitude":"51.474108","street":{"id":946789,"name":"On or near Dean's Gateway"},"longitude":"-0.021536"},"context":"","outcome_status":null,"persistent_id":"","id":74280074,"location_subtype":"","month":"2019-05"},{"category":"anti-social-behaviour","location_type":"Force","location":{"latitude":"51.474108","street":{"id":946789,"name":"On or near Dean's Gateway"},"longitude":"-0.021536"},"context":"","outcome_status":null,"persistent_id":"","id":74280075,"location_subtype":"","month":"2019-05"},{"category":"anti-social-behaviour","location_type":"Force","location":{"latitude":"51.480525","street":{"id":948825,"name":"On or near Bruford Court"},"longitude":"-0.021301"},"context":"","outcome_status":null,"persistent_id":"","id":74280076,"location_subtype":"","month":"2019-05"},{"category":"anti-social-behaviour","location_type":"Force","location":{"latitude":"51.474252","street":{"id":946788,"name":"On or near Dean's Gateway"},"longitude":"-0.021515"},"context":"","outcome_status":null,"persistent_id":"","id":74280078,"location_subtype":"","month":"2019-05"},{"category":"anti-social-behaviour","location_type":"Force","location":{"latitude":"51.481445","street":{"id":948840,"name":"On or near Mcmillan Street"},"longitude":"-0.024099"},"context":"","outcome_status":null,"persistent_id":"","id":74280079,"location_subtype":"","month":"2019-05"},{"category":"anti-social-behaviour","location_type":"Force","location":{"latitude":"51.483307","street":{"id":948867,"name":"On or near Benbow Street"},"longitude":"-0.023600"},"context":"","outcome_status":null,"persistent_id":"","id":74280080,"location_subtype":"","month":"2019-05"},{"category":"anti-social-behaviour","location_type":"Force","location":{"latitude":"51.484104","street":{"id":948830,"name":"On or near Trevithick Street"},"longitude":"-0.025006"},"context":"","outcome_status":null,"persistent_id":"","id":74280081,"location_subtype":"","month":"2019-05"},{"category":"anti-social-behaviour","location_type":"Force","location":{"latitude":"51.484104","street":{"id":948830,"name":"On or near Trevithick Street"},"longitude":"-0.025006"},"context":"","outcome_status":null,"persistent_id":"","id":74280082,"location_subtype":"","month":"2019-05"},{"category":"anti-social-behaviour","location_type":"Force","location":{"latitude":"51.473495","street":{"id":946904,"name":"On or near Charlton Way"},"longitude":"0.005063"},"context":"","outcome_status":null,"persistent_id":"","id":74279527,"location_subtype":"","month":"2019-05"},{"category":"anti-social-behaviour","location_type":"Force","location":{"latitude":"51.482538","street":{"id":948557,"name":"On or near Tom Smith Close"},"longitude":"0.002608"},"context":"","outcome_status":null,"persistent_id":"","id":74279530,"location_subtype":"","month":"2019-05"},{"category":"anti-social-behaviour","location_type":"Force","location":{"latitude":"51.482538","street":{"id":948557,"name":"On or near Tom Smith Close"},"longitude":"0.002608"},"context":"","outcome_status":null,"persistent_id":"","id":74279531,"location_subtype":"","month":"2019-05"},{"category":"anti-social-behaviour","location_type":"Force","location":{"latitude":"51.482538","street":{"id":948557,"name":"On or near Tom Smith Close"},"longitude":"0.002608"},"context":"","outcome_status":null,"persistent_id":"","id":74279532,"location_subtype":"","month":"2019-05"},{"category":"anti-social-behaviour","location_type":"Force","location":{"latitude":"51.482538","street":{"id":948557,"name":"On or near Tom Smith Close"},"longitude":"0.002608"},"context":"","outcome_status":null,"persistent_id":"","id":74279533,"location_subtype":"","month":"2019-05"},{"category":"anti-social-behaviour","location_type":"Force","location":{"latitude":"51.485323","street":{"id":948566,"name":"On or near Lassell Street"},"longitude":"0.000685"},"context":"","outcome_status":null,"persistent_id":"","id":74279535,"location_subtype":"","month":"2019-05"},{"category":"anti-social-behaviour","location_type":"Force","location":{"latitude":"51.484468","street":{"id":948561,"name":"On or near Old Woolwich Road"},"longitude":"0.000186"},"context":"","outcome_status":null,"persistent_id":"","id":74279536,"location_subtype":"","month":"2019-05"},{"category":"anti-social-behaviour","location_type":"Force","location":{"latitude":"51.484075","street":{"id":948555,"name":"On or near Trenchard Street"},"longitude":"0.000040"},"context":"","outcome_status":null,"persistent_id":"","id":74279537,"location_subtype":"","month":"2019-05"},{"category":"anti-social-behaviour","location_type":"Force","location":{"latitude":"51.483970","street":{"id":948739,"name":"On or near Eastney Street"},"longitude":"-0.002802"},"context":"","outcome_status":null,"persistent_id":"","id":74279539,"location_subtype":"","month":"2019-05"},{"category":"anti-social-behaviour","location_type":"Force","location":{"latitude":"51.483970","street":{"id":948739,"name":"On or near Eastney Street"},"longitude":"-0.002802"},"context":"","outcome_status":null,"persistent_id":"","id":74279540,"location_subtype":"","month":"2019-05"},{"category":"anti-social-behaviour","location_type":"Force","location":{"latitude":"51.483970","street":{"id":948739,"name":"On or near Eastney Street"},"longitude":"-0.002802"},"context":"","outcome_status":null,"persistent_id":"","id":74279541,"location_subtype":"","month":"2019-05"},{"category":"anti-social-behaviour","location_type":"Force","location":{"latitude":"51.484493","street":{"id":948746,"name":"On or near Further\/higher Educational Building"},"longitude":"-0.003917"},"context":"","outcome_status":null,"persistent_id":"","id":74279542,"location_subtype":"","month":"2019-05"},{"category":"anti-social-behaviour","location_type":"Force","location":{"latitude":"51.479783","street":{"id":948749,"name":"On or near Stockwell Street"},"longitude":"-0.008818"},"context":"","outcome_status":null,"persistent_id":"","id":74279543,"location_subtype":"","month":"2019-05"},{"category":"anti-social-behaviour","location_type":"Force","location":{"latitude":"51.481961","street":{"id":948715,"name":"On or near College Approach"},"longitude":"-0.009443"},"context":"","outcome_status":null,"persistent_id":"","id":74279544,"location_subtype":"","month":"2019-05"},{"category":"anti-social-behaviour","location_type":"Force","location":{"latitude":"51.480935","street":{"id":948730,"name":"On or near Nelson Road"},"longitude":"-0.008840"},"context":"","outcome_status":null,"persistent_id":"","id":74279545,"location_subtype":"","month":"2019-05"},{"category":"anti-social-behaviour","location_type":"Force","location":{"latitude":"51.483609","street":{"id":948718,"name":"On or near Ferry Terminal"},"longitude":"-0.009573"},"context":"","outcome_status":null,"persistent_id":"","id":74279546,"location_subtype":"","month":"2019-05"},{"category":"anti-social-behaviour","location_type":"Force","location":{"latitude":"51.482044","street":{"id":948712,"name":"On or near Greenwich Church Street"},"longitude":"-0.010073"},"context":"","outcome_status":null,"persistent_id":"","id":74279548,"location_subtype":"","month":"2019-05"},{"category":"anti-social-behaviour","location_type":"Force","location":{"latitude":"51.482044","street":{"id":948712,"name":"On or near Greenwich Church Street"},"longitude":"-0.010073"},"context":"","outcome_status":null,"persistent_id":"","id":74279549,"location_subtype":"","month":"2019-05"},{"category":"anti-social-behaviour","location_type":"Force","location":{"latitude":"51.481243","street":{"id":948720,"name":"On or near Theatre\/concert Hall"},"longitude":"-0.011664"},"context":"","outcome_status":null,"persistent_id":"","id":74279550,"location_subtype":"","month":"2019-05"},{"category":"anti-social-behaviour","location_type":"Force","location":{"latitude":"51.481817","street":{"id":948706,"name":"On or near Welland Street"},"longitude":"-0.011538"},"context":"","outcome_status":null,"persistent_id":"","id":74279551,"location_subtype":"","month":"2019-05"},{"category":"anti-social-behaviour","location_type":"Force","location":{"latitude":"51.481817","street":{"id":948706,"name":"On or near Welland Street"},"longitude":"-0.011538"},"context":"","outcome_status":null,"persistent_id":"","id":74279552,"location_subtype":"","month":"2019-05"},{"category":"anti-social-behaviour","location_type":"Force","location":{"latitude":"51.481817","street":{"id":948706,"name":"On or near Welland Street"},"longitude":"-0.011538"},"context":"","outcome_status":null,"persistent_id":"","id":74279553,"location_subtype":"","month":"2019-05"},{"category":"anti-social-behaviour","location_type":"Force","location":{"latitude":"51.478928","street":{"id":948766,"name":"On or near Supermarket"},"longitude":"-0.011404"},"context":"","outcome_status":null,"persistent_id":"","id":74279554,"location_subtype":"","month":"2019-05"},{"category":"anti-social-behaviour","location_type":"Force","location":{"latitude":"51.481759","street":{"id":948716,"name":"On or near Clavell Street"},"longitude":"-0.011829"},"context":"","outcome_status":null,"persistent_id":"","id":74279555,"location_subtype":"","month":"2019-05"},{"category":"anti-social-behaviour","location_type":"Force","location":{"latitude":"51.481759","street":{"id":948716,"name":"On or near Clavell Street"},"longitude":"-0.011829"},"context":"","outcome_status":null,"persistent_id":"","id":74279556,"location_subtype":"","month":"2019-05"},{"category":"anti-social-behaviour","location_type":"Force","location":{"latitude":"51.481759","street":{"id":948716,"name":"On or near Clavell Street"},"longitude":"-0.011829"},"context":"","outcome_status":null,"persistent_id":"","id":74279557,"location_subtype":"","month":"2019-05"},{"category":"anti-social-behaviour","location_type":"Force","location":{"latitude":"51.486684","street":{"id":948714,"name":"On or near Ferry Street"},"longitude":"-0.011658"},"context":"","outcome_status":null,"persistent_id":"","id":74286933,"location_subtype":"","month":"2019-05"},{"category":"anti-social-behaviour","location_type":"Force","location":{"latitude":"51.489976","street":{"id":948701,"name":"On or near Cahir Street"},"longitude":"-0.019682"},"context":"","outcome_status":null,"persistent_id":"","id":74287042,"location_subtype":"","month":"2019-05"},{"category":"anti-social-behaviour","location_type":"Force","location":{"latitude":"51.478529","street":{"id":948882,"name":"On or near Resolution Way"},"longitude":"-0.024527"},"context":"","outcome_status":null,"persistent_id":"","id":74276677,"location_subtype":"","month":"2019-05"},{"category":"anti-social-behaviour","location_type":"Force","location":{"latitude":"51.483609","street":{"id":948718,"name":"On or near Ferry Terminal"},"longitude":"-0.009573"},"context":"","outcome_status":null,"persistent_id":"","id":74279547,"location_subtype":"","month":"2019-05"},{"category":"anti-social-behaviour","location_type":"Force","location":{"latitude":"51.468875","street":{"id":946719,"name":"On or near The Orchard"},"longitude":"-0.002497"},"context":"","outcome_status":null,"persistent_id":"","id":74275442,"location_subtype":"","month":"2019-05"},{"category":"anti-social-behaviour","location_type":"Force","location":{"latitude":"51.478529","street":{"id":948882,"name":"On or near Resolution Way"},"longitude":"-0.024527"},"context":"","outcome_status":null,"persistent_id":"","id":74276680,"location_subtype":"","month":"2019-05"},{"category":"anti-social-behaviour","location_type":"Force","location":{"latitude":"51.478529","street":{"id":948882,"name":"On or near Resolution Way"},"longitude":"-0.024527"},"context":"","outcome_status":null,"persistent_id":"","id":74276681,"location_subtype":"","month":"2019-05"},{"category":"anti-social-behaviour","location_type":"Force","location":{"latitude":"51.473737","street":{"id":946623,"name":"On or near Deal's Gateway"},"longitude":"-0.021912"},"context":"","outcome_status":null,"persistent_id":"","id":74276665,"location_subtype":"","month":"2019-05"},{"category":"anti-social-behaviour","location_type":"Force","location":{"latitude":"51.479247","street":{"id":948903,"name":"On or near Bronze Street"},"longitude":"-0.021745"},"context":"","outcome_status":null,"persistent_id":"","id":74276658,"location_subtype":"","month":"2019-05"},{"category":"anti-social-behaviour","location_type":"Force","location":{"latitude":"51.479247","street":{"id":948903,"name":"On or near Bronze Street"},"longitude":"-0.021745"},"context":"","outcome_status":null,"persistent_id":"","id":74276657,"location_subtype":"","month":"2019-05"},{"category":"anti-social-behaviour","location_type":"Force","location":{"latitude":"51.479247","street":{"id":948903,"name":"On or near Bronze Street"},"longitude":"-0.021745"},"context":"","outcome_status":null,"persistent_id":"","id":74276656,"location_subtype":"","month":"2019-05"},{"category":"anti-social-behaviour","location_type":"Force","location":{"latitude":"51.478529","street":{"id":948882,"name":"On or near Resolution Way"},"longitude":"-0.024527"},"context":"","outcome_status":null,"persistent_id":"","id":74276682,"location_subtype":"","month":"2019-05"},{"category":"anti-social-behaviour","location_type":"Force","location":{"latitude":"51.478120","street":{"id":948778,"name":"On or near Creekside"},"longitude":"-0.021031"},"context":"","outcome_status":null,"persistent_id":"","id":74276652,"location_subtype":"","month":"2019-05"},{"category":"anti-social-behaviour","location_type":"Force","location":{"latitude":"51.478529","street":{"id":948882,"name":"On or near Resolution Way"},"longitude":"-0.024527"},"context":"","outcome_status":null,"persistent_id":"","id":74276683,"location_subtype":"","month":"2019-05"},{"category":"anti-social-behaviour","location_type":"Force","location":{"latitude":"51.478120","street":{"id":948778,"name":"On or near Creekside"},"longitude":"-0.021031"},"context":"","outcome_status":null,"persistent_id":"","id":74276651,"location_subtype":"","month":"2019-05"},{"category":"anti-social-behaviour","location_type":"Force","location":{"latitude":"51.478529","street":{"id":948882,"name":"On or near Resolution Way"},"longitude":"-0.024527"},"context":"","outcome_status":null,"persistent_id":"","id":74276684,"location_subtype":"","month":"2019-05"},{"category":"anti-social-behaviour","location_type":"Force","location":{"latitude":"51.471615","street":{"id":946800,"name":"On or near Beck Close"},"longitude":"-0.019772"},"context":"","outcome_status":null,"persistent_id":"","id":74276649,"location_subtype":"","month":"2019-05"},{"category":"anti-social-behaviour","location_type":"Force","location":{"latitude":"51.478529","street":{"id":948882,"name":"On or near Resolution Way"},"longitude":"-0.024527"},"context":"","outcome_status":null,"persistent_id":"","id":74276685,"location_subtype":"","month":"2019-05"},{"category":"anti-social-behaviour","location_type":"Force","location":{"latitude":"51.478529","street":{"id":948882,"name":"On or near Resolution Way"},"longitude":"-0.024527"},"context":"","outcome_status":null,"persistent_id":"","id":74276686,"location_subtype":"","month":"2019-05"},{"category":"anti-social-behaviour","location_type":"Force","location":{"latitude":"51.474608","street":{"id":946620,"name":"On or near Deptford Bridge"},"longitude":"-0.023429"},"context":"","outcome_status":null,"persistent_id":"","id":74276687,"location_subtype":"","month":"2019-05"},{"category":"anti-social-behaviour","location_type":"Force","location":{"latitude":"51.466845","street":{"id":946810,"name":"On or near Sunninghill Road"},"longitude":"-0.020093"},"context":"","outcome_status":null,"persistent_id":"","id":74276645,"location_subtype":"","month":"2019-05"},{"category":"anti-social-behaviour","location_type":"Force","location":{"latitude":"51.465550","street":{"id":946815,"name":"On or near Halesworth Road"},"longitude":"-0.020077"},"context":"","outcome_status":null,"persistent_id":"","id":74276643,"location_subtype":"","month":"2019-05"},{"category":"anti-social-behaviour","location_type":"Force","location":{"latitude":"51.465550","street":{"id":946815,"name":"On or near Halesworth Road"},"longitude":"-0.020077"},"context":"","outcome_status":null,"persistent_id":"","id":74276642,"location_subtype":"","month":"2019-05"},{"category":"anti-social-behaviour","location_type":"Force","location":{"latitude":"51.466440","street":{"id":946816,"name":"On or near Elswick Road"},"longitude":"-0.019549"},"context":"","outcome_status":null,"persistent_id":"","id":74276635,"location_subtype":"","month":"2019-05"},{"category":"anti-social-behaviour","location_type":"Force","location":{"latitude":"51.474608","street":{"id":946620,"name":"On or near Deptford Bridge"},"longitude":"-0.023429"},"context":"","outcome_status":null,"persistent_id":"","id":74276688,"location_subtype":"","month":"2019-05"},{"category":"anti-social-behaviour","location_type":"Force","location":{"latitude":"51.466440","street":{"id":946816,"name":"On or near Elswick Road"},"longitude":"-0.019549"},"context":"","outcome_status":null,"persistent_id":"","id":74276634,"location_subtype":"","month":"2019-05"},{"category":"anti-social-behaviour","location_type":"Force","location":{"latitude":"51.466232","street":{"id":946809,"name":"On or near Thurston Road"},"longitude":"-0.016808"},"context":"","outcome_status":null,"persistent_id":"","id":74276615,"location_subtype":"","month":"2019-05"},{"category":"anti-social-behaviour","location_type":"Force","location":{"latitude":"51.466232","street":{"id":946809,"name":"On or near Thurston Road"},"longitude":"-0.016808"},"context":"","outcome_status":null,"persistent_id":"","id":74276613,"location_subtype":"","month":"2019-05"},{"category":"anti-social-behaviour","location_type":"Force","location":{"latitude":"51.469462","street":{"id":946580,"name":"On or near St John's Vale"},"longitude":"-0.023292"},"context":"","outcome_status":null,"persistent_id":"","id":74276689,"location_subtype":"","month":"2019-05"},{"category":"anti-social-behaviour","location_type":"Force","location":{"latitude":"51.467616","street":{"id":946574,"name":"On or near Tyrwhitt Road"},"longitude":"-0.023155"},"context":"","outcome_status":null,"persistent_id":"","id":74276693,"location_subtype":"","month":"2019-05"},{"category":"anti-social-behaviour","location_type":"Force","location":{"latitude":"51.473737","street":{"id":946623,"name":"On or near Deal's Gateway"},"longitude":"-0.021912"},"context":"","outcome_status":null,"persistent_id":"","id":74276694,"location_subtype":"","month":"2019-05"},{"category":"anti-social-behaviour","location_type":"Force","location":{"latitude":"51.466232","street":{"id":946809,"name":"On or near Thurston Road"},"longitude":"-0.016808"},"context":"","outcome_status":null,"persistent_id":"","id":74275554,"location_subtype":"","month":"2019-05"},{"category":"anti-social-behaviour","location_type":"Force","location":{"latitude":"51.466232","street":{"id":946809,"name":"On or near Thurston Road"},"longitude":"-0.016808"},"context":"","outcome_status":null,"persistent_id":"","id":74275553,"location_subtype":"","month":"2019-05"},{"category":"anti-social-behaviour","location_type":"Force","location":{"latitude":"51.465444","street":{"id":946814,"name":"On or near Horton Street"},"longitude":"-0.016468"},"context":"","outcome_status":null,"persistent_id":"","id":74275547,"location_subtype":"","month":"2019-05"},{"category":"anti-social-behaviour","location_type":"Force","location":{"latitude":"51.472547","street":{"id":946556,"name":"On or near Pedestrian Subway"},"longitude":"-0.021733"},"context":"","outcome_status":null,"persistent_id":"","id":74276697,"location_subtype":"","month":"2019-05"},{"category":"anti-social-behaviour","location_type":"Force","location":{"latitude":"51.476003","street":{"id":946592,"name":"On or near New Butt Lane"},"longitude":"-0.024564"},"context":"","outcome_status":null,"persistent_id":"","id":74276703,"location_subtype":"","month":"2019-05"},{"category":"anti-social-behaviour","location_type":"Force","location":{"latitude":"51.476003","street":{"id":946592,"name":"On or near New Butt Lane"},"longitude":"-0.024564"},"context":"","outcome_status":null,"persistent_id":"","id":74276704,"location_subtype":"","month":"2019-05"},{"category":"anti-social-behaviour","location_type":"Force","location":{"latitude":"51.468015","street":{"id":946761,"name":"On or near Conington Road"},"longitude":"-0.013794"},"context":"","outcome_status":null,"persistent_id":"","id":74275533,"location_subtype":"","month":"2019-05"},{"category":"anti-social-behaviour","location_type":"Force","location":{"latitude":"51.471466","street":{"id":946745,"name":"On or near Sparta Street"},"longitude":"-0.013630"},"context":"","outcome_status":null,"persistent_id":"","id":74275531,"location_subtype":"","month":"2019-05"},{"category":"anti-social-behaviour","location_type":"Force","location":{"latitude":"51.465105","street":{"id":946841,"name":"On or near Station Road"},"longitude":"-0.012409"},"context":"","outcome_status":null,"persistent_id":"","id":74275525,"location_subtype":"","month":"2019-05"},{"category":"anti-social-behaviour","location_type":"Force","location":{"latitude":"51.465105","street":{"id":946841,"name":"On or near Station Road"},"longitude":"-0.012409"},"context":"","outcome_status":null,"persistent_id":"","id":74275524,"location_subtype":"","month":"2019-05"},{"category":"anti-social-behaviour","location_type":"Force","location":{"latitude":"51.465105","street":{"id":946841,"name":"On or near Station Road"},"longitude":"-0.012409"},"context":"","outcome_status":null,"persistent_id":"","id":74275523,"location_subtype":"","month":"2019-05"},{"category":"anti-social-behaviour","location_type":"Force","location":{"latitude":"51.465105","street":{"id":946841,"name":"On or near Station Road"},"longitude":"-0.012409"},"context":"","outcome_status":null,"persistent_id":"","id":74275522,"location_subtype":"","month":"2019-05"},{"category":"anti-social-behaviour","location_type":"Force","location":{"latitude":"51.465105","street":{"id":946841,"name":"On or near Station Road"},"longitude":"-0.012409"},"context":"","outcome_status":null,"persistent_id":"","id":74275521,"location_subtype":"","month":"2019-05"},{"category":"anti-social-behaviour","location_type":"Force","location":{"latitude":"51.464974","street":{"id":946844,"name":"On or near Kings Hall Mews"},"longitude":"-0.010499"},"context":"","outcome_status":null,"persistent_id":"","id":74275504,"location_subtype":"","month":"2019-05"},{"category":"anti-social-behaviour","location_type":"Force","location":{"latitude":"51.478529","street":{"id":948882,"name":"On or near Resolution Way"},"longitude":"-0.024527"},"context":"","outcome_status":null,"persistent_id":"","id":74276675,"location_subtype":"","month":"2019-05"},{"category":"anti-social-behaviour","location_type":"Force","location":{"latitude":"51.463466","street":{"id":941879,"name":"On or near Lewisham High Street"},"longitude":"-0.010680"},"context":"","outcome_status":null,"persistent_id":"","id":74275498,"location_subtype":"","month":"2019-05"},{"category":"anti-social-behaviour","location_type":"Force","location":{"latitude":"51.476270","street":{"id":946585,"name":"On or near Reginald Road"},"longitude":"-0.024409"},"context":"","outcome_status":null,"persistent_id":"","id":74276705,"location_subtype":"","month":"2019-05"},{"category":"anti-social-behaviour","location_type":"Force","location":{"latitude":"51.463466","street":{"id":941879,"name":"On or near Lewisham High Street"},"longitude":"-0.010680"},"context":"","outcome_status":null,"persistent_id":"","id":74275497,"location_subtype":"","month":"2019-05"},{"category":"anti-social-behaviour","location_type":"Force","location":{"latitude":"51.463466","street":{"id":941879,"name":"On or near Lewisham High Street"},"longitude":"-0.010680"},"context":"","outcome_status":null,"persistent_id":"","id":74275496,"location_subtype":"","month":"2019-05"},{"category":"anti-social-behaviour","location_type":"Force","location":{"latitude":"51.463466","street":{"id":941879,"name":"On or near Lewisham High Street"},"longitude":"-0.010680"},"context":"","outcome_status":null,"persistent_id":"","id":74275495,"location_subtype":"","month":"2019-05"},{"category":"anti-social-behaviour","location_type":"Force","location":{"latitude":"51.463466","street":{"id":941879,"name":"On or near Lewisham High Street"},"longitude":"-0.010680"},"context":"","outcome_status":null,"persistent_id":"","id":74275493,"location_subtype":"","month":"2019-05"},{"category":"anti-social-behaviour","location_type":"Force","location":{"latitude":"51.463466","street":{"id":941879,"name":"On or near Lewisham High Street"},"longitude":"-0.010680"},"context":"","outcome_status":null,"persistent_id":"","id":74275492,"location_subtype":"","month":"2019-05"},{"category":"anti-social-behaviour","location_type":"Force","location":{"latitude":"51.463466","street":{"id":941879,"name":"On or near Lewisham High Street"},"longitude":"-0.010680"},"context":"","outcome_status":null,"persistent_id":"","id":74275494,"location_subtype":"","month":"2019-05"},{"category":"anti-social-behaviour","location_type":"Force","location":{"latitude":"51.469652","street":{"id":946714,"name":"On or near Windmill Close"},"longitude":"-0.009547"},"context":"","outcome_status":null,"persistent_id":"","id":74275488,"location_subtype":"","month":"2019-05"},{"category":"anti-social-behaviour","location_type":"Force","location":{"latitude":"51.466322","street":{"id":946824,"name":"On or near Walerand Road"},"longitude":"-0.008857"},"context":"","outcome_status":null,"persistent_id":"","id":74275486,"location_subtype":"","month":"2019-05"},{"category":"anti-social-behaviour","location_type":"Force","location":{"latitude":"51.476270","street":{"id":946585,"name":"On or near Reginald Road"},"longitude":"-0.024409"},"context":"","outcome_status":null,"persistent_id":"","id":74276706,"location_subtype":"","month":"2019-05"},{"category":"anti-social-behaviour","location_type":"Force","location":{"latitude":"51.463466","street":{"id":941879,"name":"On or near Lewisham High Street"},"longitude":"-0.010680"},"context":"","outcome_status":null,"persistent_id":"","id":74275499,"location_subtype":"","month":"2019-05"},{"category":"anti-social-behaviour","location_type":"Force","location":{"latitude":"51.466722","street":{"id":946701,"name":"On or near Tremaine Close"},"longitude":"-0.025627"},"context":"","outcome_status":null,"persistent_id":"","id":74276707,"location_subtype":"","month":"2019-05"},{"category":"anti-social-behaviour","location_type":"Force","location":{"latitude":"51.475788","street":{"id":946584,"name":"On or near Reginald Square"},"longitude":"-0.025135"},"context":"","outcome_status":null,"persistent_id":"","id":74276708,"location_subtype":"","month":"2019-05"},{"category":"anti-social-behaviour","location_type":"Force","location":{"latitude":"51.474791","street":{"id":946618,"name":"On or near Deptford Broadway"},"longitude":"-0.025221"},"context":"","outcome_status":null,"persistent_id":"","id":74276709,"location_subtype":"","month":"2019-05"},{"category":"anti-social-behaviour","location_type":"Force","location":{"latitude":"51.478529","street":{"id":948882,"name":"On or near Resolution Way"},"longitude":"-0.024527"},"context":"","outcome_status":null,"persistent_id":"","id":74276678,"location_subtype":"","month":"2019-05"},{"category":"anti-social-behaviour","location_type":"Force","location":{"latitude":"51.465176","street":{"id":946711,"name":"On or near Avon Road"},"longitude":"-0.025622"},"context":"","outcome_status":null,"persistent_id":"","id":74276710,"location_subtype":"","month":"2019-05"},{"category":"anti-social-behaviour","location_type":"Force","location":{"latitude":"51.471419","street":{"id":946624,"name":"On or near Cranbrook Road"},"longitude":"-0.023092"},"context":"","outcome_status":null,"persistent_id":"","id":74276673,"location_subtype":"","month":"2019-05"},{"category":"anti-social-behaviour","location_type":"Force","location":{"latitude":"51.466953","street":{"id":946831,"name":"On or near Eliot Park"},"longitude":"-0.007908"},"context":"","outcome_status":null,"persistent_id":"","id":74275467,"location_subtype":"","month":"2019-05"},{"category":"anti-social-behaviour","location_type":"Force","location":{"latitude":"51.474121","street":{"id":946557,"name":"On or near Parking Area"},"longitude":"-0.026028"},"context":"","outcome_status":null,"persistent_id":"","id":74276713,"location_subtype":"","month":"2019-05"},{"category":"anti-social-behaviour","location_type":"Force","location":{"latitude":"51.470622","street":{"id":946718,"name":"On or near Wat Tyler Road"},"longitude":"-0.006812"},"context":"","outcome_status":null,"persistent_id":"","id":74275464,"location_subtype":"","month":"2019-05"},{"category":"anti-social-behaviour","location_type":"Force","location":{"latitude":"51.464235","street":{"id":946834,"name":"On or near Boyne Road"},"longitude":"-0.007235"},"context":"","outcome_status":null,"persistent_id":"","id":74275463,"location_subtype":"","month":"2019-05"},{"category":"anti-social-behaviour","location_type":"Force","location":{"latitude":"51.478092","street":{"id":948911,"name":"On or near Supermarket"},"longitude":"-0.025784"},"context":"","outcome_status":null,"persistent_id":"","id":74276715,"location_subtype":"","month":"2019-05"},{"category":"anti-social-behaviour","location_type":"Force","location":{"latitude":"51.478529","street":{"id":948882,"name":"On or near Resolution Way"},"longitude":"-0.024527"},"context":"","outcome_status":null,"persistent_id":"","id":74276679,"location_subtype":"","month":"2019-05"},{"category":"anti-social-behaviour","location_type":"Force","location":{"latitude":"51.478092","street":{"id":948911,"name":"On or near Supermarket"},"longitude":"-0.025784"},"context":"","outcome_status":null,"persistent_id":"","id":74276716,"location_subtype":"","month":"2019-05"},{"category":"anti-social-behaviour","location_type":"Force","location":{"latitude":"51.478092","street":{"id":948911,"name":"On or near Supermarket"},"longitude":"-0.025784"},"context":"","outcome_status":null,"persistent_id":"","id":74276717,"location_subtype":"","month":"2019-05"},{"category":"anti-social-behaviour","location_type":"Force","location":{"latitude":"51.479247","street":{"id":948903,"name":"On or near Bronze Street"},"longitude":"-0.021745"},"context":"","outcome_status":null,"persistent_id":"","id":74276670,"location_subtype":"","month":"2019-05"},{"category":"anti-social-behaviour","location_type":"Force","location":{"latitude":"51.478092","street":{"id":948911,"name":"On or near Supermarket"},"longitude":"-0.025784"},"context":"","outcome_status":null,"persistent_id":"","id":74276718,"location_subtype":"","month":"2019-05"},{"category":"anti-social-behaviour","location_type":"Force","location":{"latitude":"51.465553","street":{"id":946700,"name":"On or near Tressillian Road"},"longitude":"-0.026671"},"context":"","outcome_status":null,"persistent_id":"","id":74276719,"location_subtype":"","month":"2019-05"},{"category":"anti-social-behaviour","location_type":"Force","location":{"latitude":"51.478529","street":{"id":948882,"name":"On or near Resolution Way"},"longitude":"-0.024527"},"context":"","outcome_status":null,"persistent_id":"","id":74276676,"location_subtype":"","month":"2019-05"},{"category":"anti-social-behaviour","location_type":"Force","location":{"latitude":"51.488598","street":{"id":948831,"name":"On or near Torres Square"},"longitude":"-0.022738"},"context":"","outcome_status":null,"persistent_id":"","id":74287759,"location_subtype":"","month":"2019-05"},{"category":"anti-social-behaviour","location_type":"Force","location":{"latitude":"51.490420","street":{"id":954289,"name":"On or near Mast House Terrace"},"longitude":"-0.023062"},"context":"","outcome_status":null,"persistent_id":"","id":74287758,"location_subtype":"","month":"2019-05"},{"category":"anti-social-behaviour","location_type":"Force","location":{"latitude":"51.488254","street":{"id":948866,"name":"On or near Bering Square"},"longitude":"-0.022076"},"context":"","outcome_status":null,"persistent_id":"","id":74287083,"location_subtype":"","month":"2019-05"},{"category":"anti-social-behaviour","location_type":"Force","location":{"latitude":"51.488209","street":{"id":948838,"name":"On or near Napier Avenue"},"longitude":"-0.020997"},"context":"","outcome_status":null,"persistent_id":"","id":74287067,"location_subtype":"","month":"2019-05"},{"category":"anti-social-behaviour","location_type":"Force","location":{"latitude":"51.488209","street":{"id":948838,"name":"On or near Napier Avenue"},"longitude":"-0.020997"},"context":"","outcome_status":null,"persistent_id":"","id":74287065,"location_subtype":"","month":"2019-05"},{"category":"anti-social-behaviour","location_type":"Force","location":{"latitude":"51.488209","street":{"id":948838,"name":"On or near Napier Avenue"},"longitude":"-0.020997"},"context":"","outcome_status":null,"persistent_id":"","id":74287066,"location_subtype":"","month":"2019-05"},{"category":"anti-social-behaviour","location_type":"Force","location":{"latitude":"51.488209","street":{"id":948838,"name":"On or near Napier Avenue"},"longitude":"-0.020997"},"context":"","outcome_status":null,"persistent_id":"","id":74287064,"location_subtype":"","month":"2019-05"},{"category":"anti-social-behaviour","location_type":"Force","location":{"latitude":"51.488209","street":{"id":948838,"name":"On or near Napier Avenue"},"longitude":"-0.020997"},"context":"","outcome_status":null,"persistent_id":"","id":74287063,"location_subtype":"","month":"2019-05"},{"category":"anti-social-behaviour","location_type":"Force","location":{"latitude":"51.488209","street":{"id":948838,"name":"On or near Napier Avenue"},"longitude":"-0.020997"},"context":"","outcome_status":null,"persistent_id":"","id":74287062,"location_subtype":"","month":"2019-05"},{"category":"anti-social-behaviour","location_type":"Force","location":{"latitude":"51.465553","street":{"id":946700,"name":"On or near Tressillian Road"},"longitude":"-0.026671"},"context":"","outcome_status":null,"persistent_id":"","id":74276720,"location_subtype":"","month":"2019-05"},{"category":"anti-social-behaviour","location_type":"Force","location":{"latitude":"51.465553","street":{"id":946700,"name":"On or near Tressillian Road"},"longitude":"-0.026671"},"context":"","outcome_status":null,"persistent_id":"","id":74276721,"location_subtype":"","month":"2019-05"},{"category":"anti-social-behaviour","location_type":"Force","location":{"latitude":"51.488209","street":{"id":948838,"name":"On or near Napier Avenue"},"longitude":"-0.020997"},"context":"","outcome_status":null,"persistent_id":"","id":74287061,"location_subtype":"","month":"2019-05"},{"category":"anti-social-behaviour","location_type":"Force","location":{"latitude":"51.491781","street":{"id":954382,"name":"On or near Taeping Street"},"longitude":"-0.017904"},"context":"","outcome_status":null,"persistent_id":"","id":74286993,"location_subtype":"","month":"2019-05"},{"category":"anti-social-behaviour","location_type":"Force","location":{"latitude":"51.488234","street":{"id":948697,"name":"On or near East Ferry Road"},"longitude":"-0.013463"},"context":"","outcome_status":null,"persistent_id":"","id":74286957,"location_subtype":"","month":"2019-05"},{"category":"anti-social-behaviour","location_type":"Force","location":{"latitude":"51.486684","street":{"id":948714,"name":"On or near Ferry Street"},"longitude":"-0.011658"},"context":"","outcome_status":null,"persistent_id":"","id":74286932,"location_subtype":"","month":"2019-05"},{"category":"anti-social-behaviour","location_type":"Force","location":{"latitude":"51.489648","street":{"id":948725,"name":"On or near Stebondale Street"},"longitude":"-0.008820"},"context":"","outcome_status":null,"persistent_id":"","id":74286289,"location_subtype":"","month":"2019-05"},{"category":"anti-social-behaviour","location_type":"Force","location":{"latitude":"51.489186","street":{"id":948735,"name":"On or near Glengarnock Avenue"},"longitude":"-0.008063"},"context":"","outcome_status":null,"persistent_id":"","id":74286284,"location_subtype":"","month":"2019-05"},{"category":"anti-social-behaviour","location_type":"Force","location":{"latitude":"51.489704","street":{"id":948745,"name":"On or near Police Station"},"longitude":"-0.006254"},"context":"","outcome_status":null,"persistent_id":"","id":74286266,"location_subtype":"","month":"2019-05"},{"category":"anti-social-behaviour","location_type":"Force","location":{"latitude":"51.471284","street":{"id":946609,"name":"On or near Friendly Street"},"longitude":"-0.025790"},"context":"","outcome_status":null,"persistent_id":"","id":74276722,"location_subtype":"","month":"2019-05"},{"category":"anti-social-behaviour","location_type":"Force","location":{"latitude":"51.477877","street":{"id":948910,"name":"On or near Theatre\/concert Hall"},"longitude":"-0.027450"},"context":"","outcome_status":null,"persistent_id":"","id":74276723,"location_subtype":"","month":"2019-05"},{"category":"anti-social-behaviour","location_type":"Force","location":{"latitude":"51.489921","street":{"id":948741,"name":"On or near Caledonian Wharf Road"},"longitude":"-0.004228"},"context":"","outcome_status":null,"persistent_id":"","id":74286257,"location_subtype":"","month":"2019-05"},{"category":"anti-social-behaviour","location_type":"Force","location":{"latitude":"51.477877","street":{"id":948910,"name":"On or near Theatre\/concert Hall"},"longitude":"-0.027450"},"context":"","outcome_status":null,"persistent_id":"","id":74276724,"location_subtype":"","month":"2019-05"},{"category":"anti-social-behaviour","location_type":"Force","location":{"latitude":"51.474252","street":{"id":946788,"name":"On or near Dean's Gateway"},"longitude":"-0.021515"},"context":"","outcome_status":null,"persistent_id":"","id":74280077,"location_subtype":"","month":"2019-05"},{"category":"anti-social-behaviour","location_type":"Force","location":{"latitude":"51.477877","street":{"id":948910,"name":"On or near Theatre\/concert Hall"},"longitude":"-0.027450"},"context":"","outcome_status":null,"persistent_id":"","id":74276725,"location_subtype":"","month":"2019-05"},{"category":"anti-social-behaviour","location_type":"Force","location":{"latitude":"51.479491","street":{"id":948894,"name":"On or near Ffinch Street"},"longitude":"-0.026631"},"context":"","outcome_status":null,"persistent_id":"","id":74276726,"location_subtype":"","month":"2019-05"},{"category":"anti-social-behaviour","location_type":"Force","location":{"latitude":"51.478583","street":{"id":948876,"name":"On or near Parking Area"},"longitude":"-0.027203"},"context":"","outcome_status":null,"persistent_id":"","id":74276727,"location_subtype":"","month":"2019-05"},{"category":"anti-social-behaviour","location_type":"Force","location":{"latitude":"51.482443","street":{"id":948837,"name":"On or near New King Street"},"longitude":"-0.026806"},"context":"","outcome_status":null,"persistent_id":"","id":74276730,"location_subtype":"","month":"2019-05"},{"category":"anti-social-behaviour","location_type":"Force","location":{"latitude":"51.469013","street":{"id":946601,"name":"On or near Lloyd Villas"},"longitude":"-0.027616"},"context":"","outcome_status":null,"persistent_id":"","id":74276731,"location_subtype":"","month":"2019-05"},{"category":"anti-social-behaviour","location_type":"Force","location":{"latitude":"51.482443","street":{"id":948837,"name":"On or near New King Street"},"longitude":"-0.026806"},"context":"","outcome_status":null,"persistent_id":"","id":74276732,"location_subtype":"","month":"2019-05"},{"category":"anti-social-behaviour","location_type":"Force","location":{"latitude":"51.480464","street":{"id":948889,"name":"On or near Hyde Street"},"longitude":"-0.026719"},"context":"","outcome_status":null,"persistent_id":"","id":74276738,"location_subtype":"","month":"2019-05"},{"category":"anti-social-behaviour","location_type":"Force","location":{"latitude":"51.480464","street":{"id":948889,"name":"On or near Hyde Street"},"longitude":"-0.026719"},"context":"","outcome_status":null,"persistent_id":"","id":74276739,"location_subtype":"","month":"2019-05"},{"category":"anti-social-behaviour","location_type":"Force","location":{"latitude":"51.480464","street":{"id":948889,"name":"On or near Hyde Street"},"longitude":"-0.026719"},"context":"","outcome_status":null,"persistent_id":"","id":74276740,"location_subtype":"","month":"2019-05"},{"category":"anti-social-behaviour","location_type":"Force","location":{"latitude":"51.480022","street":{"id":948891,"name":"On or near Hamilton Street"},"longitude":"-0.027213"},"context":"","outcome_status":null,"persistent_id":"","id":74276742,"location_subtype":"","month":"2019-05"},{"category":"anti-social-behaviour","location_type":"Force","location":{"latitude":"51.481203","street":{"id":948849,"name":"On or near Grinling Place"},"longitude":"-0.027349"},"context":"","outcome_status":null,"persistent_id":"","id":74276744,"location_subtype":"","month":"2019-05"},{"category":"anti-social-behaviour","location_type":"Force","location":{"latitude":"51.475809","street":{"id":946634,"name":"On or near Baildon Street"},"longitude":"-0.028561"},"context":"","outcome_status":null,"persistent_id":"","id":74276747,"location_subtype":"","month":"2019-05"},{"category":"anti-social-behaviour","location_type":"Force","location":{"latitude":"51.475809","street":{"id":946634,"name":"On or near Baildon Street"},"longitude":"-0.028561"},"context":"","outcome_status":null,"persistent_id":"","id":74276748,"location_subtype":"","month":"2019-05"},{"category":"anti-social-behaviour","location_type":"Force","location":{"latitude":"51.475809","street":{"id":946634,"name":"On or near Baildon Street"},"longitude":"-0.028561"},"context":"","outcome_status":null,"persistent_id":"","id":74276750,"location_subtype":"","month":"2019-05"},{"category":"anti-social-behaviour","location_type":"Force","location":{"latitude":"51.473755","street":{"id":946611,"name":"On or near Florence Road"},"longitude":"-0.029946"},"context":"","outcome_status":null,"persistent_id":"","id":74276751,"location_subtype":"","month":"2019-05"},{"category":"anti-social-behaviour","location_type":"Force","location":{"latitude":"51.476806","street":{"id":946607,"name":"On or near Glenville Grove"},"longitude":"-0.029526"},"context":"","outcome_status":null,"persistent_id":"","id":74276752,"location_subtype":"","month":"2019-05"},{"category":"anti-social-behaviour","location_type":"Force","location":{"latitude":"51.476806","street":{"id":946607,"name":"On or near Glenville Grove"},"longitude":"-0.029526"},"context":"","outcome_status":null,"persistent_id":"","id":74276753,"location_subtype":"","month":"2019-05"},{"category":"anti-social-behaviour","location_type":"Force","location":{"latitude":"51.480105","street":{"id":948898,"name":"On or near Edward Place"},"longitude":"-0.029485"},"context":"","outcome_status":null,"persistent_id":"","id":74276754,"location_subtype":"","month":"2019-05"},{"category":"anti-social-behaviour","location_type":"Force","location":{"latitude":"51.475656","street":{"id":946591,"name":"On or near New Cross Road"},"longitude":"-0.030685"},"context":"","outcome_status":null,"persistent_id":"","id":74276755,"location_subtype":"","month":"2019-05"},{"category":"anti-social-behaviour","location_type":"Force","location":{"latitude":"51.468280","street":{"id":946596,"name":"On or near Manor Avenue"},"longitude":"-0.031103"},"context":"","outcome_status":null,"persistent_id":"","id":74276756,"location_subtype":"","month":"2019-05"},{"category":"anti-social-behaviour","location_type":"Force","location":{"latitude":"51.478215","street":{"id":948878,"name":"On or near Turnpike Close"},"longitude":"-0.031525"},"context":"","outcome_status":null,"persistent_id":"","id":74276757,"location_subtype":"","month":"2019-05"},{"category":"anti-social-behaviour","location_type":"Force","location":{"latitude":"51.474686","street":{"id":946640,"name":"On or near Alpha Road"},"longitude":"-0.030755"},"context":"","outcome_status":null,"persistent_id":"","id":74276760,"location_subtype":"","month":"2019-05"},{"category":"anti-social-behaviour","location_type":"Force","location":{"latitude":"51.483821","street":{"id":948835,"name":"On or near Sayes Court Street"},"longitude":"-0.030621"},"context":"","outcome_status":null,"persistent_id":"","id":74277382,"location_subtype":"","month":"2019-05"},{"category":"anti-social-behaviour","location_type":"Force","location":{"latitude":"51.471841","street":{"id":946641,"name":"On or near Alexandra Cottages"},"longitude":"-0.030518"},"context":"","outcome_status":null,"persistent_id":"","id":74277392,"location_subtype":"","month":"2019-05"},{"category":"anti-social-behaviour","location_type":"Force","location":{"latitude":"51.483384","street":{"id":923477,"name":"On or near Shopping Area"},"longitude":"-0.031418"},"context":"","outcome_status":null,"persistent_id":"","id":74277404,"location_subtype":"","month":"2019-05"},{"category":"anti-social-behaviour","location_type":"Force","location":{"latitude":"51.469177","street":{"id":946569,"name":"On or near Vulcan Terrace"},"longitude":"-0.033613"},"context":"","outcome_status":null,"persistent_id":"","id":74277407,"location_subtype":"","month":"2019-05"},{"category":"anti-social-behaviour","location_type":"Force","location":{"latitude":"51.475449","street":{"id":946639,"name":"On or near Amersham Road"},"longitude":"-0.032811"},"context":"","outcome_status":null,"persistent_id":"","id":74277411,"location_subtype":"","month":"2019-05"},{"category":"anti-social-behaviour","location_type":"Force","location":{"latitude":"51.469177","street":{"id":946569,"name":"On or near Vulcan Terrace"},"longitude":"-0.033613"},"context":"","outcome_status":null,"persistent_id":"","id":74277420,"location_subtype":"","month":"2019-05"},{"category":"anti-social-behaviour","location_type":"Force","location":{"latitude":"51.474165","street":{"id":946593,"name":"On or near Mulberry Mews"},"longitude":"-0.033427"},"context":"","outcome_status":null,"persistent_id":"","id":74277421,"location_subtype":"","month":"2019-05"},{"category":"anti-social-behaviour","location_type":"Force","location":{"latitude":"51.474165","street":{"id":946593,"name":"On or near Mulberry Mews"},"longitude":"-0.033427"},"context":"","outcome_status":null,"persistent_id":"","id":74277422,"location_subtype":"","month":"2019-05"},{"category":"anti-social-behaviour","location_type":"Force","location":{"latitude":"51.476830","street":{"id":946612,"name":"On or near Exeter Way"},"longitude":"-0.033673"},"context":"","outcome_status":null,"persistent_id":"","id":74277426,"location_subtype":"","month":"2019-05"},{"category":"anti-social-behaviour","location_type":"Force","location":{"latitude":"51.476830","street":{"id":946612,"name":"On or near Exeter Way"},"longitude":"-0.033673"},"context":"","outcome_status":null,"persistent_id":"","id":74277429,"location_subtype":"","month":"2019-05"},{"category":"anti-social-behaviour","location_type":"Force","location":{"latitude":"51.476830","street":{"id":946612,"name":"On or near Exeter Way"},"longitude":"-0.033673"},"context":"","outcome_status":null,"persistent_id":"","id":74277430,"location_subtype":"","month":"2019-05"},{"category":"anti-social-behaviour","location_type":"Force","location":{"latitude":"51.483242","street":{"id":948815,"name":"On or near Pilot Close"},"longitude":"-0.034736"},"context":"","outcome_status":null,"persistent_id":"","id":74277437,"location_subtype":"","month":"2019-05"},{"category":"anti-social-behaviour","location_type":"Force","location":{"latitude":"51.475392","street":{"id":946657,"name":"On or near Lewisham Way"},"longitude":"-0.035837"},"context":"","outcome_status":null,"persistent_id":"","id":74277443,"location_subtype":"","month":"2019-05"},{"category":"anti-social-behaviour","location_type":"Force","location":{"latitude":"51.475392","street":{"id":946657,"name":"On or near Lewisham Way"},"longitude":"-0.035837"},"context":"","outcome_status":null,"persistent_id":"","id":74277444,"location_subtype":"","month":"2019-05"},{"category":"anti-social-behaviour","location_type":"Force","location":{"latitude":"51.475392","street":{"id":946657,"name":"On or near Lewisham Way"},"longitude":"-0.035837"},"context":"","outcome_status":null,"persistent_id":"","id":74277445,"location_subtype":"","month":"2019-05"},{"category":"anti-social-behaviour","location_type":"Force","location":{"latitude":"51.475392","street":{"id":946657,"name":"On or near Lewisham Way"},"longitude":"-0.035837"},"context":"","outcome_status":null,"persistent_id":"","id":74277446,"location_subtype":"","month":"2019-05"},{"category":"anti-social-behaviour","location_type":"Force","location":{"latitude":"51.479082","street":{"id":948937,"name":"On or near Alexandra Street"},"longitude":"-0.036557"},"context":"","outcome_status":null,"persistent_id":"","id":74277454,"location_subtype":"","month":"2019-05"},{"category":"anti-social-behaviour","location_type":"Force","location":{"latitude":"51.480012","street":{"id":948934,"name":"On or near Bowerman Avenue"},"longitude":"-0.036762"},"context":"","outcome_status":null,"persistent_id":"","id":74277466,"location_subtype":"","month":"2019-05"},{"category":"anti-social-behaviour","location_type":"Force","location":{"latitude":"51.475938","street":{"id":946678,"name":"On or near Nightclub"},"longitude":"-0.036778"},"context":"","outcome_status":null,"persistent_id":"","id":74277469,"location_subtype":"","month":"2019-05"},{"category":"anti-social-behaviour","location_type":"Force","location":{"latitude":"51.475631","street":{"id":946669,"name":"On or near Lewisham Way"},"longitude":"-0.037224"},"context":"","outcome_status":null,"persistent_id":"","id":74277477,"location_subtype":"","month":"2019-05"},{"category":"bicycle-theft","location_type":"Force","location":{"latitude":"51.481675","street":{"id":948731,"name":"On or near King William Walk"},"longitude":"-0.008476"},"context":"","outcome_status":{"category":"Status update unavailable","date":"2019-09"},"persistent_id":"1fe69ceafbbf1dfbd822bd157503b72c714e777f7fdecc6a1f0256a532e5e65f","id":74337791,"location_subtype":"","month":"2019-05"},{"category":"bicycle-theft","location_type":"Force","location":{"latitude":"51.481677","street":{"id":948694,"name":"On or near Greenwich Quay"},"longitude":"-0.017593"},"context":"","outcome_status":{"category":"Status update unavailable","date":"2019-09"},"persistent_id":"22e7a401453e02bc9c58a4e8f47049d3e94382852ae928649e701be0bf2e0845","id":74350319,"location_subtype":"","month":"2019-05"},{"category":"bicycle-theft","location_type":"Force","location":{"latitude":"51.481961","street":{"id":948715,"name":"On or near College Approach"},"longitude":"-0.009443"},"context":"","outcome_status":{"category":"Status update unavailable","date":"2019-09"},"persistent_id":"a18b31e63e555a74438ed92b4824a991c6db180ccc0bf83e4706782272e6f162","id":74295599,"location_subtype":"","month":"2019-05"},{"category":"bicycle-theft","location_type":"Force","location":{"latitude":"51.481961","street":{"id":948715,"name":"On or near College Approach"},"longitude":"-0.009443"},"context":"","outcome_status":{"category":"Status update unavailable","date":"2019-09"},"persistent_id":"a18b31e63e555a74438ed92b4824a991c6db180ccc0bf83e4706782272e6f162","id":74295598,"location_subtype":"","month":"2019-05"},{"category":"bicycle-theft","location_type":"Force","location":{"latitude":"51.476373","street":{"id":946564,"name":"On or near Shopping Area"},"longitude":"-0.026247"},"context":"","outcome_status":{"category":"Status update unavailable","date":"2019-09"},"persistent_id":"e2ca16795ca1f8eca04a91fa09576595cd92f476faf9b8704f85e2fe4e4c0e7a","id":74366564,"location_subtype":"","month":"2019-05"},{"category":"bicycle-theft","location_type":"Force","location":{"latitude":"51.481104","street":{"id":948717,"name":"On or near Bardsley Lane"},"longitude":"-0.012462"},"context":"","outcome_status":{"category":"Status update unavailable","date":"2019-09"},"persistent_id":"20bf7dc16959e5441c0110af6596947547bedea8331773990d82a427c5ded7b9","id":74295581,"location_subtype":"","month":"2019-05"},{"category":"bicycle-theft","location_type":"Force","location":{"latitude":"51.480663","street":{"id":948744,"name":"On or near Conference\/exhibition Centre"},"longitude":"-0.007152"},"context":"","outcome_status":{"category":"Status update unavailable","date":"2019-09"},"persistent_id":"13fab36c844ba8ee08f23ace7823e8d8c29037199cffedcffa97de6756d94f1f","id":74311631,"location_subtype":"","month":"2019-05"},{"category":"bicycle-theft","location_type":"Force","location":{"latitude":"51.483179","street":{"id":948563,"name":"On or near Maze Hill"},"longitude":"0.001397"},"context":"","outcome_status":{"category":"Status update unavailable","date":"2019-09"},"persistent_id":"ac11d3344f9ff39e7c95b7fd2b99bb0968869ed83e27894bfb1b75c6d5d761fb","id":74311607,"location_subtype":"","month":"2019-05"},{"category":"bicycle-theft","location_type":"Force","location":{"latitude":"51.481150","street":{"id":948711,"name":"On or near Greenwich Church Street"},"longitude":"-0.009853"},"context":"","outcome_status":{"category":"Status update unavailable","date":"2019-09"},"persistent_id":"fc4bd609d8c9d8fd62a8243ffd0c4779987ea690c5c2f0ffc501c34d82431105","id":74341261,"location_subtype":"","month":"2019-05"},{"category":"bicycle-theft","location_type":"Force","location":{"latitude":"51.482044","street":{"id":948712,"name":"On or near Greenwich Church Street"},"longitude":"-0.010073"},"context":"","outcome_status":{"category":"Status update unavailable","date":"2019-09"},"persistent_id":"209ae5445426a299c62ecd9f78d4efddceef1339bd6a5d5dc0487f39cf06a55c","id":74333600,"location_subtype":"","month":"2019-05"},{"category":"bicycle-theft","location_type":"Force","location":{"latitude":"51.483609","street":{"id":948718,"name":"On or near Ferry Terminal"},"longitude":"-0.009573"},"context":"","outcome_status":{"category":"Status update unavailable","date":"2019-09"},"persistent_id":"16961bdca10a8737834a293a3e72bfb32f29b411d614a1e1f629105c1729e2b3","id":74302602,"location_subtype":"","month":"2019-05"},{"category":"bicycle-theft","location_type":"Force","location":{"latitude":"51.467568","street":{"id":946600,"name":"On or near Loampit Hill"},"longitude":"-0.022985"},"context":"","outcome_status":{"category":"Status update unavailable","date":"2019-09"},"persistent_id":"1db34193a89bfaf81d9357b4b38bb51489f42c4324ad88227f030b5f02566dd5","id":74300058,"location_subtype":"","month":"2019-05"},{"category":"bicycle-theft","location_type":"Force","location":{"latitude":"51.471455","street":{"id":946598,"name":"On or near Luxmore Street"},"longitude":"-0.032190"},"context":"","outcome_status":{"category":"Status update unavailable","date":"2019-09"},"persistent_id":"3597eb3d51de057b029aed40f4793fb74fd9d0b90e08679f59baa7a833be7224","id":74308644,"location_subtype":"","month":"2019-05"},{"category":"bicycle-theft","location_type":"Force","location":{"latitude":"51.482587","street":{"id":948677,"name":"On or near Wood Wharf"},"longitude":"-0.014025"},"context":"","outcome_status":{"category":"Status update unavailable","date":"2019-09"},"persistent_id":"18f9f82ea31fd4055d0e76e7495e543b64acfe500ba5b008302e4f0f22a6726c","id":74335910,"location_subtype":"","month":"2019-05"},{"category":"bicycle-theft","location_type":"Force","location":{"latitude":"51.482044","street":{"id":948712,"name":"On or near Greenwich Church Street"},"longitude":"-0.010073"},"context":"","outcome_status":{"category":"Status update unavailable","date":"2019-09"},"persistent_id":"2bc8cb284322a2c6e323fdd23f16a0abf41b5829fc220f08380a134e92e222c9","id":74343081,"location_subtype":"","month":"2019-05"},{"category":"bicycle-theft","location_type":"Force","location":{"latitude":"51.481150","street":{"id":948711,"name":"On or near Greenwich Church Street"},"longitude":"-0.009853"},"context":"","outcome_status":{"category":"Court result unavailable","date":"2019-11"},"persistent_id":"5d0cc084475a87d2ae4c18a6d294876e106de7afab586ab90fb8bf781b08fdf0","id":74353624,"location_subtype":"","month":"2019-05"},{"category":"burglary","location_type":"Force","location":{"latitude":"51.474686","street":{"id":946640,"name":"On or near Alpha Road"},"longitude":"-0.030755"},"context":"","outcome_status":{"category":"Status update unavailable","date":"2019-09"},"persistent_id":"58f585343fed8a3bfa6d81e913de82c6179197260d44e052533588a670aa3f34","id":74359513,"location_subtype":"","month":"2019-05"},{"category":"burglary","location_type":"Force","location":{"latitude":"51.471455","street":{"id":946598,"name":"On or near Luxmore Street"},"longitude":"-0.032190"},"context":"","outcome_status":{"category":"Status update unavailable","date":"2019-09"},"persistent_id":"0d5b25f7d0aee263ff3169e90c1398c8a9760fb752b8a3fc94f65a1ffb1294ab","id":74320402,"location_subtype":"","month":"2019-05"},{"category":"burglary","location_type":"Force","location":{"latitude":"51.483384","street":{"id":923477,"name":"On or near Shopping Area"},"longitude":"-0.031418"},"context":"","outcome_status":{"category":"Status update unavailable","date":"2019-09"},"persistent_id":"f26bc55140df03f1aa48eb9281212ab9518a0b60287244549e8baf7b0dfe0319","id":74296939,"location_subtype":"","month":"2019-05"},{"category":"burglary","location_type":"Force","location":{"latitude":"51.490703","street":{"id":954391,"name":"On or near Kingfield Street"},"longitude":"-0.007392"},"context":"","outcome_status":{"category":"Status update unavailable","date":"2019-09"},"persistent_id":"69a63d25eb39afbe17712ef46c7b23d49da8c17a2e094e3f5feb82ab095a0512","id":74311553,"location_subtype":"","month":"2019-05"},{"category":"burglary","location_type":"Force","location":{"latitude":"51.474079","street":{"id":946638,"name":"On or near Amersham Road"},"longitude":"-0.032092"},"context":"","outcome_status":{"category":"Status update unavailable","date":"2019-09"},"persistent_id":"30f93eef90133a5a69cd863fc622aa50226592ec0ede9eb40267087276219109","id":74310498,"location_subtype":"","month":"2019-05"},{"category":"burglary","location_type":"Force","location":{"latitude":"51.481314","street":{"id":948695,"name":"On or near Gonson Street"},"longitude":"-0.020604"},"context":"","outcome_status":{"category":"Status update unavailable","date":"2019-09"},"persistent_id":"e9c506c984e76fc875d233344821cabe6963cad69e7df7f55ecf4724cbc61296","id":74322257,"location_subtype":"","month":"2019-05"},{"category":"burglary","location_type":"Force","location":{"latitude":"51.477877","street":{"id":948910,"name":"On or near Theatre\/concert Hall"},"longitude":"-0.027450"},"context":"","outcome_status":{"category":"Status update unavailable","date":"2019-09"},"persistent_id":"6e533e5ab402e611761c70a5e2dcabfac6ac5d92575e2e12ff0e77a5e182d0a9","id":74349114,"location_subtype":"","month":"2019-05"},{"category":"burglary","location_type":"Force","location":{"latitude":"51.475656","street":{"id":946591,"name":"On or near New Cross Road"},"longitude":"-0.030685"},"context":"","outcome_status":{"category":"Status update unavailable","date":"2019-09"},"persistent_id":"59ecbcfe476cb0f88b7f9e867bc6d1f7775ff03e1534d41d70efcdf094dfab40","id":74333105,"location_subtype":"","month":"2019-05"},{"category":"burglary","location_type":"Force","location":{"latitude":"51.473737","street":{"id":946623,"name":"On or near Deal's Gateway"},"longitude":"-0.021912"},"context":"","outcome_status":{"category":"Status update unavailable","date":"2019-09"},"persistent_id":"ca80fccca468d5158792dedb2fc7bac0cbb14ca751114859e24c92eb65cb216c","id":74339206,"location_subtype":"","month":"2019-05"},{"category":"burglary","location_type":"Force","location":{"latitude":"51.481677","street":{"id":948694,"name":"On or near Greenwich Quay"},"longitude":"-0.017593"},"context":"","outcome_status":{"category":"Status update unavailable","date":"2019-09"},"persistent_id":"7e12c3fb1810705d9d6782545666ce1e2d26a920e48a4037704de991d0b256e7","id":74323586,"location_subtype":"","month":"2019-05"},{"category":"burglary","location_type":"Force","location":{"latitude":"51.474791","street":{"id":946618,"name":"On or near Deptford Broadway"},"longitude":"-0.025221"},"context":"","outcome_status":{"category":"Status update unavailable","date":"2019-09"},"persistent_id":"c84ce5b27ff842cff649421beade7ac7843922c2e4dd1dcf2a6b0f843c4c8821","id":74332811,"location_subtype":"","month":"2019-05"},{"category":"burglary","location_type":"Force","location":{"latitude":"51.469883","street":{"id":946777,"name":"On or near Lind Street"},"longitude":"-0.021589"},"context":"","outcome_status":{"category":"Investigation complete; no suspect identified","date":"2020-03"},"persistent_id":"7a27967652088366bccc1988db7e1e998fbdfe2ec35ce0e90a96bab6d9ed919d","id":74336487,"location_subtype":"","month":"2019-05"},{"category":"burglary","location_type":"Force","location":{"latitude":"51.482044","street":{"id":948712,"name":"On or near Greenwich Church Street"},"longitude":"-0.010073"},"context":"","outcome_status":{"category":"Status update unavailable","date":"2019-09"},"persistent_id":"37f0791c1057b0037e63ee89a4e1e86d6c40994aec4a3cc1efd0692cad4befc4","id":74294157,"location_subtype":"","month":"2019-05"},{"category":"burglary","location_type":"Force","location":{"latitude":"51.480548","street":{"id":948673,"name":"On or near Creekside"},"longitude":"-0.020522"},"context":"","outcome_status":{"category":"Status update unavailable","date":"2019-09"},"persistent_id":"00fbf4d03b4066d2810fbee5856ed7d85ddc59fce1fe8498a218bd850ef848c2","id":74338089,"location_subtype":"","month":"2019-05"},{"category":"burglary","location_type":"Force","location":{"latitude":"51.479675","street":{"id":948874,"name":"On or near Parking Area"},"longitude":"-0.026897"},"context":"","outcome_status":{"category":"Status update unavailable","date":"2019-09"},"persistent_id":"e066b277df808504a26381321c077be86cc751f1d05d70983c658c87dcb3ac5b","id":74338088,"location_subtype":"","month":"2019-05"},{"category":"burglary","location_type":"Force","location":{"latitude":"51.472467","street":{"id":946655,"name":"On or near St Donatt's Road"},"longitude":"-0.035689"},"context":"","outcome_status":{"category":"Status update unavailable","date":"2019-09"},"persistent_id":"c55ddd2dff854e28681b05a57db3c0829f4239fcd468314eda76f5d5571d065e","id":74300528,"location_subtype":"","month":"2019-05"},{"category":"burglary","location_type":"Force","location":{"latitude":"51.481243","street":{"id":948720,"name":"On or near Theatre\/concert Hall"},"longitude":"-0.011664"},"context":"","outcome_status":{"category":"Status update unavailable","date":"2019-09"},"persistent_id":"5be481762d352dd8068eaaa8b3199362b1f08efaa8ab3c36afc2c80b7977055e","id":74323144,"location_subtype":"","month":"2019-05"},{"category":"burglary","location_type":"Force","location":{"latitude":"51.471466","street":{"id":946745,"name":"On or near Sparta Street"},"longitude":"-0.013630"},"context":"","outcome_status":{"category":"Status update unavailable","date":"2019-09"},"persistent_id":"d477c7c2c4dba27461107d074113e73a35ffdd5c29df091fa30a9d0654966b44","id":74337686,"location_subtype":"","month":"2019-05"},{"category":"burglary","location_type":"Force","location":{"latitude":"51.482884","street":{"id":948857,"name":"On or near Deptford Green"},"longitude":"-0.023057"},"context":"","outcome_status":{"category":"Status update unavailable","date":"2019-09"},"persistent_id":"a70188ad53c6425094e56683a049c8082c88342fec1e01f50f53e6277218b67b","id":74344032,"location_subtype":"","month":"2019-05"},{"category":"burglary","location_type":"Force","location":{"latitude":"51.474809","street":{"id":946670,"name":"On or near Laurie Grove"},"longitude":"-0.037014"},"context":"","outcome_status":{"category":"Status update unavailable","date":"2019-09"},"persistent_id":"f73287de32aac25acbb77521db9bf2a07a2176ec38a94e859c043c5717e10255","id":74350530,"location_subtype":"","month":"2019-05"},{"category":"burglary","location_type":"Force","location":{"latitude":"51.478120","street":{"id":948778,"name":"On or near Creekside"},"longitude":"-0.021031"},"context":"","outcome_status":{"category":"Status update unavailable","date":"2019-09"},"persistent_id":"4f6fb3b22ea9f909047618710a5c12b8ec990928b25f689e445ce4e6376e907e","id":74296346,"location_subtype":"","month":"2019-05"},{"category":"burglary","location_type":"Force","location":{"latitude":"51.475656","street":{"id":946591,"name":"On or near New Cross Road"},"longitude":"-0.030685"},"context":"","outcome_status":{"category":"Status update unavailable","date":"2019-09"},"persistent_id":"a6eceb476d2fda098aa0e3812343963f1938a2fa7668df34204b232658599e4d","id":74350927,"location_subtype":"","month":"2019-05"},{"category":"burglary","location_type":"Force","location":{"latitude":"51.475631","street":{"id":946669,"name":"On or near Lewisham Way"},"longitude":"-0.037224"},"context":"","outcome_status":{"category":"Status update unavailable","date":"2019-09"},"persistent_id":"1f9e73de4b578d703f22d87cf96dbf9b287acd4664b4e423930334297b6db846","id":74351025,"location_subtype":"","month":"2019-05"},{"category":"burglary","location_type":"Force","location":{"latitude":"51.478092","street":{"id":948911,"name":"On or near Supermarket"},"longitude":"-0.025784"},"context":"","outcome_status":{"category":"Status update unavailable","date":"2019-09"},"persistent_id":"2f708c65ca2377a288779d424919224460bb2c1968b8cad02289e48efd156f84","id":74291064,"location_subtype":"","month":"2019-05"},{"category":"burglary","location_type":"Force","location":{"latitude":"51.473284","street":{"id":946797,"name":"On or near Blackheath Road"},"longitude":"-0.018547"},"context":"","outcome_status":{"category":"Court result unavailable","date":"2020-09"},"persistent_id":"c9935a48460867b2d002ff9a810a0d94e9c59ff6d84505d542f2c1454b42c10b","id":74339944,"location_subtype":"","month":"2019-05"},{"category":"burglary","location_type":"Force","location":{"latitude":"51.480650","street":{"id":948705,"name":"On or near Sports\/recreation Area"},"longitude":"-0.011690"},"context":"","outcome_status":{"category":"Status update unavailable","date":"2019-09"},"persistent_id":"9f0c1887e28793eeeff7f689b43c322b3bd1b1360734b4b04e49403611fb10c4","id":74351437,"location_subtype":"","month":"2019-05"},{"category":"burglary","location_type":"Force","location":{"latitude":"51.473737","street":{"id":946623,"name":"On or near Deal's Gateway"},"longitude":"-0.021912"},"context":"","outcome_status":{"category":"Status update unavailable","date":"2019-09"},"persistent_id":"253fa710db9904a12e2c9f7302bc0e1ddf2914c3eedce847863c95f3f75f14c6","id":74351510,"location_subtype":"","month":"2019-05"},{"category":"burglary","location_type":"Force","location":{"latitude":"51.480103","street":{"id":948887,"name":"On or near Mary Ann Buildings"},"longitude":"-0.025078"},"context":"","outcome_status":{"category":"Status update unavailable","date":"2019-09"},"persistent_id":"43b8e1f3c56adcacccc8ad34c2d642c1358fd41cdfff16fd13741a9ef0a7d706","id":74330172,"location_subtype":"","month":"2019-05"},{"category":"burglary","location_type":"Force","location":{"latitude":"51.477170","street":{"id":948663,"name":"On or near Maze Hill"},"longitude":"0.007831"},"context":"","outcome_status":{"category":"Status update unavailable","date":"2019-09"},"persistent_id":"fac1aab0db6cf37c531cb7ab93c53f5d2d7732bfa9a77c4c67fd31b3f9ebe8e1","id":74365147,"location_subtype":"","month":"2019-05"},{"category":"burglary","location_type":"Force","location":{"latitude":"51.477170","street":{"id":948663,"name":"On or near Maze Hill"},"longitude":"0.007831"},"context":"","outcome_status":{"category":"Status update unavailable","date":"2019-09"},"persistent_id":"fac1aab0db6cf37c531cb7ab93c53f5d2d7732bfa9a77c4c67fd31b3f9ebe8e1","id":74365149,"location_subtype":"","month":"2019-05"},{"category":"burglary","location_type":"Force","location":{"latitude":"51.478732","street":{"id":948909,"name":"On or near Adolphus Street"},"longitude":"-0.029616"},"context":"","outcome_status":{"category":"Status update unavailable","date":"2019-09"},"persistent_id":"88335d9ed99d87feb8038950f73c935a0e0c76f363dc090f9eadd1dea5854447","id":74314884,"location_subtype":"","month":"2019-05"},{"category":"burglary","location_type":"Force","location":{"latitude":"51.480103","street":{"id":948887,"name":"On or near Mary Ann Buildings"},"longitude":"-0.025078"},"context":"","outcome_status":{"category":"Status update unavailable","date":"2019-09"},"persistent_id":"e968ca284abcfdbd1cb38a7ebcd922d38ec2cd4857c341b999efa81c0fa8ff54","id":74306848,"location_subtype":"","month":"2019-05"},{"category":"burglary","location_type":"Force","location":{"latitude":"51.474686","street":{"id":946640,"name":"On or near Alpha Road"},"longitude":"-0.030755"},"context":"","outcome_status":{"category":"Status update unavailable","date":"2019-09"},"persistent_id":"1cee93642b0c0e67792360cf48ef9c551071c117b258c2d9b0b7fa209566772f","id":74371584,"location_subtype":"","month":"2019-05"},{"category":"burglary","location_type":"Force","location":{"latitude":"51.479458","street":{"id":948755,"name":"On or near Theatre\/concert Hall"},"longitude":"-0.007680"},"context":"","outcome_status":{"category":"Status update unavailable","date":"2019-09"},"persistent_id":"5d13ca4653176161a432f2786c35f09218c7f62a22df194f41a6aa06d9a5c61e","id":74320615,"location_subtype":"","month":"2019-05"},{"category":"burglary","location_type":"Force","location":{"latitude":"51.473430","street":{"id":946604,"name":"On or near Heston Street"},"longitude":"-0.028232"},"context":"","outcome_status":{"category":"Status update unavailable","date":"2019-09"},"persistent_id":"b4872ebd2e54d8c3a82e8ea60a2208dde671491e2640e7dd680193942fe75f60","id":74336774,"location_subtype":"","month":"2019-05"},{"category":"burglary","location_type":"Force","location":{"latitude":"51.474422","street":{"id":946750,"name":"On or near Point Hill"},"longitude":"-0.009800"},"context":"","outcome_status":{"category":"Status update unavailable","date":"2019-09"},"persistent_id":"f743d8d1901ac6f3946d8de7dc8d754088c0efc0fb0eec1d6083c6d6461a652f","id":74306592,"location_subtype":"","month":"2019-05"},{"category":"burglary","location_type":"Force","location":{"latitude":"51.478732","street":{"id":948909,"name":"On or near Adolphus Street"},"longitude":"-0.029616"},"context":"","outcome_status":{"category":"Status update unavailable","date":"2019-09"},"persistent_id":"9ae028bd1410664c9d3281994d8034d969ac59d943e87d0fc6156ffed5d42bbb","id":74306444,"location_subtype":"","month":"2019-05"},{"category":"burglary","location_type":"Force","location":{"latitude":"51.464035","street":{"id":946825,"name":"On or near St Stephen's Grove"},"longitude":"-0.009763"},"context":"","outcome_status":{"category":"Status update unavailable","date":"2019-09"},"persistent_id":"9678cba3707cef83733708118231722fad96b0504d80ce4104c1576a22a0a1c9","id":74306332,"location_subtype":"","month":"2019-05"},{"category":"burglary","location_type":"Force","location":{"latitude":"51.474538","street":{"id":946658,"name":"On or near Dixon Road"},"longitude":"-0.035888"},"context":"","outcome_status":{"category":"Status update unavailable","date":"2019-09"},"persistent_id":"3c061739a65f798fe4269879392b4be8e69c9cebb43a18ff4bd3a0d843f357e5","id":74305903,"location_subtype":"","month":"2019-05"},{"category":"burglary","location_type":"Force","location":{"latitude":"51.487880","street":{"id":948688,"name":"On or near Lockesfield Place"},"longitude":"-0.014328"},"context":"","outcome_status":{"category":"Status update unavailable","date":"2019-09"},"persistent_id":"8d8c5badc8e0f202505b9f5d6d3ddb4c04aaf74d9e2fba4be0cb91e81e347dfb","id":74336864,"location_subtype":"","month":"2019-05"},{"category":"burglary","location_type":"Force","location":{"latitude":"51.470272","street":{"id":946603,"name":"On or near Lewisham Way"},"longitude":"-0.029203"},"context":"","outcome_status":{"category":"Status update unavailable","date":"2019-09"},"persistent_id":"1d6c7081699772254cb9cded5fb5b828699f3ab88e979eed0250bd2d22d5ba6b","id":74297729,"location_subtype":"","month":"2019-05"},{"category":"burglary","location_type":"Force","location":{"latitude":"51.491891","street":{"id":954379,"name":"On or near Undine Road"},"longitude":"-0.015421"},"context":"","outcome_status":{"category":"Court result unavailable","date":"2019-11"},"persistent_id":"5ec6652553f67bf0681c9f0b10f55125575750df3bd10f06a532468d5536a322","id":74351591,"location_subtype":"","month":"2019-05"},{"category":"burglary","location_type":"Force","location":{"latitude":"51.467375","street":{"id":946811,"name":"On or near Somerset Gardens"},"longitude":"-0.021121"},"context":"","outcome_status":{"category":"Status update unavailable","date":"2019-09"},"persistent_id":"6331e16c0879b6d69a34eebcd9b5a265e737af497d6460a82d7008250c15017c","id":74335642,"location_subtype":"","month":"2019-05"},{"category":"burglary","location_type":"Force","location":{"latitude":"51.481150","street":{"id":948711,"name":"On or near Greenwich Church Street"},"longitude":"-0.009853"},"context":"","outcome_status":{"category":"Court result unavailable","date":"2019-11"},"persistent_id":"607bfec85b13afeaa92cbbf14ebff62bfe23698c30379ee6bfd9c8b5b1e6c1b2","id":74321227,"location_subtype":"","month":"2019-05"},{"category":"burglary","location_type":"Force","location":{"latitude":"51.465539","street":{"id":946830,"name":"On or near Granville Park"},"longitude":"-0.008315"},"context":"","outcome_status":{"category":"Status update unavailable","date":"2019-09"},"persistent_id":"090f97a7478783e8178e44042e3758e3d422090748e9b25b3b752bdbaaae944d","id":74322562,"location_subtype":"","month":"2019-05"},{"category":"burglary","location_type":"Force","location":{"latitude":"51.468221","street":{"id":946645,"name":"On or near Further\/higher Educational Building"},"longitude":"-0.025951"},"context":"","outcome_status":{"category":"Status update unavailable","date":"2019-09"},"persistent_id":"070bf79c863846fd278525dc5a2dd7f2f8efb767766c01d525e8d54b1c651b2f","id":74312807,"location_subtype":"","month":"2019-05"},{"category":"burglary","location_type":"Force","location":{"latitude":"51.479491","street":{"id":948894,"name":"On or near Ffinch Street"},"longitude":"-0.026631"},"context":"","outcome_status":{"category":"Status update unavailable","date":"2019-09"},"persistent_id":"f2dfbbd879123c8303b6a28a515aa28bdc76790c43f347d919b6718ccec57c7b","id":74312717,"location_subtype":"","month":"2019-05"},{"category":"burglary","location_type":"Force","location":{"latitude":"51.481675","street":{"id":948731,"name":"On or near King William Walk"},"longitude":"-0.008476"},"context":"","outcome_status":{"category":"Status update unavailable","date":"2019-09"},"persistent_id":"a6de79d569aeca694e0f3d45d21e20bdddf82e82811910044e8d6de715b28504","id":74307011,"location_subtype":"","month":"2019-05"},{"category":"burglary","location_type":"Force","location":{"latitude":"51.475656","street":{"id":946591,"name":"On or near New Cross Road"},"longitude":"-0.030685"},"context":"","outcome_status":{"category":"Status update unavailable","date":"2019-09"},"persistent_id":"9c23bf2617a55ae9bb97daf89a84d2081eb058400001f838116980ef4ebe8c89","id":74307515,"location_subtype":"","month":"2019-05"},{"category":"burglary","location_type":"Force","location":{"latitude":"51.483102","street":{"id":948814,"name":"On or near Rolt Street"},"longitude":"-0.036039"},"context":"","outcome_status":{"category":"Status update unavailable","date":"2019-09"},"persistent_id":"cbba1fe9b9f9b3983bd0f74c4f365be0a35248fde1c7329ac919b26666b51a42","id":74358755,"location_subtype":"","month":"2019-05"},{"category":"burglary","location_type":"Force","location":{"latitude":"51.489186","street":{"id":948735,"name":"On or near Glengarnock Avenue"},"longitude":"-0.008063"},"context":"","outcome_status":{"category":"Status update unavailable","date":"2019-09"},"persistent_id":"1340f0fd76b16fcbf9678948b2f2a4266b007458b00f9efc895377815e0f7f84","id":74296907,"location_subtype":"","month":"2019-05"},{"category":"burglary","location_type":"Force","location":{"latitude":"51.478073","street":{"id":948761,"name":"On or near Prince Of Orange Lane"},"longitude":"-0.012421"},"context":"","outcome_status":{"category":"Status update unavailable","date":"2019-09"},"persistent_id":"386b7422b926c47026c4314f157334b316399cb473521b7a6fb562ea35efc3f8","id":74347040,"location_subtype":"","month":"2019-05"},{"category":"burglary","location_type":"Force","location":{"latitude":"51.476017","street":{"id":946747,"name":"On or near Royal Hill"},"longitude":"-0.009990"},"context":"","outcome_status":{"category":"Status update unavailable","date":"2019-09"},"persistent_id":"f1c64db8840126bb3097b666f9919697109e36a696a418a167900cc70d39ad90","id":74346562,"location_subtype":"","month":"2019-05"},{"category":"burglary","location_type":"Force","location":{"latitude":"51.490442","street":{"id":954380,"name":"On or near Thermopylae Gate"},"longitude":"-0.015326"},"context":"","outcome_status":{"category":"Status update unavailable","date":"2019-09"},"persistent_id":"4b1c641194d63f6c464da0ea75869e8694372787b053c2188e5a86672d0bb544","id":74368835,"location_subtype":"","month":"2019-05"},{"category":"burglary","location_type":"Force","location":{"latitude":"51.482524","street":{"id":948872,"name":"On or near Abinger Grove"},"longitude":"-0.032132"},"context":"","outcome_status":{"category":"Status update unavailable","date":"2019-09"},"persistent_id":"c0dd14e7f3db3a52724dd8f96ff183fb9eaf80227d4a08db292686779538d358","id":74346477,"location_subtype":"","month":"2019-05"},{"category":"criminal-damage-arson","location_type":"Force","location":{"latitude":"51.475788","street":{"id":946584,"name":"On or near Reginald Square"},"longitude":"-0.025135"},"context":"","outcome_status":{"category":"Status update unavailable","date":"2019-09"},"persistent_id":"7ba5b982d8eb75f17a98375bc7ebba9849f381f60d9fc86a1d6ab7f35ca74234","id":74324587,"location_subtype":"","month":"2019-05"},{"category":"criminal-damage-arson","location_type":"Force","location":{"latitude":"51.484104","street":{"id":948830,"name":"On or near Trevithick Street"},"longitude":"-0.025006"},"context":"","outcome_status":{"category":"Court result unavailable","date":"2019-11"},"persistent_id":"6d4c12f545a120007621374ddf7e75806de42fcbe6e2f2564090476f5623be03","id":74324497,"location_subtype":"","month":"2019-05"},{"category":"criminal-damage-arson","location_type":"Force","location":{"latitude":"51.480880","street":{"id":948698,"name":"On or near Copperas Street"},"longitude":"-0.017844"},"context":"","outcome_status":{"category":"Status update unavailable","date":"2019-09"},"persistent_id":"d07b1522097790ec989f17dfac0ec87d95d692a90add81b34a3868f34fe765bb","id":74362883,"location_subtype":"","month":"2019-05"},{"category":"criminal-damage-arson","location_type":"Force","location":{"latitude":"51.479885","street":{"id":948884,"name":"On or near Payne Street"},"longitude":"-0.029739"},"context":"","outcome_status":{"category":"Status update unavailable","date":"2019-09"},"persistent_id":"da7ea287986da4d440dee9521dc9b1dca099635dae30e6fab16f99ba2b9c7aaa","id":74364366,"location_subtype":"","month":"2019-05"},{"category":"criminal-damage-arson","location_type":"Force","location":{"latitude":"51.468688","street":{"id":946753,"name":"On or near Morden Hill"},"longitude":"-0.013707"},"context":"","outcome_status":{"category":"Status update unavailable","date":"2019-09"},"persistent_id":"264817a58fe4af00f04117f99a5c190b1bd0a459faa6cebb340d7be680ab6c14","id":74367630,"location_subtype":"","month":"2019-05"},{"category":"criminal-damage-arson","location_type":"Force","location":{"latitude":"51.474108","street":{"id":946789,"name":"On or near Dean's Gateway"},"longitude":"-0.021536"},"context":"","outcome_status":{"category":"Status update unavailable","date":"2019-09"},"persistent_id":"a0d8accfedd95329ba387469cbbf383cec7c9a127ab03c6efd732246fd96d16a","id":74352262,"location_subtype":"","month":"2019-05"},{"category":"criminal-damage-arson","location_type":"Force","location":{"latitude":"51.482552","street":{"id":948818,"name":"On or near Childers Street"},"longitude":"-0.035414"},"context":"","outcome_status":{"category":"Status update unavailable","date":"2019-09"},"persistent_id":"982817cb097a595c65468448439bbfc4aa72452a68d795b61ce6eac80c6dbcd1","id":74368285,"location_subtype":"","month":"2019-05"},{"category":"criminal-damage-arson","location_type":"BTP","location":{"latitude":"51.482700","street":{"id":1487993,"name":"Maze Hill (station)"},"longitude":"0.002977"},"context":"","outcome_status":{"category":"Status update unavailable","date":"2019-09"},"persistent_id":"","id":88721174,"location_subtype":"STATION","month":"2019-05"},{"category":"criminal-damage-arson","location_type":"BTP","location":{"latitude":"51.476431","street":{"id":1490395,"name":"New Cross (station)"},"longitude":"-0.032279"},"context":"","outcome_status":{"category":"Status update unavailable","date":"2019-09"},"persistent_id":"","id":88718032,"location_subtype":"STATION","month":"2019-05"},{"category":"criminal-damage-arson","location_type":"Force","location":{"latitude":"51.470802","street":{"id":946629,"name":"On or near Clandon Street"},"longitude":"-0.022802"},"context":"","outcome_status":{"category":"Status update unavailable","date":"2019-09"},"persistent_id":"74cd3cd98b94611ad3bf13f1092b9e630db55818179dfb2b0b2e6b797b4e2736","id":74313047,"location_subtype":"","month":"2019-05"},{"category":"criminal-damage-arson","location_type":"Force","location":{"latitude":"51.464235","street":{"id":946834,"name":"On or near Boyne Road"},"longitude":"-0.007235"},"context":"","outcome_status":{"category":"Status update unavailable","date":"2019-09"},"persistent_id":"9897d953c25ba47aafc19512d17e0ed018facab23ff7238bddf54869bcbb80f3","id":74301870,"location_subtype":"","month":"2019-05"},{"category":"criminal-damage-arson","location_type":"Force","location":{"latitude":"51.486005","street":{"id":948558,"name":"On or near Thornley Place"},"longitude":"0.002357"},"context":"","outcome_status":{"category":"Status update unavailable","date":"2019-09"},"persistent_id":"c6b5ee74ac12f7367a59d1c26d4fa73a88ac822a9ca5bd58a12fc915c8940074","id":74322811,"location_subtype":"","month":"2019-05"},{"category":"criminal-damage-arson","location_type":"Force","location":{"latitude":"51.484104","street":{"id":948830,"name":"On or near Trevithick Street"},"longitude":"-0.025006"},"context":"","outcome_status":{"category":"Status update unavailable","date":"2019-09"},"persistent_id":"6f5038eeb28011e7ae5b5c5768dc7802457319725aa9513c04eb49090e6b9e74","id":74326877,"location_subtype":"","month":"2019-05"},{"category":"criminal-damage-arson","location_type":"Force","location":{"latitude":"51.480615","street":{"id":948674,"name":"On or near Copperas Street"},"longitude":"-0.019180"},"context":"","outcome_status":{"category":"Status update unavailable","date":"2019-09"},"persistent_id":"15df1ad33733686a78f9e9faf8b6b7e81d4b6a6df67ebb0a5b6aa7de5814bf86","id":74336812,"location_subtype":"","month":"2019-05"},{"category":"criminal-damage-arson","location_type":"Force","location":{"latitude":"51.489648","street":{"id":948725,"name":"On or near Stebondale Street"},"longitude":"-0.008820"},"context":"","outcome_status":{"category":"Status update unavailable","date":"2019-09"},"persistent_id":"bc5787a109734f98f8167e872173e5c0718bdb7be938a341ebddcf12fc1eea60","id":74293279,"location_subtype":"","month":"2019-05"},{"category":"criminal-damage-arson","location_type":"Force","location":{"latitude":"51.479194","street":{"id":948774,"name":"On or near Tarves Way"},"longitude":"-0.015454"},"context":"","outcome_status":{"category":"Status update unavailable","date":"2019-09"},"persistent_id":"a3973a552a8f50704770929f10ee8d876f6d44a2a4c892252db54c8b52db4c66","id":74345319,"location_subtype":"","month":"2019-05"},{"category":"criminal-damage-arson","location_type":"Force","location":{"latitude":"51.473768","street":{"id":946610,"name":"On or near Florence Terrace"},"longitude":"-0.029081"},"context":"","outcome_status":{"category":"Status update unavailable","date":"2019-09"},"persistent_id":"9fee6a673cf63f6e240c72159ce708a0e1881a5d101482e92d0e5611e8ed845e","id":74321560,"location_subtype":"","month":"2019-05"},{"category":"criminal-damage-arson","location_type":"Force","location":{"latitude":"51.482587","street":{"id":948677,"name":"On or near Wood Wharf"},"longitude":"-0.014025"},"context":"","outcome_status":{"category":"Status update unavailable","date":"2019-09"},"persistent_id":"d33e3b8107bda42374b69fe398a0623c91b9d111d859c6509f883f09dfb69644","id":74322797,"location_subtype":"","month":"2019-05"},{"category":"criminal-damage-arson","location_type":"Force","location":{"latitude":"51.471841","street":{"id":946641,"name":"On or near Alexandra Cottages"},"longitude":"-0.030518"},"context":"","outcome_status":{"category":"Status update unavailable","date":"2019-09"},"persistent_id":"e43352c47855ea97f517f43a39bea198ca9c1249a4048dcc5f0fd68cd2aa5c49","id":74311307,"location_subtype":"","month":"2019-05"},{"category":"criminal-damage-arson","location_type":"Force","location":{"latitude":"51.484104","street":{"id":948830,"name":"On or near Trevithick Street"},"longitude":"-0.025006"},"context":"","outcome_status":{"category":"Status update unavailable","date":"2019-09"},"persistent_id":"5e38d54376e7387cae8b341c6614ae0aaf2f54fa1e5db89d64da09ab325032ce","id":74311483,"location_subtype":"","month":"2019-05"},{"category":"criminal-damage-arson","location_type":"Force","location":{"latitude":"51.478435","street":{"id":948888,"name":"On or near Idonia Street"},"longitude":"-0.028535"},"context":"","outcome_status":{"category":"Court result unavailable","date":"2020-10"},"persistent_id":"1f469ef7dd8683c4aa7f30a976e72ca5e539a729715218c5834e6244d1938b99","id":74311937,"location_subtype":"","month":"2019-05"},{"category":"criminal-damage-arson","location_type":"Force","location":{"latitude":"51.482429","street":{"id":948834,"name":"On or near Staunton Street"},"longitude":"-0.030768"},"context":"","outcome_status":{"category":"Status update unavailable","date":"2019-09"},"persistent_id":"0c3eb3f1b7a447358636e3c4101ef53a4397710782fb90f8800ff3afd5a01c37","id":74311997,"location_subtype":"","month":"2019-05"},{"category":"criminal-damage-arson","location_type":"Force","location":{"latitude":"51.472570","street":{"id":946765,"name":"On or near Blackheath Hill"},"longitude":"-0.010342"},"context":"","outcome_status":{"category":"Status update unavailable","date":"2019-09"},"persistent_id":"326950923b030c1e1173452d22401296c3e15a6e0cce9abe81edacee3b36c621","id":74313442,"location_subtype":"","month":"2019-05"},{"category":"criminal-damage-arson","location_type":"Force","location":{"latitude":"51.489186","street":{"id":948735,"name":"On or near Glengarnock Avenue"},"longitude":"-0.008063"},"context":"","outcome_status":{"category":"Court result unavailable","date":"2020-08"},"persistent_id":"9bf625c0ae92d0f27bc8cb46f535f8b125b834078ac11a1d8296902451533324","id":74302656,"location_subtype":"","month":"2019-05"},{"category":"criminal-damage-arson","location_type":"Force","location":{"latitude":"51.476270","street":{"id":946585,"name":"On or near Reginald Road"},"longitude":"-0.024409"},"context":"","outcome_status":{"category":"Status update unavailable","date":"2019-09"},"persistent_id":"91a5548177f864a11edea25f0b3c6886243a6286f1aaf86df40449a4fc4f944b","id":74306300,"location_subtype":"","month":"2019-05"},{"category":"criminal-damage-arson","location_type":"Force","location":{"latitude":"51.467560","street":{"id":946723,"name":"On or near Pagoda Gardens"},"longitude":"-0.003390"},"context":"","outcome_status":{"category":"Status update unavailable","date":"2019-09"},"persistent_id":"e44d2305c8fab2fad072189f67d97972fadcf5055c756c3a77d3c791419b98fb","id":74306475,"location_subtype":"","month":"2019-05"},{"category":"criminal-damage-arson","location_type":"Force","location":{"latitude":"51.482044","street":{"id":948712,"name":"On or near Greenwich Church Street"},"longitude":"-0.010073"},"context":"","outcome_status":{"category":"Status update unavailable","date":"2019-09"},"persistent_id":"47428622c85b5ad752ec69987bcf9cc8ab29b8d82df832d97ae3f82ec1f0643a","id":74334140,"location_subtype":"","month":"2019-05"},{"category":"criminal-damage-arson","location_type":"Force","location":{"latitude":"51.478732","street":{"id":948909,"name":"On or near Adolphus Street"},"longitude":"-0.029616"},"context":"","outcome_status":{"category":"Status update unavailable","date":"2019-09"},"persistent_id":"ba23953bd210ff7e5c8684f36918a114c52f6606cb34360b802dfe9ee0e9deb3","id":74336255,"location_subtype":"","month":"2019-05"},{"category":"criminal-damage-arson","location_type":"Force","location":{"latitude":"51.474564","street":{"id":946793,"name":"On or near Catherine Grove"},"longitude":"-0.018722"},"context":"","outcome_status":{"category":"Status update unavailable","date":"2019-09"},