[{"category":"anti-social-behaviour","location_type":"Force","location":{"latitude":"51.495407","street":{"id":952833,"name":"On or near Pennant Mews"},"longitude":"-0.191056"},"context":"","outcome_status":null,"persistent_id":"","id":74278025,"location_subtype":"","month":"2019-05"},{"category":"anti-social-behaviour","location_type":"Force","location":{"latitude":"51.496783","street":{"id":952884,"name":"On or near Thomas Place"},"longitude":"-0.189950"},"context":"","outcome_status":null,"persistent_id":"","id":74278026,"location_subtype":"","month":"2019-05"},{"category":"anti-social-behaviour","location_type":"Force","location":{"latitude":"51.496783","street":{"id":952884,"name":"On or near Thomas Place"},"longitude":"-0.189950"},"context":"","outcome_status":null,"persistent_id":"","id":74278027,"location_subtype":"","month":"2019-05"},{"category":"anti-social-behaviour","location_type":"Force","location":{"latitude":"51.496783","street":{"id":952884,"name":"On or near Thomas Place"},"longitude":"-0.189950"},"context":"","outcome_status":null,"persistent_id":"","id":74278028,"location_subtype":"","month":"2019-05"},{"category":"anti-social-behaviour","location_type":"Force","location":{"latitude":"51.491173","street":{"id":949957,"name":"On or near Bramham Gardens"},"longitude":"-0.190028"},"context":"","outcome_status":null,"persistent_id":"","id":74278029,"location_subtype":"","month":"2019-05"},{"category":"anti-social-behaviour","location_type":"Force","location":{"latitude":"51.488177","street":{"id":950247,"name":"On or near Coleherne Road"},"longitude":"-0.190507"},"context":"","outcome_status":null,"persistent_id":"","id":74278030,"location_subtype":"","month":"2019-05"},{"category":"anti-social-behaviour","location_type":"Force","location":{"latitude":"51.490114","street":{"id":950243,"name":"On or near Earl's Court Road"},"longitude":"-0.190733"},"context":"","outcome_status":null,"persistent_id":"","id":74278031,"location_subtype":"","month":"2019-05"},{"category":"anti-social-behaviour","location_type":"Force","location":{"latitude":"51.500808","street":{"id":952731,"name":"On or near Kensington Square"},"longitude":"-0.190237"},"context":"","outcome_status":null,"persistent_id":"","id":74278032,"location_subtype":"","month":"2019-05"},{"category":"anti-social-behaviour","location_type":"Force","location":{"latitude":"51.500808","street":{"id":952731,"name":"On or near Kensington Square"},"longitude":"-0.190237"},"context":"","outcome_status":null,"persistent_id":"","id":74278033,"location_subtype":"","month":"2019-05"},{"category":"anti-social-behaviour","location_type":"Force","location":{"latitude":"51.487732","street":{"id":950248,"name":"On or near Coleherne Mews"},"longitude":"-0.190798"},"context":"","outcome_status":null,"persistent_id":"","id":74278034,"location_subtype":"","month":"2019-05"},{"category":"anti-social-behaviour","location_type":"Force","location":{"latitude":"51.491069","street":{"id":950242,"name":"On or near Earl's Court Road"},"longitude":"-0.191444"},"context":"","outcome_status":null,"persistent_id":"","id":74278035,"location_subtype":"","month":"2019-05"},{"category":"anti-social-behaviour","location_type":"Force","location":{"latitude":"51.491069","street":{"id":950242,"name":"On or near Earl's Court Road"},"longitude":"-0.191444"},"context":"","outcome_status":null,"persistent_id":"","id":74278036,"location_subtype":"","month":"2019-05"},{"category":"anti-social-behaviour","location_type":"Force","location":{"latitude":"51.489168","street":{"id":950227,"name":"On or near Old Brompton Road"},"longitude":"-0.191159"},"context":"","outcome_status":null,"persistent_id":"","id":74278037,"location_subtype":"","month":"2019-05"},{"category":"anti-social-behaviour","location_type":"Force","location":{"latitude":"51.495407","street":{"id":952833,"name":"On or near Pennant Mews"},"longitude":"-0.191056"},"context":"","outcome_status":null,"persistent_id":"","id":74278038,"location_subtype":"","month":"2019-05"},{"category":"anti-social-behaviour","location_type":"Force","location":{"latitude":"51.495407","street":{"id":952833,"name":"On or near Pennant Mews"},"longitude":"-0.191056"},"context":"","outcome_status":null,"persistent_id":"","id":74278039,"location_subtype":"","month":"2019-05"},{"category":"anti-social-behaviour","location_type":"Force","location":{"latitude":"51.501632","street":{"id":952733,"name":"On or near Kensington High Street"},"longitude":"-0.191790"},"context":"","outcome_status":null,"persistent_id":"","id":74278040,"location_subtype":"","month":"2019-05"},{"category":"anti-social-behaviour","location_type":"Force","location":{"latitude":"51.501632","street":{"id":952733,"name":"On or near Kensington High Street"},"longitude":"-0.191790"},"context":"","outcome_status":null,"persistent_id":"","id":74278041,"location_subtype":"","month":"2019-05"},{"category":"anti-social-behaviour","location_type":"Force","location":{"latitude":"51.492845","street":{"id":950245,"name":"On or near Earl's Court Gardens"},"longitude":"-0.191691"},"context":"","outcome_status":null,"persistent_id":"","id":74278042,"location_subtype":"","month":"2019-05"},{"category":"anti-social-behaviour","location_type":"Force","location":{"latitude":"51.492845","street":{"id":950245,"name":"On or near Earl's Court Gardens"},"longitude":"-0.191691"},"context":"","outcome_status":null,"persistent_id":"","id":74278043,"location_subtype":"","month":"2019-05"},{"category":"anti-social-behaviour","location_type":"Force","location":{"latitude":"51.492845","street":{"id":950245,"name":"On or near Earl's Court Gardens"},"longitude":"-0.191691"},"context":"","outcome_status":null,"persistent_id":"","id":74278044,"location_subtype":"","month":"2019-05"},{"category":"anti-social-behaviour","location_type":"Force","location":{"latitude":"51.492845","street":{"id":950245,"name":"On or near Earl's Court Gardens"},"longitude":"-0.191691"},"context":"","outcome_status":null,"persistent_id":"","id":74278045,"location_subtype":"","month":"2019-05"},{"category":"anti-social-behaviour","location_type":"Force","location":{"latitude":"51.489945","street":{"id":950239,"name":"On or near Farnell Mews"},"longitude":"-0.192007"},"context":"","outcome_status":null,"persistent_id":"","id":74278047,"location_subtype":"","month":"2019-05"},{"category":"anti-social-behaviour","location_type":"Force","location":{"latitude":"51.493276","street":{"id":952843,"name":"On or near Hogarth Road"},"longitude":"-0.192236"},"context":"","outcome_status":null,"persistent_id":"","id":74278048,"location_subtype":"","month":"2019-05"},{"category":"anti-social-behaviour","location_type":"Force","location":{"latitude":"51.493276","street":{"id":952843,"name":"On or near Hogarth Road"},"longitude":"-0.192236"},"context":"","outcome_status":null,"persistent_id":"","id":74278049,"location_subtype":"","month":"2019-05"},{"category":"anti-social-behaviour","location_type":"Force","location":{"latitude":"51.493445","street":{"id":952842,"name":"On or near Kenway Road"},"longitude":"-0.192747"},"context":"","outcome_status":null,"persistent_id":"","id":74278050,"location_subtype":"","month":"2019-05"},{"category":"anti-social-behaviour","location_type":"Force","location":{"latitude":"51.500004","street":{"id":952682,"name":"On or near Wright's Lane"},"longitude":"-0.192935"},"context":"","outcome_status":null,"persistent_id":"","id":74278051,"location_subtype":"","month":"2019-05"},{"category":"anti-social-behaviour","location_type":"Force","location":{"latitude":"51.510150","street":{"id":957192,"name":"On or near Victoria Grove Mews"},"longitude":"-0.192519"},"context":"","outcome_status":null,"persistent_id":"","id":74278052,"location_subtype":"","month":"2019-05"},{"category":"anti-social-behaviour","location_type":"Force","location":{"latitude":"51.498768","street":{"id":952701,"name":"On or near Cheniston Gardens"},"longitude":"-0.192710"},"context":"","outcome_status":null,"persistent_id":"","id":74278053,"location_subtype":"","month":"2019-05"},{"category":"anti-social-behaviour","location_type":"Force","location":{"latitude":"51.509824","street":{"id":957245,"name":"On or near Bayswater Road"},"longitude":"-0.192402"},"context":"","outcome_status":null,"persistent_id":"","id":74278054,"location_subtype":"","month":"2019-05"},{"category":"anti-social-behaviour","location_type":"Force","location":{"latitude":"51.509824","street":{"id":957245,"name":"On or near Bayswater Road"},"longitude":"-0.192402"},"context":"","outcome_status":null,"persistent_id":"","id":74278055,"location_subtype":"","month":"2019-05"},{"category":"anti-social-behaviour","location_type":"Force","location":{"latitude":"51.502403","street":{"id":952531,"name":"On or near Addison Gardens"},"longitude":"-0.214568"},"context":"","outcome_status":null,"persistent_id":"","id":74279180,"location_subtype":"","month":"2019-05"},{"category":"anti-social-behaviour","location_type":"Force","location":{"latitude":"51.502403","street":{"id":952531,"name":"On or near Addison Gardens"},"longitude":"-0.214568"},"context":"","outcome_status":null,"persistent_id":"","id":74279173,"location_subtype":"","month":"2019-05"},{"category":"anti-social-behaviour","location_type":"Force","location":{"latitude":"51.500405","street":{"id":952458,"name":"On or near Russell Gardens Mews"},"longitude":"-0.212658"},"context":"","outcome_status":null,"persistent_id":"","id":74279170,"location_subtype":"","month":"2019-05"},{"category":"anti-social-behaviour","location_type":"Force","location":{"latitude":"51.501237","street":{"id":952526,"name":"On or near Elsham Road"},"longitude":"-0.212985"},"context":"","outcome_status":null,"persistent_id":"","id":74279162,"location_subtype":"","month":"2019-05"},{"category":"anti-social-behaviour","location_type":"Force","location":{"latitude":"51.501237","street":{"id":952526,"name":"On or near Elsham Road"},"longitude":"-0.212985"},"context":"","outcome_status":null,"persistent_id":"","id":74279161,"location_subtype":"","month":"2019-05"},{"category":"anti-social-behaviour","location_type":"Force","location":{"latitude":"51.504216","street":{"id":952504,"name":"On or near Upper Addison Gardens"},"longitude":"-0.213690"},"context":"","outcome_status":null,"persistent_id":"","id":74279158,"location_subtype":"","month":"2019-05"},{"category":"anti-social-behaviour","location_type":"Force","location":{"latitude":"51.508483","street":{"id":957495,"name":"On or near Penzance Street"},"longitude":"-0.211088"},"context":"","outcome_status":null,"persistent_id":"","id":74279151,"location_subtype":"","month":"2019-05"},{"category":"anti-social-behaviour","location_type":"Force","location":{"latitude":"51.497802","street":{"id":952786,"name":"On or near Fairfax Place"},"longitude":"-0.208250"},"context":"","outcome_status":null,"persistent_id":"","id":74279135,"location_subtype":"","month":"2019-05"},{"category":"anti-social-behaviour","location_type":"Force","location":{"latitude":"51.493313","street":{"id":950144,"name":"On or near North End Road"},"longitude":"-0.208729"},"context":"","outcome_status":null,"persistent_id":"","id":74284050,"location_subtype":"","month":"2019-05"},{"category":"anti-social-behaviour","location_type":"Force","location":{"latitude":"51.497802","street":{"id":952786,"name":"On or near Fairfax Place"},"longitude":"-0.208250"},"context":"","outcome_status":null,"persistent_id":"","id":74279134,"location_subtype":"","month":"2019-05"},{"category":"anti-social-behaviour","location_type":"Force","location":{"latitude":"51.497802","street":{"id":952786,"name":"On or near Fairfax Place"},"longitude":"-0.208250"},"context":"","outcome_status":null,"persistent_id":"","id":74279133,"location_subtype":"","month":"2019-05"},{"category":"anti-social-behaviour","location_type":"Force","location":{"latitude":"51.491488","street":{"id":950131,"name":"On or near Trevanion Road"},"longitude":"-0.209333"},"context":"","outcome_status":null,"persistent_id":"","id":74284047,"location_subtype":"","month":"2019-05"},{"category":"anti-social-behaviour","location_type":"Force","location":{"latitude":"51.497802","street":{"id":952786,"name":"On or near Fairfax Place"},"longitude":"-0.208250"},"context":"","outcome_status":null,"persistent_id":"","id":74279132,"location_subtype":"","month":"2019-05"},{"category":"anti-social-behaviour","location_type":"Force","location":{"latitude":"51.497802","street":{"id":952786,"name":"On or near Fairfax Place"},"longitude":"-0.208250"},"context":"","outcome_status":null,"persistent_id":"","id":74279131,"location_subtype":"","month":"2019-05"},{"category":"anti-social-behaviour","location_type":"Force","location":{"latitude":"51.512603","street":{"id":956965,"name":"On or near Queensborough Mews"},"longitude":"-0.185403"},"context":"","outcome_status":null,"persistent_id":"","id":74275668,"location_subtype":"","month":"2019-05"},{"category":"anti-social-behaviour","location_type":"Force","location":{"latitude":"51.507531","street":{"id":957327,"name":"On or near Lansdowne Mews"},"longitude":"-0.206456"},"context":"","outcome_status":null,"persistent_id":"","id":74279123,"location_subtype":"","month":"2019-05"},{"category":"anti-social-behaviour","location_type":"Force","location":{"latitude":"51.499939","street":{"id":952776,"name":"On or near Oakwood Court"},"longitude":"-0.206250"},"context":"","outcome_status":null,"persistent_id":"","id":74279114,"location_subtype":"","month":"2019-05"},{"category":"anti-social-behaviour","location_type":"Force","location":{"latitude":"51.490381","street":{"id":950182,"name":"On or near Beaumont Avenue"},"longitude":"-0.205761"},"context":"","outcome_status":null,"persistent_id":"","id":74284027,"location_subtype":"","month":"2019-05"},{"category":"anti-social-behaviour","location_type":"Force","location":{"latitude":"51.490381","street":{"id":950182,"name":"On or near Beaumont Avenue"},"longitude":"-0.205761"},"context":"","outcome_status":null,"persistent_id":"","id":74284026,"location_subtype":"","month":"2019-05"},{"category":"anti-social-behaviour","location_type":"Force","location":{"latitude":"51.497153","street":{"id":952792,"name":"On or near Petrol Station"},"longitude":"-0.206374"},"context":"","outcome_status":null,"persistent_id":"","id":74279109,"location_subtype":"","month":"2019-05"},{"category":"anti-social-behaviour","location_type":"Force","location":{"latitude":"51.497153","street":{"id":952792,"name":"On or near Petrol Station"},"longitude":"-0.206374"},"context":"","outcome_status":null,"persistent_id":"","id":74279108,"location_subtype":"","month":"2019-05"},{"category":"anti-social-behaviour","location_type":"Force","location":{"latitude":"51.496671","street":{"id":952769,"name":"On or near Warwick Gardens"},"longitude":"-0.204246"},"context":"","outcome_status":null,"persistent_id":"","id":74279099,"location_subtype":"","month":"2019-05"},{"category":"anti-social-behaviour","location_type":"Force","location":{"latitude":"51.514133","street":{"id":957120,"name":"On or near Lambton Place"},"longitude":"-0.200057"},"context":"","outcome_status":null,"persistent_id":"","id":74278138,"location_subtype":"","month":"2019-05"},{"category":"anti-social-behaviour","location_type":"Force","location":{"latitude":"51.490381","street":{"id":950182,"name":"On or near Beaumont Avenue"},"longitude":"-0.205761"},"context":"","outcome_status":null,"persistent_id":"","id":74284025,"location_subtype":"","month":"2019-05"},{"category":"anti-social-behaviour","location_type":"Force","location":{"latitude":"51.514133","street":{"id":957120,"name":"On or near Lambton Place"},"longitude":"-0.200057"},"context":"","outcome_status":null,"persistent_id":"","id":74278137,"location_subtype":"","month":"2019-05"},{"category":"anti-social-behaviour","location_type":"Force","location":{"latitude":"51.508850","street":{"id":957318,"name":"On or near Shopping Area"},"longitude":"-0.199819"},"context":"","outcome_status":null,"persistent_id":"","id":74278136,"location_subtype":"","month":"2019-05"},{"category":"anti-social-behaviour","location_type":"Force","location":{"latitude":"51.513535","street":{"id":957112,"name":"On or near Pencombe Mews"},"longitude":"-0.200384"},"context":"","outcome_status":null,"persistent_id":"","id":74278135,"location_subtype":"","month":"2019-05"},{"category":"anti-social-behaviour","location_type":"Force","location":{"latitude":"51.492777","street":{"id":950201,"name":"On or near Warwick Road"},"longitude":"-0.200726"},"context":"","outcome_status":null,"persistent_id":"","id":74278132,"location_subtype":"","month":"2019-05"},{"category":"anti-social-behaviour","location_type":"Force","location":{"latitude":"51.492777","street":{"id":950201,"name":"On or near Warwick Road"},"longitude":"-0.200726"},"context":"","outcome_status":null,"persistent_id":"","id":74278131,"location_subtype":"","month":"2019-05"},{"category":"anti-social-behaviour","location_type":"Force","location":{"latitude":"51.490967","street":{"id":950204,"name":"On or near Philbeach Gardens"},"longitude":"-0.200005"},"context":"","outcome_status":null,"persistent_id":"","id":74278130,"location_subtype":"","month":"2019-05"},{"category":"anti-social-behaviour","location_type":"Force","location":{"latitude":"51.514000","street":{"id":957264,"name":"On or near Ledbury Road"},"longitude":"-0.199025"},"context":"","outcome_status":null,"persistent_id":"","id":74278129,"location_subtype":"","month":"2019-05"},{"category":"anti-social-behaviour","location_type":"Force","location":{"latitude":"51.494260","street":{"id":952821,"name":"On or near Theatre\/concert Hall"},"longitude":"-0.211256"},"context":"","outcome_status":null,"persistent_id":"","id":74284062,"location_subtype":"","month":"2019-05"},{"category":"anti-social-behaviour","location_type":"Force","location":{"latitude":"51.510250","street":{"id":957268,"name":"On or near Horbury Crescent"},"longitude":"-0.199591"},"context":"","outcome_status":null,"persistent_id":"","id":74278128,"location_subtype":"","month":"2019-05"},{"category":"anti-social-behaviour","location_type":"Force","location":{"latitude":"51.509028","street":{"id":957319,"name":"On or near Supermarket"},"longitude":"-0.198529"},"context":"","outcome_status":null,"persistent_id":"","id":74278127,"location_subtype":"","month":"2019-05"},{"category":"anti-social-behaviour","location_type":"Force","location":{"latitude":"51.509028","street":{"id":957319,"name":"On or near Supermarket"},"longitude":"-0.198529"},"context":"","outcome_status":null,"persistent_id":"","id":74278126,"location_subtype":"","month":"2019-05"},{"category":"anti-social-behaviour","location_type":"Force","location":{"latitude":"51.493288","street":{"id":950153,"name":"On or near Matheson Road"},"longitude":"-0.205949"},"context":"","outcome_status":null,"persistent_id":"","id":74284024,"location_subtype":"","month":"2019-05"},{"category":"anti-social-behaviour","location_type":"Force","location":{"latitude":"51.494957","street":{"id":952826,"name":"On or near Pembroke Road"},"longitude":"-0.199257"},"context":"","outcome_status":null,"persistent_id":"","id":74278125,"location_subtype":"","month":"2019-05"},{"category":"anti-social-behaviour","location_type":"Force","location":{"latitude":"51.511609","street":{"id":957012,"name":"On or near B411"},"longitude":"-0.186279"},"context":"","outcome_status":null,"persistent_id":"","id":74275676,"location_subtype":"","month":"2019-05"},{"category":"anti-social-behaviour","location_type":"Force","location":{"latitude":"51.511338","street":{"id":957259,"name":"On or near Portobello Mews"},"longitude":"-0.198453"},"context":"","outcome_status":null,"persistent_id":"","id":74278124,"location_subtype":"","month":"2019-05"},{"category":"anti-social-behaviour","location_type":"Force","location":{"latitude":"51.492408","street":{"id":950205,"name":"On or near Cluny Mews"},"longitude":"-0.200135"},"context":"","outcome_status":null,"persistent_id":"","id":74278123,"location_subtype":"","month":"2019-05"},{"category":"anti-social-behaviour","location_type":"Force","location":{"latitude":"51.498344","street":{"id":952462,"name":"On or near Porten Road"},"longitude":"-0.214309"},"context":"","outcome_status":null,"persistent_id":"","id":74285094,"location_subtype":"","month":"2019-05"},{"category":"anti-social-behaviour","location_type":"Force","location":{"latitude":"51.499727","street":{"id":952457,"name":"On or near Sinclair Road"},"longitude":"-0.213592"},"context":"","outcome_status":null,"persistent_id":"","id":74285093,"location_subtype":"","month":"2019-05"},{"category":"anti-social-behaviour","location_type":"Force","location":{"latitude":"51.492408","street":{"id":950205,"name":"On or near Cluny Mews"},"longitude":"-0.200135"},"context":"","outcome_status":null,"persistent_id":"","id":74278122,"location_subtype":"","month":"2019-05"},{"category":"anti-social-behaviour","location_type":"Force","location":{"latitude":"51.493181","street":{"id":950199,"name":"On or near West Cromwell Road"},"longitude":"-0.198967"},"context":"","outcome_status":null,"persistent_id":"","id":74278121,"location_subtype":"","month":"2019-05"},{"category":"anti-social-behaviour","location_type":"Force","location":{"latitude":"51.495318","street":{"id":952656,"name":"On or near Lyons Walk"},"longitude":"-0.212223"},"context":"","outcome_status":null,"persistent_id":"","id":74285087,"location_subtype":"","month":"2019-05"},{"category":"anti-social-behaviour","location_type":"Force","location":{"latitude":"51.509028","street":{"id":957319,"name":"On or near Supermarket"},"longitude":"-0.198529"},"context":"","outcome_status":null,"persistent_id":"","id":74278120,"location_subtype":"","month":"2019-05"},{"category":"anti-social-behaviour","location_type":"Force","location":{"latitude":"51.497568","street":{"id":952471,"name":"On or near Hazlitt Road"},"longitude":"-0.212956"},"context":"","outcome_status":null,"persistent_id":"","id":74285088,"location_subtype":"","month":"2019-05"},{"category":"anti-social-behaviour","location_type":"Force","location":{"latitude":"51.491777","street":{"id":950228,"name":"On or near Nevern Square"},"longitude":"-0.197092"},"context":"","outcome_status":null,"persistent_id":"","id":74278119,"location_subtype":"","month":"2019-05"},{"category":"anti-social-behaviour","location_type":"Force","location":{"latitude":"51.492188","street":{"id":950151,"name":"On or near Mornington Avenue"},"longitude":"-0.205748"},"context":"","outcome_status":null,"persistent_id":"","id":74284017,"location_subtype":"","month":"2019-05"},{"category":"anti-social-behaviour","location_type":"Force","location":{"latitude":"51.491777","street":{"id":950228,"name":"On or near Nevern Square"},"longitude":"-0.197092"},"context":"","outcome_status":null,"persistent_id":"","id":74278118,"location_subtype":"","month":"2019-05"},{"category":"anti-social-behaviour","location_type":"Force","location":{"latitude":"51.513034","street":{"id":956961,"name":"On or near Queensway"},"longitude":"-0.187663"},"context":"","outcome_status":null,"persistent_id":"","id":74275701,"location_subtype":"","month":"2019-05"},{"category":"anti-social-behaviour","location_type":"Force","location":{"latitude":"51.491777","street":{"id":950228,"name":"On or near Nevern Square"},"longitude":"-0.197092"},"context":"","outcome_status":null,"persistent_id":"","id":74278117,"location_subtype":"","month":"2019-05"},{"category":"anti-social-behaviour","location_type":"Force","location":{"latitude":"51.491777","street":{"id":950228,"name":"On or near Nevern Square"},"longitude":"-0.197092"},"context":"","outcome_status":null,"persistent_id":"","id":74278116,"location_subtype":"","month":"2019-05"},{"category":"anti-social-behaviour","location_type":"Force","location":{"latitude":"51.491777","street":{"id":950228,"name":"On or near Nevern Square"},"longitude":"-0.197092"},"context":"","outcome_status":null,"persistent_id":"","id":74278115,"location_subtype":"","month":"2019-05"},{"category":"anti-social-behaviour","location_type":"Force","location":{"latitude":"51.514572","street":{"id":957188,"name":"On or near Westbourne Grove Mews"},"longitude":"-0.197662"},"context":"","outcome_status":null,"persistent_id":"","id":74278114,"location_subtype":"","month":"2019-05"},{"category":"anti-social-behaviour","location_type":"Force","location":{"latitude":"51.514572","street":{"id":957188,"name":"On or near Westbourne Grove Mews"},"longitude":"-0.197662"},"context":"","outcome_status":null,"persistent_id":"","id":74278113,"location_subtype":"","month":"2019-05"},{"category":"anti-social-behaviour","location_type":"Force","location":{"latitude":"51.498696","street":{"id":952709,"name":"On or near Supermarket"},"longitude":"-0.197914"},"context":"","outcome_status":null,"persistent_id":"","id":74278112,"location_subtype":"","month":"2019-05"},{"category":"anti-social-behaviour","location_type":"Force","location":{"latitude":"51.492797","street":{"id":950229,"name":"On or near Nevern Road"},"longitude":"-0.197973"},"context":"","outcome_status":null,"persistent_id":"","id":74278111,"location_subtype":"","month":"2019-05"},{"category":"anti-social-behaviour","location_type":"Force","location":{"latitude":"51.492797","street":{"id":950229,"name":"On or near Nevern Road"},"longitude":"-0.197973"},"context":"","outcome_status":null,"persistent_id":"","id":74278110,"location_subtype":"","month":"2019-05"},{"category":"anti-social-behaviour","location_type":"Force","location":{"latitude":"51.492797","street":{"id":950229,"name":"On or near Nevern Road"},"longitude":"-0.197973"},"context":"","outcome_status":null,"persistent_id":"","id":74278109,"location_subtype":"","month":"2019-05"},{"category":"anti-social-behaviour","location_type":"Force","location":{"latitude":"51.510234","street":{"id":957205,"name":"On or near Pembridge Road"},"longitude":"-0.197401"},"context":"","outcome_status":null,"persistent_id":"","id":74278108,"location_subtype":"","month":"2019-05"},{"category":"anti-social-behaviour","location_type":"Force","location":{"latitude":"51.510234","street":{"id":957205,"name":"On or near Pembridge Road"},"longitude":"-0.197401"},"context":"","outcome_status":null,"persistent_id":"","id":74278107,"location_subtype":"","month":"2019-05"},{"category":"anti-social-behaviour","location_type":"Force","location":{"latitude":"51.493955","street":{"id":952809,"name":"On or near Lisgar Terrace"},"longitude":"-0.206600"},"context":"","outcome_status":null,"persistent_id":"","id":74284039,"location_subtype":"","month":"2019-05"},{"category":"anti-social-behaviour","location_type":"Force","location":{"latitude":"51.514600","street":{"id":957198,"name":"On or near Rosehart Mews"},"longitude":"-0.197113"},"context":"","outcome_status":null,"persistent_id":"","id":74278106,"location_subtype":"","month":"2019-05"},{"category":"anti-social-behaviour","location_type":"Force","location":{"latitude":"51.494744","street":{"id":952837,"name":"On or near Logan Place"},"longitude":"-0.197666"},"context":"","outcome_status":null,"persistent_id":"","id":74278105,"location_subtype":"","month":"2019-05"},{"category":"anti-social-behaviour","location_type":"Force","location":{"latitude":"51.494744","street":{"id":952837,"name":"On or near Logan Place"},"longitude":"-0.197666"},"context":"","outcome_status":null,"persistent_id":"","id":74278104,"location_subtype":"","month":"2019-05"},{"category":"anti-social-behaviour","location_type":"Force","location":{"latitude":"51.494744","street":{"id":952837,"name":"On or near Logan Place"},"longitude":"-0.197666"},"context":"","outcome_status":null,"persistent_id":"","id":74278103,"location_subtype":"","month":"2019-05"},{"category":"anti-social-behaviour","location_type":"Force","location":{"latitude":"51.508338","street":{"id":957307,"name":"On or near Farmer Street"},"longitude":"-0.196870"},"context":"","outcome_status":null,"persistent_id":"","id":74278102,"location_subtype":"","month":"2019-05"},{"category":"anti-social-behaviour","location_type":"Force","location":{"latitude":"51.504301","street":{"id":952750,"name":"On or near Campden House Close"},"longitude":"-0.196381"},"context":"","outcome_status":null,"persistent_id":"","id":74278101,"location_subtype":"","month":"2019-05"},{"category":"anti-social-behaviour","location_type":"Force","location":{"latitude":"51.513493","street":{"id":957203,"name":"On or near Pembridge Villas"},"longitude":"-0.197056"},"context":"","outcome_status":null,"persistent_id":"","id":74278100,"location_subtype":"","month":"2019-05"},{"category":"anti-social-behaviour","location_type":"Force","location":{"latitude":"51.493175","street":{"id":950233,"name":"On or near Longridge Road"},"longitude":"-0.197382"},"context":"","outcome_status":null,"persistent_id":"","id":74278098,"location_subtype":"","month":"2019-05"},{"category":"anti-social-behaviour","location_type":"Force","location":{"latitude":"51.493175","street":{"id":950233,"name":"On or near Longridge Road"},"longitude":"-0.197382"},"context":"","outcome_status":null,"persistent_id":"","id":74278097,"location_subtype":"","month":"2019-05"},{"category":"anti-social-behaviour","location_type":"Force","location":{"latitude":"51.506862","street":{"id":957294,"name":"On or near Peel Street"},"longitude":"-0.196813"},"context":"","outcome_status":null,"persistent_id":"","id":74278096,"location_subtype":"","month":"2019-05"},{"category":"anti-social-behaviour","location_type":"Force","location":{"latitude":"51.506862","street":{"id":957294,"name":"On or near Peel Street"},"longitude":"-0.196813"},"context":"","outcome_status":null,"persistent_id":"","id":74278095,"location_subtype":"","month":"2019-05"},{"category":"anti-social-behaviour","location_type":"Force","location":{"latitude":"51.506862","street":{"id":957294,"name":"On or near Peel Street"},"longitude":"-0.196813"},"context":"","outcome_status":null,"persistent_id":"","id":74278094,"location_subtype":"","month":"2019-05"},{"category":"anti-social-behaviour","location_type":"Force","location":{"latitude":"51.506862","street":{"id":957294,"name":"On or near Peel Street"},"longitude":"-0.196813"},"context":"","outcome_status":null,"persistent_id":"","id":74278093,"location_subtype":"","month":"2019-05"},{"category":"anti-social-behaviour","location_type":"Force","location":{"latitude":"51.500546","street":{"id":952685,"name":"On or near Stafford Terrace"},"longitude":"-0.197178"},"context":"","outcome_status":null,"persistent_id":"","id":74278092,"location_subtype":"","month":"2019-05"},{"category":"anti-social-behaviour","location_type":"Force","location":{"latitude":"51.493175","street":{"id":950233,"name":"On or near Longridge Road"},"longitude":"-0.197382"},"context":"","outcome_status":null,"persistent_id":"","id":74278091,"location_subtype":"","month":"2019-05"},{"category":"anti-social-behaviour","location_type":"Force","location":{"latitude":"51.492818","street":{"id":950137,"name":"On or near Stanwick Road"},"longitude":"-0.205204"},"context":"","outcome_status":null,"persistent_id":"","id":74284012,"location_subtype":"","month":"2019-05"},{"category":"anti-social-behaviour","location_type":"Force","location":{"latitude":"51.493175","street":{"id":950233,"name":"On or near Longridge Road"},"longitude":"-0.197382"},"context":"","outcome_status":null,"persistent_id":"","id":74278090,"location_subtype":"","month":"2019-05"},{"category":"anti-social-behaviour","location_type":"Force","location":{"latitude":"51.493175","street":{"id":950233,"name":"On or near Longridge Road"},"longitude":"-0.197382"},"context":"","outcome_status":null,"persistent_id":"","id":74278089,"location_subtype":"","month":"2019-05"},{"category":"anti-social-behaviour","location_type":"Force","location":{"latitude":"51.493175","street":{"id":950233,"name":"On or near Longridge Road"},"longitude":"-0.197382"},"context":"","outcome_status":null,"persistent_id":"","id":74278088,"location_subtype":"","month":"2019-05"},{"category":"anti-social-behaviour","location_type":"Force","location":{"latitude":"51.493175","street":{"id":950233,"name":"On or near Longridge Road"},"longitude":"-0.197382"},"context":"","outcome_status":null,"persistent_id":"","id":74278087,"location_subtype":"","month":"2019-05"},{"category":"anti-social-behaviour","location_type":"Force","location":{"latitude":"51.493175","street":{"id":950233,"name":"On or near Longridge Road"},"longitude":"-0.197382"},"context":"","outcome_status":null,"persistent_id":"","id":74278086,"location_subtype":"","month":"2019-05"},{"category":"anti-social-behaviour","location_type":"Force","location":{"latitude":"51.510297","street":{"id":957222,"name":"On or near Linden Gardens"},"longitude":"-0.194459"},"context":"","outcome_status":null,"persistent_id":"","id":74278085,"location_subtype":"","month":"2019-05"},{"category":"anti-social-behaviour","location_type":"Force","location":{"latitude":"51.510297","street":{"id":957222,"name":"On or near Linden Gardens"},"longitude":"-0.194459"},"context":"","outcome_status":null,"persistent_id":"","id":74278084,"location_subtype":"","month":"2019-05"},{"category":"anti-social-behaviour","location_type":"Force","location":{"latitude":"51.488957","street":{"id":950149,"name":"On or near Mund Street"},"longitude":"-0.203786"},"context":"","outcome_status":null,"persistent_id":"","id":74284005,"location_subtype":"","month":"2019-05"},{"category":"anti-social-behaviour","location_type":"Force","location":{"latitude":"51.503087","street":{"id":952739,"name":"On or near Hornton Street"},"longitude":"-0.195161"},"context":"","outcome_status":null,"persistent_id":"","id":74278083,"location_subtype":"","month":"2019-05"},{"category":"anti-social-behaviour","location_type":"Force","location":{"latitude":"51.493288","street":{"id":950153,"name":"On or near Matheson Road"},"longitude":"-0.205949"},"context":"","outcome_status":null,"persistent_id":"","id":74284023,"location_subtype":"","month":"2019-05"},{"category":"anti-social-behaviour","location_type":"Force","location":{"latitude":"51.492188","street":{"id":950151,"name":"On or near Mornington Avenue"},"longitude":"-0.205748"},"context":"","outcome_status":null,"persistent_id":"","id":74284018,"location_subtype":"","month":"2019-05"},{"category":"anti-social-behaviour","location_type":"Force","location":{"latitude":"51.503087","street":{"id":952739,"name":"On or near Hornton Street"},"longitude":"-0.195161"},"context":"","outcome_status":null,"persistent_id":"","id":74278082,"location_subtype":"","month":"2019-05"},{"category":"anti-social-behaviour","location_type":"Force","location":{"latitude":"51.508221","street":{"id":957321,"name":"On or near Princedale Road"},"longitude":"-0.209787"},"context":"","outcome_status":null,"persistent_id":"","id":74279136,"location_subtype":"","month":"2019-05"},{"category":"anti-social-behaviour","location_type":"Force","location":{"latitude":"51.493175","street":{"id":950233,"name":"On or near Longridge Road"},"longitude":"-0.197382"},"context":"","outcome_status":null,"persistent_id":"","id":74278099,"location_subtype":"","month":"2019-05"},{"category":"anti-social-behaviour","location_type":"Force","location":{"latitude":"51.503087","street":{"id":952739,"name":"On or near Hornton Street"},"longitude":"-0.195161"},"context":"","outcome_status":null,"persistent_id":"","id":74278081,"location_subtype":"","month":"2019-05"},{"category":"anti-social-behaviour","location_type":"Force","location":{"latitude":"51.501202","street":{"id":952727,"name":"On or near Phillimore Walk"},"longitude":"-0.194242"},"context":"","outcome_status":null,"persistent_id":"","id":74278059,"location_subtype":"","month":"2019-05"},{"category":"anti-social-behaviour","location_type":"Force","location":{"latitude":"51.492845","street":{"id":950245,"name":"On or near Earl's Court Gardens"},"longitude":"-0.191691"},"context":"","outcome_status":null,"persistent_id":"","id":74278046,"location_subtype":"","month":"2019-05"},{"category":"anti-social-behaviour","location_type":"Force","location":{"latitude":"51.491620","street":{"id":950216,"name":"On or near Trebovir Road"},"longitude":"-0.195110"},"context":"","outcome_status":null,"persistent_id":"","id":74278080,"location_subtype":"","month":"2019-05"},{"category":"anti-social-behaviour","location_type":"Force","location":{"latitude":"51.497568","street":{"id":952471,"name":"On or near Hazlitt Road"},"longitude":"-0.212956"},"context":"","outcome_status":null,"persistent_id":"","id":74284070,"location_subtype":"","month":"2019-05"},{"category":"anti-social-behaviour","location_type":"Force","location":{"latitude":"51.495496","street":{"id":952813,"name":"On or near Earsby Street"},"longitude":"-0.209176"},"context":"","outcome_status":null,"persistent_id":"","id":74284051,"location_subtype":"","month":"2019-05"},{"category":"anti-social-behaviour","location_type":"Force","location":{"latitude":"51.491620","street":{"id":950216,"name":"On or near Trebovir Road"},"longitude":"-0.195110"},"context":"","outcome_status":null,"persistent_id":"","id":74278079,"location_subtype":"","month":"2019-05"},{"category":"anti-social-behaviour","location_type":"Force","location":{"latitude":"51.504165","street":{"id":952752,"name":"On or near Campden Grove"},"longitude":"-0.194557"},"context":"","outcome_status":null,"persistent_id":"","id":74278078,"location_subtype":"","month":"2019-05"},{"category":"anti-social-behaviour","location_type":"Force","location":{"latitude":"51.490625","street":{"id":950215,"name":"On or near Warwick Road"},"longitude":"-0.196489"},"context":"","outcome_status":null,"persistent_id":"","id":74278077,"location_subtype":"","month":"2019-05"},{"category":"anti-social-behaviour","location_type":"Force","location":{"latitude":"51.490625","street":{"id":950215,"name":"On or near Warwick Road"},"longitude":"-0.196489"},"context":"","outcome_status":null,"persistent_id":"","id":74278076,"location_subtype":"","month":"2019-05"},{"category":"anti-social-behaviour","location_type":"Force","location":{"latitude":"51.490625","street":{"id":950215,"name":"On or near Warwick Road"},"longitude":"-0.196489"},"context":"","outcome_status":null,"persistent_id":"","id":74278075,"location_subtype":"","month":"2019-05"},{"category":"anti-social-behaviour","location_type":"Force","location":{"latitude":"51.490625","street":{"id":950215,"name":"On or near Warwick Road"},"longitude":"-0.196489"},"context":"","outcome_status":null,"persistent_id":"","id":74278074,"location_subtype":"","month":"2019-05"},{"category":"anti-social-behaviour","location_type":"Force","location":{"latitude":"51.502403","street":{"id":952531,"name":"On or near Addison Gardens"},"longitude":"-0.214568"},"context":"","outcome_status":null,"persistent_id":"","id":74279182,"location_subtype":"","month":"2019-05"},{"category":"anti-social-behaviour","location_type":"Force","location":{"latitude":"51.499502","street":{"id":952706,"name":"On or near Adam And Eve Mews"},"longitude":"-0.194828"},"context":"","outcome_status":null,"persistent_id":"","id":74278072,"location_subtype":"","month":"2019-05"},{"category":"anti-social-behaviour","location_type":"Force","location":{"latitude":"51.492542","street":{"id":950003,"name":"On or near Old Brompton Road"},"longitude":"-0.177369"},"context":"","outcome_status":null,"persistent_id":"","id":74277202,"location_subtype":"","month":"2019-05"},{"category":"anti-social-behaviour","location_type":"Force","location":{"latitude":"51.490625","street":{"id":950215,"name":"On or near Warwick Road"},"longitude":"-0.196489"},"context":"","outcome_status":null,"persistent_id":"","id":74278073,"location_subtype":"","month":"2019-05"},{"category":"anti-social-behaviour","location_type":"Force","location":{"latitude":"51.491620","street":{"id":950216,"name":"On or near Trebovir Road"},"longitude":"-0.195110"},"context":"","outcome_status":null,"persistent_id":"","id":74278071,"location_subtype":"","month":"2019-05"},{"category":"anti-social-behaviour","location_type":"Force","location":{"latitude":"51.491620","street":{"id":950216,"name":"On or near Trebovir Road"},"longitude":"-0.195110"},"context":"","outcome_status":null,"persistent_id":"","id":74278070,"location_subtype":"","month":"2019-05"},{"category":"anti-social-behaviour","location_type":"Force","location":{"latitude":"51.502403","street":{"id":952531,"name":"On or near Addison Gardens"},"longitude":"-0.214568"},"context":"","outcome_status":null,"persistent_id":"","id":74279181,"location_subtype":"","month":"2019-05"},{"category":"anti-social-behaviour","location_type":"Force","location":{"latitude":"51.491620","street":{"id":950216,"name":"On or near Trebovir Road"},"longitude":"-0.195110"},"context":"","outcome_status":null,"persistent_id":"","id":74278069,"location_subtype":"","month":"2019-05"},{"category":"anti-social-behaviour","location_type":"Force","location":{"latitude":"51.491620","street":{"id":950216,"name":"On or near Trebovir Road"},"longitude":"-0.195110"},"context":"","outcome_status":null,"persistent_id":"","id":74278068,"location_subtype":"","month":"2019-05"},{"category":"anti-social-behaviour","location_type":"Force","location":{"latitude":"51.488755","street":{"id":950236,"name":"On or near Kempsford Gardens"},"longitude":"-0.194762"},"context":"","outcome_status":null,"persistent_id":"","id":74278067,"location_subtype":"","month":"2019-05"},{"category":"anti-social-behaviour","location_type":"Force","location":{"latitude":"51.501202","street":{"id":952727,"name":"On or near Phillimore Walk"},"longitude":"-0.194242"},"context":"","outcome_status":null,"persistent_id":"","id":74278066,"location_subtype":"","month":"2019-05"},{"category":"anti-social-behaviour","location_type":"Force","location":{"latitude":"51.493936","street":{"id":952967,"name":"On or near Collingham Place"},"longitude":"-0.189544"},"context":"","outcome_status":null,"persistent_id":"","id":74278011,"location_subtype":"","month":"2019-05"},{"category":"anti-social-behaviour","location_type":"Force","location":{"latitude":"51.501202","street":{"id":952727,"name":"On or near Phillimore Walk"},"longitude":"-0.194242"},"context":"","outcome_status":null,"persistent_id":"","id":74278065,"location_subtype":"","month":"2019-05"},{"category":"anti-social-behaviour","location_type":"Force","location":{"latitude":"51.501202","street":{"id":952727,"name":"On or near Phillimore Walk"},"longitude":"-0.194242"},"context":"","outcome_status":null,"persistent_id":"","id":74278064,"location_subtype":"","month":"2019-05"},{"category":"anti-social-behaviour","location_type":"Force","location":{"latitude":"51.501202","street":{"id":952727,"name":"On or near Phillimore Walk"},"longitude":"-0.194242"},"context":"","outcome_status":null,"persistent_id":"","id":74278063,"location_subtype":"","month":"2019-05"},{"category":"anti-social-behaviour","location_type":"Force","location":{"latitude":"51.500160","street":{"id":952870,"name":"On or near Ennismore Gardens"},"longitude":"-0.170553"},"context":"","outcome_status":null,"persistent_id":"","id":74282301,"location_subtype":"","month":"2019-05"},{"category":"anti-social-behaviour","location_type":"Force","location":{"latitude":"51.501667","street":{"id":952878,"name":"On or near Kensington Road"},"longitude":"-0.175478"},"context":"","outcome_status":null,"persistent_id":"","id":74282302,"location_subtype":"","month":"2019-05"},{"category":"anti-social-behaviour","location_type":"Force","location":{"latitude":"51.501202","street":{"id":952727,"name":"On or near Phillimore Walk"},"longitude":"-0.194242"},"context":"","outcome_status":null,"persistent_id":"","id":74278062,"location_subtype":"","month":"2019-05"},{"category":"anti-social-behaviour","location_type":"Force","location":{"latitude":"51.501202","street":{"id":952727,"name":"On or near Phillimore Walk"},"longitude":"-0.194242"},"context":"","outcome_status":null,"persistent_id":"","id":74278061,"location_subtype":"","month":"2019-05"},{"category":"anti-social-behaviour","location_type":"Force","location":{"latitude":"51.506587","street":{"id":957310,"name":"On or near Berkeley Gardens"},"longitude":"-0.194130"},"context":"","outcome_status":null,"persistent_id":"","id":74278060,"location_subtype":"","month":"2019-05"},{"category":"anti-social-behaviour","location_type":"Force","location":{"latitude":"51.501202","street":{"id":952727,"name":"On or near Phillimore Walk"},"longitude":"-0.194242"},"context":"","outcome_status":null,"persistent_id":"","id":74278058,"location_subtype":"","month":"2019-05"},{"category":"anti-social-behaviour","location_type":"Force","location":{"latitude":"51.501202","street":{"id":952727,"name":"On or near Phillimore Walk"},"longitude":"-0.194242"},"context":"","outcome_status":null,"persistent_id":"","id":74278057,"location_subtype":"","month":"2019-05"},{"category":"anti-social-behaviour","location_type":"Force","location":{"latitude":"51.496485","street":{"id":952690,"name":"On or near Radley Mews"},"longitude":"-0.193304"},"context":"","outcome_status":null,"persistent_id":"","id":74278056,"location_subtype":"","month":"2019-05"},{"category":"anti-social-behaviour","location_type":"Force","location":{"latitude":"51.511816","street":{"id":957066,"name":"On or near Elms Mews"},"longitude":"-0.177004"},"context":"","outcome_status":null,"persistent_id":"","id":74275599,"location_subtype":"","month":"2019-05"},{"category":"anti-social-behaviour","location_type":"Force","location":{"latitude":"51.511691","street":{"id":956981,"name":"On or near Lancaster Gate"},"longitude":"-0.180511"},"context":"","outcome_status":null,"persistent_id":"","id":74275630,"location_subtype":"","month":"2019-05"},{"category":"anti-social-behaviour","location_type":"Force","location":{"latitude":"51.511734","street":{"id":956979,"name":"On or near Leinster Mews"},"longitude":"-0.182166"},"context":"","outcome_status":null,"persistent_id":"","id":74275635,"location_subtype":"","month":"2019-05"},{"category":"anti-social-behaviour","location_type":"Force","location":{"latitude":"51.511425","street":{"id":956977,"name":"On or near Leinster Terrace"},"longitude":"-0.183058"},"context":"","outcome_status":null,"persistent_id":"","id":74275642,"location_subtype":"","month":"2019-05"},{"category":"anti-social-behaviour","location_type":"Force","location":{"latitude":"51.511425","street":{"id":956977,"name":"On or near Leinster Terrace"},"longitude":"-0.183058"},"context":"","outcome_status":null,"persistent_id":"","id":74275643,"location_subtype":"","month":"2019-05"},{"category":"anti-social-behaviour","location_type":"Force","location":{"latitude":"51.511734","street":{"id":956979,"name":"On or near Leinster Mews"},"longitude":"-0.182166"},"context":"","outcome_status":null,"persistent_id":"","id":74275645,"location_subtype":"","month":"2019-05"},{"category":"anti-social-behaviour","location_type":"Force","location":{"latitude":"51.513819","street":{"id":956980,"name":"On or near Leinster Gardens"},"longitude":"-0.183798"},"context":"","outcome_status":null,"persistent_id":"","id":74275650,"location_subtype":"","month":"2019-05"},{"category":"anti-social-behaviour","location_type":"Force","location":{"latitude":"51.512461","street":{"id":956969,"name":"On or near Porchester Terrace"},"longitude":"-0.184357"},"context":"","outcome_status":null,"persistent_id":"","id":74275654,"location_subtype":"","month":"2019-05"},{"category":"anti-social-behaviour","location_type":"Force","location":{"latitude":"51.512461","street":{"id":956969,"name":"On or near Porchester Terrace"},"longitude":"-0.184357"},"context":"","outcome_status":null,"persistent_id":"","id":74275655,"location_subtype":"","month":"2019-05"},{"category":"anti-social-behaviour","location_type":"Force","location":{"latitude":"51.512461","street":{"id":956969,"name":"On or near Porchester Terrace"},"longitude":"-0.184357"},"context":"","outcome_status":null,"persistent_id":"","id":74275656,"location_subtype":"","month":"2019-05"},{"category":"anti-social-behaviour","location_type":"Force","location":{"latitude":"51.512461","street":{"id":956969,"name":"On or near Porchester Terrace"},"longitude":"-0.184357"},"context":"","outcome_status":null,"persistent_id":"","id":74275657,"location_subtype":"","month":"2019-05"},{"category":"anti-social-behaviour","location_type":"Force","location":{"latitude":"51.514298","street":{"id":956978,"name":"On or near Leinster Place"},"longitude":"-0.184529"},"context":"","outcome_status":null,"persistent_id":"","id":74275659,"location_subtype":"","month":"2019-05"},{"category":"anti-social-behaviour","location_type":"Force","location":{"latitude":"51.511291","street":{"id":956982,"name":"On or near Inverness Terrace"},"longitude":"-0.186061"},"context":"","outcome_status":null,"persistent_id":"","id":74275662,"location_subtype":"","month":"2019-05"},{"category":"anti-social-behaviour","location_type":"Force","location":{"latitude":"51.511291","street":{"id":956982,"name":"On or near Inverness Terrace"},"longitude":"-0.186061"},"context":"","outcome_status":null,"persistent_id":"","id":74275663,"location_subtype":"","month":"2019-05"},{"category":"anti-social-behaviour","location_type":"Force","location":{"latitude":"51.512603","street":{"id":956965,"name":"On or near Queensborough Mews"},"longitude":"-0.185403"},"context":"","outcome_status":null,"persistent_id":"","id":74275666,"location_subtype":"","month":"2019-05"},{"category":"anti-social-behaviour","location_type":"Force","location":{"latitude":"51.512603","street":{"id":956965,"name":"On or near Queensborough Mews"},"longitude":"-0.185403"},"context":"","outcome_status":null,"persistent_id":"","id":74275667,"location_subtype":"","month":"2019-05"},{"category":"anti-social-behaviour","location_type":"Force","location":{"latitude":"51.511609","street":{"id":957012,"name":"On or near B411"},"longitude":"-0.186279"},"context":"","outcome_status":null,"persistent_id":"","id":74275670,"location_subtype":"","month":"2019-05"},{"category":"anti-social-behaviour","location_type":"Force","location":{"latitude":"51.511609","street":{"id":957012,"name":"On or near B411"},"longitude":"-0.186279"},"context":"","outcome_status":null,"persistent_id":"","id":74275671,"location_subtype":"","month":"2019-05"},{"category":"anti-social-behaviour","location_type":"Force","location":{"latitude":"51.511609","street":{"id":957012,"name":"On or near B411"},"longitude":"-0.186279"},"context":"","outcome_status":null,"persistent_id":"","id":74275672,"location_subtype":"","month":"2019-05"},{"category":"anti-social-behaviour","location_type":"Force","location":{"latitude":"51.511609","street":{"id":957012,"name":"On or near B411"},"longitude":"-0.186279"},"context":"","outcome_status":null,"persistent_id":"","id":74275673,"location_subtype":"","month":"2019-05"},{"category":"anti-social-behaviour","location_type":"Force","location":{"latitude":"51.511609","street":{"id":957012,"name":"On or near B411"},"longitude":"-0.186279"},"context":"","outcome_status":null,"persistent_id":"","id":74275674,"location_subtype":"","month":"2019-05"},{"category":"anti-social-behaviour","location_type":"Force","location":{"latitude":"51.511609","street":{"id":957012,"name":"On or near B411"},"longitude":"-0.186279"},"context":"","outcome_status":null,"persistent_id":"","id":74275675,"location_subtype":"","month":"2019-05"},{"category":"anti-social-behaviour","location_type":"Force","location":{"latitude":"51.511609","street":{"id":957012,"name":"On or near B411"},"longitude":"-0.186279"},"context":"","outcome_status":null,"persistent_id":"","id":74275677,"location_subtype":"","month":"2019-05"},{"category":"anti-social-behaviour","location_type":"Force","location":{"latitude":"51.513825","street":{"id":956971,"name":"On or near Porchester Gardens"},"longitude":"-0.187084"},"context":"","outcome_status":null,"persistent_id":"","id":74275691,"location_subtype":"","month":"2019-05"},{"category":"anti-social-behaviour","location_type":"Force","location":{"latitude":"51.510946","street":{"id":956952,"name":"On or near Parking Area"},"longitude":"-0.186968"},"context":"","outcome_status":null,"persistent_id":"","id":74275693,"location_subtype":"","month":"2019-05"},{"category":"anti-social-behaviour","location_type":"Force","location":{"latitude":"51.510946","street":{"id":956952,"name":"On or near Parking Area"},"longitude":"-0.186968"},"context":"","outcome_status":null,"persistent_id":"","id":74275694,"location_subtype":"","month":"2019-05"},{"category":"anti-social-behaviour","location_type":"Force","location":{"latitude":"51.510946","street":{"id":956952,"name":"On or near Parking Area"},"longitude":"-0.186968"},"context":"","outcome_status":null,"persistent_id":"","id":74275697,"location_subtype":"","month":"2019-05"},{"category":"anti-social-behaviour","location_type":"Force","location":{"latitude":"51.510946","street":{"id":956952,"name":"On or near Parking Area"},"longitude":"-0.186968"},"context":"","outcome_status":null,"persistent_id":"","id":74275698,"location_subtype":"","month":"2019-05"},{"category":"anti-social-behaviour","location_type":"Force","location":{"latitude":"51.510946","street":{"id":956952,"name":"On or near Parking Area"},"longitude":"-0.186968"},"context":"","outcome_status":null,"persistent_id":"","id":74275699,"location_subtype":"","month":"2019-05"},{"category":"anti-social-behaviour","location_type":"Force","location":{"latitude":"51.510946","street":{"id":956952,"name":"On or near Parking Area"},"longitude":"-0.186968"},"context":"","outcome_status":null,"persistent_id":"","id":74275700,"location_subtype":"","month":"2019-05"},{"category":"anti-social-behaviour","location_type":"Force","location":{"latitude":"51.513034","street":{"id":956961,"name":"On or near Queensway"},"longitude":"-0.187663"},"context":"","outcome_status":null,"persistent_id":"","id":74275704,"location_subtype":"","month":"2019-05"},{"category":"anti-social-behaviour","location_type":"Force","location":{"latitude":"51.513034","street":{"id":956961,"name":"On or near Queensway"},"longitude":"-0.187663"},"context":"","outcome_status":null,"persistent_id":"","id":74275705,"location_subtype":"","month":"2019-05"},{"category":"anti-social-behaviour","location_type":"Force","location":{"latitude":"51.513034","street":{"id":956961,"name":"On or near Queensway"},"longitude":"-0.187663"},"context":"","outcome_status":null,"persistent_id":"","id":74275706,"location_subtype":"","month":"2019-05"},{"category":"anti-social-behaviour","location_type":"Force","location":{"latitude":"51.513034","street":{"id":956961,"name":"On or near Queensway"},"longitude":"-0.187663"},"context":"","outcome_status":null,"persistent_id":"","id":74275707,"location_subtype":"","month":"2019-05"},{"category":"anti-social-behaviour","location_type":"Force","location":{"latitude":"51.513034","street":{"id":956961,"name":"On or near Queensway"},"longitude":"-0.187663"},"context":"","outcome_status":null,"persistent_id":"","id":74275708,"location_subtype":"","month":"2019-05"},{"category":"anti-social-behaviour","location_type":"Force","location":{"latitude":"51.513034","street":{"id":956961,"name":"On or near Queensway"},"longitude":"-0.187663"},"context":"","outcome_status":null,"persistent_id":"","id":74275709,"location_subtype":"","month":"2019-05"},{"category":"anti-social-behaviour","location_type":"Force","location":{"latitude":"51.513034","street":{"id":956961,"name":"On or near Queensway"},"longitude":"-0.187663"},"context":"","outcome_status":null,"persistent_id":"","id":74275710,"location_subtype":"","month":"2019-05"},{"category":"anti-social-behaviour","location_type":"Force","location":{"latitude":"51.513034","street":{"id":956961,"name":"On or near Queensway"},"longitude":"-0.187663"},"context":"","outcome_status":null,"persistent_id":"","id":74275711,"location_subtype":"","month":"2019-05"},{"category":"anti-social-behaviour","location_type":"Force","location":{"latitude":"51.513034","street":{"id":956961,"name":"On or near Queensway"},"longitude":"-0.187663"},"context":"","outcome_status":null,"persistent_id":"","id":74275712,"location_subtype":"","month":"2019-05"},{"category":"anti-social-behaviour","location_type":"Force","location":{"latitude":"51.513034","street":{"id":956961,"name":"On or near Queensway"},"longitude":"-0.187663"},"context":"","outcome_status":null,"persistent_id":"","id":74275713,"location_subtype":"","month":"2019-05"},{"category":"anti-social-behaviour","location_type":"Force","location":{"latitude":"51.510499","street":{"id":957008,"name":"On or near Caroline Close"},"longitude":"-0.188355"},"context":"","outcome_status":null,"persistent_id":"","id":74275714,"location_subtype":"","month":"2019-05"},{"category":"anti-social-behaviour","location_type":"Force","location":{"latitude":"51.510499","street":{"id":957008,"name":"On or near Caroline Close"},"longitude":"-0.188355"},"context":"","outcome_status":null,"persistent_id":"","id":74275715,"location_subtype":"","month":"2019-05"},{"category":"anti-social-behaviour","location_type":"Force","location":{"latitude":"51.511768","street":{"id":956972,"name":"On or near Poplar Place"},"longitude":"-0.188391"},"context":"","outcome_status":null,"persistent_id":"","id":74275719,"location_subtype":"","month":"2019-05"},{"category":"anti-social-behaviour","location_type":"Force","location":{"latitude":"51.512997","street":{"id":956960,"name":"On or near Salem Road"},"longitude":"-0.188760"},"context":"","outcome_status":null,"persistent_id":"","id":74276302,"location_subtype":"","month":"2019-05"},{"category":"anti-social-behaviour","location_type":"Force","location":{"latitude":"51.511768","street":{"id":956972,"name":"On or near Poplar Place"},"longitude":"-0.188391"},"context":"","outcome_status":null,"persistent_id":"","id":74276303,"location_subtype":"","month":"2019-05"},{"category":"anti-social-behaviour","location_type":"Force","location":{"latitude":"51.511768","street":{"id":956972,"name":"On or near Poplar Place"},"longitude":"-0.188391"},"context":"","outcome_status":null,"persistent_id":"","id":74276304,"location_subtype":"","month":"2019-05"},{"category":"anti-social-behaviour","location_type":"Force","location":{"latitude":"51.511068","street":{"id":957006,"name":"On or near Caroline Place Mews"},"longitude":"-0.188462"},"context":"","outcome_status":null,"persistent_id":"","id":74276314,"location_subtype":"","month":"2019-05"},{"category":"anti-social-behaviour","location_type":"Force","location":{"latitude":"51.513363","street":{"id":956966,"name":"On or near Queen's Mews"},"longitude":"-0.189178"},"context":"","outcome_status":null,"persistent_id":"","id":74276319,"location_subtype":"","month":"2019-05"},{"category":"anti-social-behaviour","location_type":"Force","location":{"latitude":"51.513363","street":{"id":956966,"name":"On or near Queen's Mews"},"longitude":"-0.189178"},"context":"","outcome_status":null,"persistent_id":"","id":74276320,"location_subtype":"","month":"2019-05"},{"category":"anti-social-behaviour","location_type":"Force","location":{"latitude":"51.512361","street":{"id":957217,"name":"On or near Moscow Road"},"longitude":"-0.190716"},"context":"","outcome_status":null,"persistent_id":"","id":74276321,"location_subtype":"","month":"2019-05"},{"category":"anti-social-behaviour","location_type":"Force","location":{"latitude":"51.512361","street":{"id":957217,"name":"On or near Moscow Road"},"longitude":"-0.190716"},"context":"","outcome_status":null,"persistent_id":"","id":74276322,"location_subtype":"","month":"2019-05"},{"category":"anti-social-behaviour","location_type":"Force","location":{"latitude":"51.512361","street":{"id":957217,"name":"On or near Moscow Road"},"longitude":"-0.190716"},"context":"","outcome_status":null,"persistent_id":"","id":74276323,"location_subtype":"","month":"2019-05"},{"category":"anti-social-behaviour","location_type":"Force","location":{"latitude":"51.512361","street":{"id":957217,"name":"On or near Moscow Road"},"longitude":"-0.190716"},"context":"","outcome_status":null,"persistent_id":"","id":74276324,"location_subtype":"","month":"2019-05"},{"category":"anti-social-behaviour","location_type":"Force","location":{"latitude":"51.512361","street":{"id":957217,"name":"On or near Moscow Road"},"longitude":"-0.190716"},"context":"","outcome_status":null,"persistent_id":"","id":74276325,"location_subtype":"","month":"2019-05"},{"category":"anti-social-behaviour","location_type":"Force","location":{"latitude":"51.512361","street":{"id":957217,"name":"On or near Moscow Road"},"longitude":"-0.190716"},"context":"","outcome_status":null,"persistent_id":"","id":74276326,"location_subtype":"","month":"2019-05"},{"category":"anti-social-behaviour","location_type":"Force","location":{"latitude":"51.512361","street":{"id":957217,"name":"On or near Moscow Road"},"longitude":"-0.190716"},"context":"","outcome_status":null,"persistent_id":"","id":74276327,"location_subtype":"","month":"2019-05"},{"category":"anti-social-behaviour","location_type":"Force","location":{"latitude":"51.512361","street":{"id":957217,"name":"On or near Moscow Road"},"longitude":"-0.190716"},"context":"","outcome_status":null,"persistent_id":"","id":74276328,"location_subtype":"","month":"2019-05"},{"category":"anti-social-behaviour","location_type":"Force","location":{"latitude":"51.511191","street":{"id":957196,"name":"On or near St Petersburgh Place"},"longitude":"-0.190647"},"context":"","outcome_status":null,"persistent_id":"","id":74276329,"location_subtype":"","month":"2019-05"},{"category":"anti-social-behaviour","location_type":"Force","location":{"latitude":"51.514942","street":{"id":957233,"name":"On or near Garway Road"},"longitude":"-0.191854"},"context":"","outcome_status":null,"persistent_id":"","id":74276342,"location_subtype":"","month":"2019-05"},{"category":"anti-social-behaviour","location_type":"Force","location":{"latitude":"51.514942","street":{"id":957233,"name":"On or near Garway Road"},"longitude":"-0.191854"},"context":"","outcome_status":null,"persistent_id":"","id":74276343,"location_subtype":"","month":"2019-05"},{"category":"anti-social-behaviour","location_type":"Force","location":{"latitude":"51.514942","street":{"id":957233,"name":"On or near Garway Road"},"longitude":"-0.191854"},"context":"","outcome_status":null,"persistent_id":"","id":74276344,"location_subtype":"","month":"2019-05"},{"category":"anti-social-behaviour","location_type":"Force","location":{"latitude":"51.513343","street":{"id":957201,"name":"On or near Prince's Square"},"longitude":"-0.190793"},"context":"","outcome_status":null,"persistent_id":"","id":74276354,"location_subtype":"","month":"2019-05"},{"category":"anti-social-behaviour","location_type":"Force","location":{"latitude":"51.513343","street":{"id":957201,"name":"On or near Prince's Square"},"longitude":"-0.190793"},"context":"","outcome_status":null,"persistent_id":"","id":74276355,"location_subtype":"","month":"2019-05"},{"category":"anti-social-behaviour","location_type":"Force","location":{"latitude":"51.513343","street":{"id":957201,"name":"On or near Prince's Square"},"longitude":"-0.190793"},"context":"","outcome_status":null,"persistent_id":"","id":74276356,"location_subtype":"","month":"2019-05"},{"category":"anti-social-behaviour","location_type":"Force","location":{"latitude":"51.515174","street":{"id":957219,"name":"On or near Monmouth Road"},"longitude":"-0.192896"},"context":"","outcome_status":null,"persistent_id":"","id":74276375,"location_subtype":"","month":"2019-05"},{"category":"anti-social-behaviour","location_type":"Force","location":{"latitude":"51.515174","street":{"id":957219,"name":"On or near Monmouth Road"},"longitude":"-0.192896"},"context":"","outcome_status":null,"persistent_id":"","id":74276380,"location_subtype":"","month":"2019-05"},{"category":"anti-social-behaviour","location_type":"Force","location":{"latitude":"51.494936","street":{"id":952975,"name":"On or near Pedestrian Subway"},"longitude":"-0.173442"},"context":"","outcome_status":null,"persistent_id":"","id":74277174,"location_subtype":"","month":"2019-05"},{"category":"anti-social-behaviour","location_type":"Force","location":{"latitude":"51.493758","street":{"id":952993,"name":"On or near Glendower Place"},"longitude":"-0.175794"},"context":"","outcome_status":null,"persistent_id":"","id":74277182,"location_subtype":"","month":"2019-05"},{"category":"anti-social-behaviour","location_type":"Force","location":{"latitude":"51.493623","street":{"id":952997,"name":"On or near Bute Street"},"longitude":"-0.176347"},"context":"","outcome_status":null,"persistent_id":"","id":74277183,"location_subtype":"","month":"2019-05"},{"category":"anti-social-behaviour","location_type":"Force","location":{"latitude":"51.491050","street":{"id":949999,"name":"On or near Onslow Gardens"},"longitude":"-0.177400"},"context":"","outcome_status":null,"persistent_id":"","id":74277191,"location_subtype":"","month":"2019-05"},{"category":"anti-social-behaviour","location_type":"Force","location":{"latitude":"51.491050","street":{"id":949999,"name":"On or near Onslow Gardens"},"longitude":"-0.177400"},"context":"","outcome_status":null,"persistent_id":"","id":74277192,"location_subtype":"","month":"2019-05"},{"category":"anti-social-behaviour","location_type":"Force","location":{"latitude":"51.494693","street":{"id":952982,"name":"On or near Queensberry Place"},"longitude":"-0.177514"},"context":"","outcome_status":null,"persistent_id":"","id":74277193,"location_subtype":"","month":"2019-05"},{"category":"anti-social-behaviour","location_type":"Force","location":{"latitude":"51.494693","street":{"id":952982,"name":"On or near Queensberry Place"},"longitude":"-0.177514"},"context":"","outcome_status":null,"persistent_id":"","id":74277194,"location_subtype":"","month":"2019-05"},{"category":"anti-social-behaviour","location_type":"Force","location":{"latitude":"51.492542","street":{"id":950003,"name":"On or near Old Brompton Road"},"longitude":"-0.177369"},"context":"","outcome_status":null,"persistent_id":"","id":74277195,"location_subtype":"","month":"2019-05"},{"category":"anti-social-behaviour","location_type":"Force","location":{"latitude":"51.489850","street":{"id":949989,"name":"On or near Selwood Place"},"longitude":"-0.177189"},"context":"","outcome_status":null,"persistent_id":"","id":74277196,"location_subtype":"","month":"2019-05"},{"category":"anti-social-behaviour","location_type":"Force","location":{"latitude":"51.492542","street":{"id":950003,"name":"On or near Old Brompton Road"},"longitude":"-0.177369"},"context":"","outcome_status":null,"persistent_id":"","id":74277201,"location_subtype":"","month":"2019-05"},{"category":"anti-social-behaviour","location_type":"Force","location":{"latitude":"51.490551","street":{"id":950000,"name":"On or near Onslow Gardens"},"longitude":"-0.178284"},"context":"","outcome_status":null,"persistent_id":"","id":74277203,"location_subtype":"","month":"2019-05"},{"category":"anti-social-behaviour","location_type":"Force","location":{"latitude":"51.494903","street":{"id":952984,"name":"On or near Queen's Gate"},"longitude":"-0.178860"},"context":"","outcome_status":null,"persistent_id":"","id":74277210,"location_subtype":"","month":"2019-05"},{"category":"anti-social-behaviour","location_type":"Force","location":{"latitude":"51.493184","street":{"id":952950,"name":"On or near Stanhope Mews South"},"longitude":"-0.181060"},"context":"","outcome_status":null,"persistent_id":"","id":74277212,"location_subtype":"","month":"2019-05"},{"category":"anti-social-behaviour","location_type":"Force","location":{"latitude":"51.500450","street":{"id":952939,"name":"On or near Hyde Park Gate Mews"},"longitude":"-0.181679"},"context":"","outcome_status":null,"persistent_id":"","id":74277228,"location_subtype":"","month":"2019-05"},{"category":"anti-social-behaviour","location_type":"Force","location":{"latitude":"51.492306","street":{"id":949935,"name":"On or near Hereford Square"},"longitude":"-0.181844"},"context":"","outcome_status":null,"persistent_id":"","id":74277976,"location_subtype":"","month":"2019-05"},{"category":"anti-social-behaviour","location_type":"Force","location":{"latitude":"51.495072","street":{"id":952961,"name":"On or near Cromwell Road"},"longitude":"-0.182757"},"context":"","outcome_status":null,"persistent_id":"","id":74277979,"location_subtype":"","month":"2019-05"},{"category":"anti-social-behaviour","location_type":"Force","location":{"latitude":"51.495072","street":{"id":952961,"name":"On or near Cromwell Road"},"longitude":"-0.182757"},"context":"","outcome_status":null,"persistent_id":"","id":74277980,"location_subtype":"","month":"2019-05"},{"category":"anti-social-behaviour","location_type":"Force","location":{"latitude":"51.490943","street":{"id":949963,"name":"On or near Nightclub"},"longitude":"-0.183253"},"context":"","outcome_status":null,"persistent_id":"","id":74277981,"location_subtype":"","month":"2019-05"},{"category":"anti-social-behaviour","location_type":"Force","location":{"latitude":"51.497289","street":{"id":952909,"name":"On or near Gloucester Road"},"longitude":"-0.183649"},"context":"","outcome_status":null,"persistent_id":"","id":74277982,"location_subtype":"","month":"2019-05"},{"category":"anti-social-behaviour","location_type":"Force","location":{"latitude":"51.497289","street":{"id":952909,"name":"On or near Gloucester Road"},"longitude":"-0.183649"},"context":"","outcome_status":null,"persistent_id":"","id":74277983,"location_subtype":"","month":"2019-05"},{"category":"anti-social-behaviour","location_type":"Force","location":{"latitude":"51.492925","street":{"id":949936,"name":"On or near Harrington Gardens"},"longitude":"-0.184658"},"context":"","outcome_status":null,"persistent_id":"","id":74277986,"location_subtype":"","month":"2019-05"},{"category":"anti-social-behaviour","location_type":"Force","location":{"latitude":"51.497524","street":{"id":952902,"name":"On or near Kynance Place"},"longitude":"-0.184317"},"context":"","outcome_status":null,"persistent_id":"","id":74277988,"location_subtype":"","month":"2019-05"},{"category":"anti-social-behaviour","location_type":"Force","location":{"latitude":"51.494892","street":{"id":952962,"name":"On or near Cromwell Road"},"longitude":"-0.185069"},"context":"","outcome_status":null,"persistent_id":"","id":74277989,"location_subtype":"","month":"2019-05"},{"category":"anti-social-behaviour","location_type":"Force","location":{"latitude":"51.494892","street":{"id":952962,"name":"On or near Cromwell Road"},"longitude":"-0.185069"},"context":"","outcome_status":null,"persistent_id":"","id":74277990,"location_subtype":"","month":"2019-05"},{"category":"anti-social-behaviour","location_type":"Force","location":{"latitude":"51.494892","street":{"id":952962,"name":"On or near Cromwell Road"},"longitude":"-0.185069"},"context":"","outcome_status":null,"persistent_id":"","id":74277991,"location_subtype":"","month":"2019-05"},{"category":"anti-social-behaviour","location_type":"Force","location":{"latitude":"51.494892","street":{"id":952962,"name":"On or near Cromwell Road"},"longitude":"-0.185069"},"context":"","outcome_status":null,"persistent_id":"","id":74277992,"location_subtype":"","month":"2019-05"},{"category":"anti-social-behaviour","location_type":"Force","location":{"latitude":"51.494892","street":{"id":952962,"name":"On or near Cromwell Road"},"longitude":"-0.185069"},"context":"","outcome_status":null,"persistent_id":"","id":74277993,"location_subtype":"","month":"2019-05"},{"category":"anti-social-behaviour","location_type":"Force","location":{"latitude":"51.494892","street":{"id":952962,"name":"On or near Cromwell Road"},"longitude":"-0.185069"},"context":"","outcome_status":null,"persistent_id":"","id":74277994,"location_subtype":"","month":"2019-05"},{"category":"anti-social-behaviour","location_type":"Force","location":{"latitude":"51.490468","street":{"id":949951,"name":"On or near Cresswell Gardens"},"longitude":"-0.183963"},"context":"","outcome_status":null,"persistent_id":"","id":74277995,"location_subtype":"","month":"2019-05"},{"category":"anti-social-behaviour","location_type":"Force","location":{"latitude":"51.495671","street":{"id":952954,"name":"On or near Mcleod's Mews"},"longitude":"-0.186623"},"context":"","outcome_status":null,"persistent_id":"","id":74277997,"location_subtype":"","month":"2019-05"},{"category":"anti-social-behaviour","location_type":"Force","location":{"latitude":"51.487300","street":{"id":949920,"name":"On or near Redcliffe Mews"},"longitude":"-0.187272"},"context":"","outcome_status":null,"persistent_id":"","id":74277998,"location_subtype":"","month":"2019-05"},{"category":"anti-social-behaviour","location_type":"Force","location":{"latitude":"51.492749","street":{"id":949954,"name":"On or near Colbeck Mews"},"longitude":"-0.186638"},"context":"","outcome_status":null,"persistent_id":"","id":74278001,"location_subtype":"","month":"2019-05"},{"category":"anti-social-behaviour","location_type":"Force","location":{"latitude":"51.496311","street":{"id":952900,"name":"On or near Osten Mews"},"longitude":"-0.187332"},"context":"","outcome_status":null,"persistent_id":"","id":74278002,"location_subtype":"","month":"2019-05"},{"category":"anti-social-behaviour","location_type":"Force","location":{"latitude":"51.489778","street":{"id":949911,"name":"On or near South Bolton Gardens"},"longitude":"-0.187030"},"context":"","outcome_status":null,"persistent_id":"","id":74278003,"location_subtype":"","month":"2019-05"},{"category":"anti-social-behaviour","location_type":"Force","location":{"latitude":"51.494229","street":{"id":952958,"name":"On or near Gaspar Mews"},"longitude":"-0.187559"},"context":"","outcome_status":null,"persistent_id":"","id":74278004,"location_subtype":"","month":"2019-05"},{"category":"anti-social-behaviour","location_type":"Force","location":{"latitude":"51.494229","street":{"id":952958,"name":"On or near Gaspar Mews"},"longitude":"-0.187559"},"context":"","outcome_status":null,"persistent_id":"","id":74278005,"location_subtype":"","month":"2019-05"},{"category":"anti-social-behaviour","location_type":"Force","location":{"latitude":"51.493710","street":{"id":952964,"name":"On or near Courtfield Gardens"},"longitude":"-0.188300"},"context":"","outcome_status":null,"persistent_id":"","id":74278007,"location_subtype":"","month":"2019-05"},{"category":"anti-social-behaviour","location_type":"Force","location":{"latitude":"51.493710","street":{"id":952964,"name":"On or near Courtfield Gardens"},"longitude":"-0.188300"},"context":"","outcome_status":null,"persistent_id":"","id":74278008,"location_subtype":"","month":"2019-05"},{"category":"anti-social-behaviour","location_type":"Force","location":{"latitude":"51.502516","street":{"id":952936,"name":"On or near Kensington Road"},"longitude":"-0.188484"},"context":"","outcome_status":null,"persistent_id":"","id":74278009,"location_subtype":"","month":"2019-05"},{"category":"anti-social-behaviour","location_type":"Force","location":{"latitude":"51.502516","street":{"id":952936,"name":"On or near Kensington Road"},"longitude":"-0.188484"},"context":"","outcome_status":null,"persistent_id":"","id":74278010,"location_subtype":"","month":"2019-05"},{"category":"anti-social-behaviour","location_type":"Force","location":{"latitude":"51.486590","street":{"id":949964,"name":"On or near Theatre\/concert Hall"},"longitude":"-0.190181"},"context":"","outcome_status":null,"persistent_id":"","id":74278012,"location_subtype":"","month":"2019-05"},{"category":"anti-social-behaviour","location_type":"Force","location":{"latitude":"51.486590","street":{"id":949964,"name":"On or near Theatre\/concert Hall"},"longitude":"-0.190181"},"context":"","outcome_status":null,"persistent_id":"","id":74278013,"location_subtype":"","month":"2019-05"},{"category":"anti-social-behaviour","location_type":"Force","location":{"latitude":"51.486590","street":{"id":949964,"name":"On or near Theatre\/concert Hall"},"longitude":"-0.190181"},"context":"","outcome_status":null,"persistent_id":"","id":74278014,"location_subtype":"","month":"2019-05"},{"category":"anti-social-behaviour","location_type":"Force","location":{"latitude":"51.486590","street":{"id":949964,"name":"On or near Theatre\/concert Hall"},"longitude":"-0.190181"},"context":"","outcome_status":null,"persistent_id":"","id":74278015,"location_subtype":"","month":"2019-05"},{"category":"anti-social-behaviour","location_type":"Force","location":{"latitude":"51.486590","street":{"id":949964,"name":"On or near Theatre\/concert Hall"},"longitude":"-0.190181"},"context":"","outcome_status":null,"persistent_id":"","id":74278016,"location_subtype":"","month":"2019-05"},{"category":"anti-social-behaviour","location_type":"Force","location":{"latitude":"51.486590","street":{"id":949964,"name":"On or near Theatre\/concert Hall"},"longitude":"-0.190181"},"context":"","outcome_status":null,"persistent_id":"","id":74278017,"location_subtype":"","month":"2019-05"},{"category":"anti-social-behaviour","location_type":"Force","location":{"latitude":"51.486590","street":{"id":949964,"name":"On or near Theatre\/concert Hall"},"longitude":"-0.190181"},"context":"","outcome_status":null,"persistent_id":"","id":74278018,"location_subtype":"","month":"2019-05"},{"category":"anti-social-behaviour","location_type":"Force","location":{"latitude":"51.489535","street":{"id":949924,"name":"On or near Old Brompton Road"},"longitude":"-0.189892"},"context":"","outcome_status":null,"persistent_id":"","id":74278019,"location_subtype":"","month":"2019-05"},{"category":"anti-social-behaviour","location_type":"Force","location":{"latitude":"51.489535","street":{"id":949924,"name":"On or near Old Brompton Road"},"longitude":"-0.189892"},"context":"","outcome_status":null,"persistent_id":"","id":74278020,"location_subtype":"","month":"2019-05"},{"category":"anti-social-behaviour","location_type":"Force","location":{"latitude":"51.489535","street":{"id":949924,"name":"On or near Old Brompton Road"},"longitude":"-0.189892"},"context":"","outcome_status":null,"persistent_id":"","id":74278021,"location_subtype":"","month":"2019-05"},{"category":"anti-social-behaviour","location_type":"Force","location":{"latitude":"51.489535","street":{"id":949924,"name":"On or near Old Brompton Road"},"longitude":"-0.189892"},"context":"","outcome_status":null,"persistent_id":"","id":74278022,"location_subtype":"","month":"2019-05"},{"category":"anti-social-behaviour","location_type":"Force","location":{"latitude":"51.489535","street":{"id":949924,"name":"On or near Old Brompton Road"},"longitude":"-0.189892"},"context":"","outcome_status":null,"persistent_id":"","id":74278023,"location_subtype":"","month":"2019-05"},{"category":"anti-social-behaviour","location_type":"Force","location":{"latitude":"51.495407","street":{"id":952833,"name":"On or near Pennant Mews"},"longitude":"-0.191056"},"context":"","outcome_status":null,"persistent_id":"","id":74278024,"location_subtype":"","month":"2019-05"},{"category":"bicycle-theft","location_type":"Force","location":{"latitude":"51.499753","street":{"id":952864,"name":"On or near Further\/higher Educational Building"},"longitude":"-0.176174"},"context":"","outcome_status":{"category":"Status update unavailable","date":"2019-09"},"persistent_id":"877caa8ba574b5b68d9fd0712187347ebaad2c8bbfd9c222e47043e1593ad47b","id":74328420,"location_subtype":"","month":"2019-05"},{"category":"bicycle-theft","location_type":"Force","location":{"latitude":"51.513512","street":{"id":957223,"name":"On or near Leinster Square"},"longitude":"-0.192443"},"context":"","outcome_status":{"category":"Status update unavailable","date":"2019-09"},"persistent_id":"a8b184e88d27c4da77d13631550d0f1b35678cbb34080407ac2661ac1d878610","id":74315071,"location_subtype":"","month":"2019-05"},{"category":"bicycle-theft","location_type":"Force","location":{"latitude":"51.506709","street":{"id":957325,"name":"On or near Norland Place"},"longitude":"-0.209125"},"context":"","outcome_status":{"category":"Status update unavailable","date":"2019-09"},"persistent_id":"84b35a17ee49618cc0104ef13ca51bb3671454de62abb796af346ce8f91c00e9","id":74314798,"location_subtype":"","month":"2019-05"},{"category":"bicycle-theft","location_type":"Force","location":{"latitude":"51.513825","street":{"id":956971,"name":"On or near Porchester Gardens"},"longitude":"-0.187084"},"context":"","outcome_status":{"category":"Status update unavailable","date":"2019-09"},"persistent_id":"e3d76e90a309f47536eb3a72ac55e0b571b1bd9d85b73aac5a31cdf17def9d00","id":74306274,"location_subtype":"","month":"2019-05"},{"category":"bicycle-theft","location_type":"Force","location":{"latitude":"51.506276","street":{"id":952505,"name":"On or near Taverners Close"},"longitude":"-0.211981"},"context":"","outcome_status":{"category":"Status update unavailable","date":"2019-09"},"persistent_id":"21a758f4dfac265c734aa53f10fce5ed5e7ba9a83cc7dee34855c8035b193535","id":74362600,"location_subtype":"","month":"2019-05"},{"category":"bicycle-theft","location_type":"Force","location":{"latitude":"51.499868","street":{"id":952855,"name":"On or near Prince Consort Road"},"longitude":"-0.177178"},"context":"","outcome_status":{"category":"Status update unavailable","date":"2019-09"},"persistent_id":"fb6923644881c5d9660a6b43ff881adcf2657dbd972a679a5426cf5a36865fb4","id":74296500,"location_subtype":"","month":"2019-05"},{"category":"bicycle-theft","location_type":"Force","location":{"latitude":"51.507298","street":{"id":957331,"name":"On or near Ladbroke Mews"},"longitude":"-0.207647"},"context":"","outcome_status":{"category":"Status update unavailable","date":"2019-09"},"persistent_id":"fd89f701fc08d46ac9bc374bfc9d79358508a861c1d4fe64f63d84707ce8ab4c","id":74313546,"location_subtype":"","month":"2019-05"},{"category":"bicycle-theft","location_type":"Force","location":{"latitude":"51.498308","street":{"id":952851,"name":"On or near Wells Way"},"longitude":"-0.178638"},"context":"","outcome_status":{"category":"Status update unavailable","date":"2019-09"},"persistent_id":"9a9b4052225646e44053ca59a1d1ac91c6498f3a5c2d537fa31a113a93214c49","id":74313405,"location_subtype":"","month":"2019-05"},{"category":"bicycle-theft","location_type":"Force","location":{"latitude":"51.501548","street":{"id":952717,"name":"On or near Young Street"},"longitude":"-0.189862"},"context":"","outcome_status":{"category":"Status update unavailable","date":"2019-09"},"persistent_id":"4fcf8d517f5bf6aaeba14402103687256f034fed896a8e197a867b12126ae8e5","id":74323321,"location_subtype":"","month":"2019-05"},{"category":"bicycle-theft","location_type":"Force","location":{"latitude":"51.510422","street":{"id":957252,"name":"On or near Further\/higher Educational Building"},"longitude":"-0.192076"},"context":"","outcome_status":{"category":"Status update unavailable","date":"2019-09"},"persistent_id":"0ff43e9604bdd5530426027654609ff6475eaa5434111979f9a802a4b65e2de6","id":74311608,"location_subtype":"","month":"2019-05"},{"category":"bicycle-theft","location_type":"Force","location":{"latitude":"51.499603","street":{"id":952863,"name":"On or near Further\/higher Educational Building"},"longitude":"-0.174624"},"context":"","outcome_status":{"category":"Status update unavailable","date":"2019-09"},"persistent_id":"6cc8a454710f04a76e56068c596e0351ae4611d5c6c20dc6bdd5d72c74def7d9","id":74360585,"location_subtype":"","month":"2019-05"},{"category":"bicycle-theft","location_type":"Force","location":{"latitude":"51.512045","street":{"id":957110,"name":"On or near Portobello Road"},"longitude":"-0.200572"},"context":"","outcome_status":{"category":"Status update unavailable","date":"2019-09"},"persistent_id":"873b78e2ca117b77d946ca16a8f2c85a54b19bf75b8e8f10bd1756bec303d378","id":74330736,"location_subtype":"","month":"2019-05"},{"category":"bicycle-theft","location_type":"Force","location":{"latitude":"51.497568","street":{"id":952471,"name":"On or near Hazlitt Road"},"longitude":"-0.212956"},"context":"","outcome_status":{"category":"Status update unavailable","date":"2019-09"},"persistent_id":"153c65fd56af4ce8e87f66dca3801261ab8ffa9245bf57bd0a7a0111b415d03e","id":74310175,"location_subtype":"","month":"2019-05"},{"category":"bicycle-theft","location_type":"Force","location":{"latitude":"51.498308","street":{"id":952851,"name":"On or near Wells Way"},"longitude":"-0.178638"},"context":"","outcome_status":{"category":"Status update unavailable","date":"2019-09"},"persistent_id":"e19ce1e4dd6f8632b56f649a56af925413f7a6f13f332b2e5855fa50862bdc03","id":74360560,"location_subtype":"","month":"2019-05"},{"category":"bicycle-theft","location_type":"Force","location":{"latitude":"51.497568","street":{"id":952471,"name":"On or near Hazlitt Road"},"longitude":"-0.212956"},"context":"","outcome_status":{"category":"Status update unavailable","date":"2019-09"},"persistent_id":"a3cb97df36d54edeba8bcac566278aadd7eda186e050529335e36fadc81b94d5","id":74307467,"location_subtype":"","month":"2019-05"},{"category":"bicycle-theft","location_type":"Force","location":{"latitude":"51.499033","street":{"id":952681,"name":"On or near Wright's Lane"},"longitude":"-0.192397"},"context":"","outcome_status":{"category":"Court result unavailable","date":"2020-01"},"persistent_id":"6e4d54731123d239caaa41fa6be2d0d2db7f2818d906e7abcda5d388785dcdc3","id":74341247,"location_subtype":"","month":"2019-05"},{"category":"bicycle-theft","location_type":"Force","location":{"latitude":"51.499868","street":{"id":952855,"name":"On or near Prince Consort Road"},"longitude":"-0.177178"},"context":"","outcome_status":{"category":"Status update unavailable","date":"2019-09"},"persistent_id":"394a44853cc2816da4c371853c835004e7d49e0442142ab9b1a406e7a555511e","id":74305234,"location_subtype":"","month":"2019-05"},{"category":"bicycle-theft","location_type":"Force","location":{"latitude":"51.510499","street":{"id":957008,"name":"On or near Caroline Close"},"longitude":"-0.188355"},"context":"","outcome_status":{"category":"Status update unavailable","date":"2019-09"},"persistent_id":"47cdb56bedde5d6dd228bb25aa7fae9a7067d79c16b74281698cabd10c83ba49","id":74319823,"location_subtype":"","month":"2019-05"},{"category":"bicycle-theft","location_type":"Force","location":{"latitude":"51.498178","street":{"id":952854,"name":"On or near Princes Gate Mews"},"longitude":"-0.172621"},"context":"","outcome_status":{"category":"Status update unavailable","date":"2019-09"},"persistent_id":"360ef820c98d4b57d5b04b6058253e0ffbf5447dec982dcab339731690d6358d","id":74351225,"location_subtype":"","month":"2019-05"},{"category":"bicycle-theft","location_type":"Force","location":{"latitude":"51.499603","street":{"id":952863,"name":"On or near Further\/higher Educational Building"},"longitude":"-0.174624"},"context":"","outcome_status":{"category":"Status update unavailable","date":"2019-09"},"persistent_id":"4985aa325f52cc5c9df0935d46c77ddd7a9677873b68e0f47d2af6d103e24948","id":74350425,"location_subtype":"","month":"2019-05"},{"category":"bicycle-theft","location_type":"Force","location":{"latitude":"51.497949","street":{"id":952911,"name":"On or near Elvaston Mews"},"longitude":"-0.180410"},"context":"","outcome_status":{"category":"Status update unavailable","date":"2019-09"},"persistent_id":"2c753bbb15d4fdf95b4cff2d937a8b2443b6190ccca588b5500201fce39049b8","id":74350424,"location_subtype":"","month":"2019-05"},{"category":"bicycle-theft","location_type":"Force","location":{"latitude":"51.489535","street":{"id":949924,"name":"On or near Old Brompton Road"},"longitude":"-0.189892"},"context":"","outcome_status":{"category":"Status update unavailable","date":"2019-09"},"persistent_id":"4bb2b124f6b820848ed59b0d239e0894f78be16d9ff6f7e0c7ebceb3fae1dab0","id":74360577,"location_subtype":"","month":"2019-05"},{"category":"bicycle-theft","location_type":"Force","location":{"latitude":"51.494936","street":{"id":952975,"name":"On or near Pedestrian Subway"},"longitude":"-0.173442"},"context":"","outcome_status":{"category":"Status update unavailable","date":"2019-09"},"persistent_id":"890cc99db08ee5b83948c5101306e464595e95854c90d9b86d42c73d5e18ee2e","id":74350399,"location_subtype":"","month":"2019-05"},{"category":"bicycle-theft","location_type":"Force","location":{"latitude":"51.494892","street":{"id":952962,"name":"On or near Cromwell Road"},"longitude":"-0.185069"},"context":"","outcome_status":{"category":"Status update unavailable","date":"2019-09"},"persistent_id":"81ee41ee828af57d84eed8c613d4a7bf4306faf1bd1c37a9d6fd35a9537b7866","id":74362557,"location_subtype":"","month":"2019-05"},{"category":"bicycle-theft","location_type":"Force","location":{"latitude":"51.507531","street":{"id":957327,"name":"On or near Lansdowne Mews"},"longitude":"-0.206456"},"context":"","outcome_status":{"category":"Status update unavailable","date":"2019-09"},"persistent_id":"f9c2256db2214a273f2804021d444987cc079e2a4d5e69dbc7e10fcb43ac11a3","id":74363674,"location_subtype":"","month":"2019-05"},{"category":"bicycle-theft","location_type":"Force","location":{"latitude":"51.505811","street":{"id":952524,"name":"On or near Holland Park Avenue"},"longitude":"-0.210976"},"context":"","outcome_status":{"category":"Status update unavailable","date":"2019-09"},"persistent_id":"aed2102136c44045bdda85e0548aa36c71179f3e9df210a0cdb29500ab05be95","id":74350398,"location_subtype":"","month":"2019-05"},{"category":"bicycle-theft","location_type":"Force","location":{"latitude":"51.506276","street":{"id":952505,"name":"On or near Taverners Close"},"longitude":"-0.211981"},"context":"","outcome_status":{"category":"Status update unavailable","date":"2019-09"},"persistent_id":"f3b7d5523890558922d6c6227c3683a6294c6501ffde7cf81263477f676dde96","id":74349825,"location_subtype":"","month":"2019-05"},{"category":"bicycle-theft","location_type":"Force","location":{"latitude":"51.510839","street":{"id":957013,"name":"On or near Petrol Station"},"longitude":"-0.184162"},"context":"","outcome_status":{"category":"Status update unavailable","date":"2019-09"},"persistent_id":"465388ba9ab52a2ea6ef462a73c38782d64ffafac1092a62a17f80ec6c97672d","id":74349822,"location_subtype":"","month":"2019-05"},{"category":"bicycle-theft","location_type":"Force","location":{"latitude":"51.494328","street":{"id":952959,"name":"On or near Gaspar Close"},"longitude":"-0.187008"},"context":"","outcome_status":{"category":"Status update unavailable","date":"2019-09"},"persistent_id":"66ffec91dd76caf9e051aab2940a65e343135b50a59d5718eb994bc57c6dc0e1","id":74347948,"location_subtype":"","month":"2019-05"},{"category":"bicycle-theft","location_type":"Force","location":{"latitude":"51.509933","street":{"id":957221,"name":"On or near Linden Mews"},"longitude":"-0.195352"},"context":"","outcome_status":{"category":"Status update unavailable","date":"2019-09"},"persistent_id":"957252b2994cefed12ed69bacd0cbeb042d407683ef1976b77078e224631c4ff","id":74321869,"location_subtype":"","month":"2019-05"},{"category":"bicycle-theft","location_type":"Force","location":{"latitude":"51.494416","street":{"id":952948,"name":"On or near Parking Area"},"longitude":"-0.189799"},"context":"","outcome_status":{"category":"Status update unavailable","date":"2019-09"},"persistent_id":"72a5ba2a11359e89dc7ecd5c99342cf6ac5d465d0db38b6e75aee19ba86bb71d","id":74295610,"location_subtype":"","month":"2019-05"},{"category":"bicycle-theft","location_type":"Force","location":{"latitude":"51.491488","street":{"id":950131,"name":"On or near Trevanion Road"},"longitude":"-0.209333"},"context":"","outcome_status":{"category":"Status update unavailable","date":"2019-09"},"persistent_id":"4e565e90620b6ca167eb7bc5663704318b61f3465c0d68ac10545a70d7d44138","id":74353606,"location_subtype":"","month":"2019-05"},{"category":"bicycle-theft","location_type":"Force","location":{"latitude":"51.509005","street":{"id":957289,"name":"On or near Pedestrian Subway"},"longitude":"-0.196412"},"context":"","outcome_status":{"category":"Status update unavailable","date":"2019-09"},"persistent_id":"6f4f1aa92efb7dc0534f3c740779d378351e132cfd122161979a9a48525178a8","id":74296571,"location_subtype":"","month":"2019-05"},{"category":"bicycle-theft","location_type":"Force","location":{"latitude":"51.492797","street":{"id":950229,"name":"On or near Nevern Road"},"longitude":"-0.197973"},"context":"","outcome_status":{"category":"Status update unavailable","date":"2019-09"},"persistent_id":"6eaacbb3e1b07a2ad3382c114d4fffdd85344c6c91c19e58d75a45b7740ce06a","id":74346139,"location_subtype":"","month":"2019-05"},{"category":"bicycle-theft","location_type":"Force","location":{"latitude":"51.509933","street":{"id":957221,"name":"On or near Linden Mews"},"longitude":"-0.195352"},"context":"","outcome_status":{"category":"Status update unavailable","date":"2019-09"},"persistent_id":"0852a117fc474795decfe2f862dc3a52fdfb70cd6c657e3708d90489efe5ffe8","id":74341274,"location_subtype":"","month":"2019-05"},{"category":"bicycle-theft","location_type":"Force","location":{"latitude":"51.492797","street":{"id":950229,"name":"On or near Nevern Road"},"longitude":"-0.197973"},"context":"","outcome_status":{"category":"Status update unavailable","date":"2019-09"},"persistent_id":"32ff5ad4d63e315530a690b1e5a86b4228b503a43013a2716f65036f79d4c18b","id":74343085,"location_subtype":"","month":"2019-05"},{"category":"bicycle-theft","location_type":"Force","location":{"latitude":"51.513452","street":{"id":957141,"name":"On or near Denbigh Road"},"longitude":"-0.200834"},"context":"","outcome_status":{"category":"Status update unavailable","date":"2019-09"},"persistent_id":"b057c1ed2b15934018282d17846af8c5c87f5937f2b62123baad6c0416c3f9ef","id":74330630,"location_subtype":"","month":"2019-05"},{"category":"bicycle-theft","location_type":"Force","location":{"latitude":"51.511338","street":{"id":957259,"name":"On or near Portobello Mews"},"longitude":"-0.198453"},"context":"","outcome_status":{"category":"Status update unavailable","date":"2019-09"},"persistent_id":"06e66e134992e447b6a48863d66099d71afa61e1557288409584810871ab3097","id":74329805,"location_subtype":"","month":"2019-05"},{"category":"bicycle-theft","location_type":"Force","location":{"latitude":"51.496004","street":{"id":953000,"name":"On or near Further\/higher Educational Building"},"longitude":"-0.179695"},"context":"","outcome_status":{"category":"Status update unavailable","date":"2019-09"},"persistent_id":"377d6886e102f071382add6fd936625974d27c528bcabae8f3d0b8676a641ee4","id":74336173,"location_subtype":"","month":"2019-05"},{"category":"bicycle-theft","location_type":"Force","location":{"latitude":"51.500683","street":{"id":952931,"name":"On or near Reston Place"},"longitude":"-0.183327"},"context":"","outcome_status":{"category":"Status update unavailable","date":"2019-09"},"persistent_id":"d8776c42814a3e45bcc4ea8d22dc02f3ed7e08e40d735288c6db2f0380f34bae","id":74328610,"location_subtype":"","month":"2019-05"},{"category":"bicycle-theft","location_type":"Force","location":{"latitude":"51.510297","street":{"id":957222,"name":"On or near Linden Gardens"},"longitude":"-0.194459"},"context":"","outcome_status":{"category":"Status update unavailable","date":"2019-09"},"persistent_id":"918dc634af2aefa4025e96f528fa4d9a1478ac72f2c2fac57200913808944fd9","id":74328427,"location_subtype":"","month":"2019-05"},{"category":"bicycle-theft","location_type":"Force","location":{"latitude":"51.499603","street":{"id":952863,"name":"On or near Further\/higher Educational Building"},"longitude":"-0.174624"},"context":"","outcome_status":{"category":"Status update unavailable","date":"2019-09"},"persistent_id":"fd95f2a477ab9e4dc02d16ebccd7e29c35d32c223e2363c57882b9938548bcc9","id":74333390,"location_subtype":"","month":"2019-05"},{"category":"bicycle-theft","location_type":"Force","location":{"latitude":"51.511338","street":{"id":957259,"name":"On or near Portobello Mews"},"longitude":"-0.198453"},"context":"","outcome_status":{"category":"Status update unavailable","date":"2019-09"},"persistent_id":"bab0f0a3b795129f9552ca3151814a364144df84b2e561b9a3de93da4b6647f7","id":74300043,"location_subtype":"","month":"2019-05"},{"category":"bicycle-theft","location_type":"Force","location":{"latitude":"51.501998","street":{"id":952944,"name":"On or near Nightclub"},"longitude":"-0.188115"},"context":"","outcome_status":{"category":"Status update unavailable","date":"2019-09"},"persistent_id":"f5b285fea2be71613d5beb45566e3ee59d6aa761eb5024557c51f7ba1d11ebfa","id":74317786,"location_subtype":"","month":"2019-05"},{"category":"bicycle-theft","location_type":"Force","location":{"latitude":"51.501998","street":{"id":952944,"name":"On or near Nightclub"},"longitude":"-0.188115"},"context":"","outcome_status":{"category":"Status update unavailable","date":"2019-09"},"persistent_id":"f5b285fea2be71613d5beb45566e3ee59d6aa761eb5024557c51f7ba1d11ebfa","id":74317785,"location_subtype":"","month":"2019-05"},{"category":"bicycle-theft","location_type":"Force","location":{"latitude":"51.501998","street":{"id":952944,"name":"On or near Nightclub"},"longitude":"-0.188115"},"context":"","outcome_status":{"category":"Status update unavailable","date":"2019-09"},"persistent_id":"f5b285fea2be71613d5beb45566e3ee59d6aa761eb5024557c51f7ba1d11ebfa","id":74317784,"location_subtype":"","month":"2019-05"},{"category":"bicycle-theft","location_type":"Force","location":{"latitude":"51.498582","street":{"id":952675,"name":"On or near Kensington High Street"},"longitude":"-0.200468"},"context":"","outcome_status":{"category":"Status update unavailable","date":"2019-09"},"persistent_id":"792c073c3f360288ca1e4cae54054258724244643acc3694b6f4067d6edf5135","id":74317762,"location_subtype":"","month":"2019-05"},{"category":"bicycle-theft","location_type":"Force","location":{"latitude":"51.512199","street":{"id":956963,"name":"On or near Queensborough Terrace"},"longitude":"-0.185434"},"context":"","outcome_status":{"category":"Status update unavailable","date":"2019-09"},"persistent_id":"00e1f694258f2275bf790ad123f0c81381a7c6e033afaea6f55e624c046e1544","id":74366902,"location_subtype":"","month":"2019-05"},{"category":"bicycle-theft","location_type":"Force","location":{"latitude":"51.498308","street":{"id":952851,"name":"On or near Wells Way"},"longitude":"-0.178638"},"context":"","outcome_status":{"category":"Status update unavailable","date":"2019-09"},"persistent_id":"2d113a76a2060c67e8bfb34192b89eef4381f3c7072449cb3011ee763107d850","id":74366610,"location_subtype":"","month":"2019-05"},{"category":"bicycle-theft","location_type":"Force","location":{"latitude":"51.500682","street":{"id":952879,"name":"On or near Jay Mews"},"longitude":"-0.179235"},"context":"","outcome_status":{"category":"Status update unavailable","date":"2019-09"},"persistent_id":"bc00ad7e46197a82243718b7828c45d69c8a6a0b9ab9a72e2ae17dff7baf7802","id":74302603,"location_subtype":"","month":"2019-05"},{"category":"bicycle-theft","location_type":"Force","location":{"latitude":"51.498000","street":{"id":952907,"name":"On or near Kelso Place"},"longitude":"-0.188980"},"context":"","outcome_status":{"category":"Status update unavailable","date":"2019-09"},"persistent_id":"c867d459b1c3d838e813b97b36c3e6ca6c63c512e687978246735ad39d8c6ae4","id":74302625,"location_subtype":"","month":"2019-05"},{"category":"burglary","location_type":"Force","location":{"latitude":"51.512186","street":{"id":956984,"name":"On or near Inverness Place"},"longitude":"-0.186962"},