[{"category":"anti-social-behaviour","location_type":"Force","location":{"latitude":"51.571556","street":{"id":975136,"name":"On or near Sports\/recreation Area"},"longitude":"-0.101193"},"context":"","outcome_status":null,"persistent_id":"","id":74279842,"location_subtype":"","month":"2019-05"},{"category":"anti-social-behaviour","location_type":"Force","location":{"latitude":"51.571556","street":{"id":975136,"name":"On or near Sports\/recreation Area"},"longitude":"-0.101193"},"context":"","outcome_status":null,"persistent_id":"","id":74279844,"location_subtype":"","month":"2019-05"},{"category":"anti-social-behaviour","location_type":"Force","location":{"latitude":"51.571556","street":{"id":975136,"name":"On or near Sports\/recreation Area"},"longitude":"-0.101193"},"context":"","outcome_status":null,"persistent_id":"","id":74279845,"location_subtype":"","month":"2019-05"},{"category":"anti-social-behaviour","location_type":"Force","location":{"latitude":"51.571556","street":{"id":975136,"name":"On or near Sports\/recreation Area"},"longitude":"-0.101193"},"context":"","outcome_status":null,"persistent_id":"","id":74279846,"location_subtype":"","month":"2019-05"},{"category":"anti-social-behaviour","location_type":"Force","location":{"latitude":"51.571556","street":{"id":975136,"name":"On or near Sports\/recreation Area"},"longitude":"-0.101193"},"context":"","outcome_status":null,"persistent_id":"","id":74279847,"location_subtype":"","month":"2019-05"},{"category":"anti-social-behaviour","location_type":"Force","location":{"latitude":"51.571556","street":{"id":975136,"name":"On or near Sports\/recreation Area"},"longitude":"-0.101193"},"context":"","outcome_status":null,"persistent_id":"","id":74279848,"location_subtype":"","month":"2019-05"},{"category":"anti-social-behaviour","location_type":"Force","location":{"latitude":"51.586466","street":{"id":978164,"name":"On or near Green Lanes"},"longitude":"-0.100715"},"context":"","outcome_status":null,"persistent_id":"","id":74279852,"location_subtype":"","month":"2019-05"},{"category":"anti-social-behaviour","location_type":"Force","location":{"latitude":"51.586466","street":{"id":978164,"name":"On or near Green Lanes"},"longitude":"-0.100715"},"context":"","outcome_status":null,"persistent_id":"","id":74279853,"location_subtype":"","month":"2019-05"},{"category":"anti-social-behaviour","location_type":"Force","location":{"latitude":"51.586466","street":{"id":978164,"name":"On or near Green Lanes"},"longitude":"-0.100715"},"context":"","outcome_status":null,"persistent_id":"","id":74279854,"location_subtype":"","month":"2019-05"},{"category":"anti-social-behaviour","location_type":"Force","location":{"latitude":"51.586466","street":{"id":978164,"name":"On or near Green Lanes"},"longitude":"-0.100715"},"context":"","outcome_status":null,"persistent_id":"","id":74279855,"location_subtype":"","month":"2019-05"},{"category":"anti-social-behaviour","location_type":"Force","location":{"latitude":"51.590347","street":{"id":978170,"name":"On or near Crescent Road"},"longitude":"-0.101044"},"context":"","outcome_status":null,"persistent_id":"","id":74279856,"location_subtype":"","month":"2019-05"},{"category":"anti-social-behaviour","location_type":"Force","location":{"latitude":"51.590347","street":{"id":978170,"name":"On or near Crescent Road"},"longitude":"-0.101044"},"context":"","outcome_status":null,"persistent_id":"","id":74279858,"location_subtype":"","month":"2019-05"},{"category":"anti-social-behaviour","location_type":"Force","location":{"latitude":"51.590347","street":{"id":978170,"name":"On or near Crescent Road"},"longitude":"-0.101044"},"context":"","outcome_status":null,"persistent_id":"","id":74279859,"location_subtype":"","month":"2019-05"},{"category":"anti-social-behaviour","location_type":"Force","location":{"latitude":"51.590347","street":{"id":978170,"name":"On or near Crescent Road"},"longitude":"-0.101044"},"context":"","outcome_status":null,"persistent_id":"","id":74279860,"location_subtype":"","month":"2019-05"},{"category":"anti-social-behaviour","location_type":"Force","location":{"latitude":"51.590347","street":{"id":978170,"name":"On or near Crescent Road"},"longitude":"-0.101044"},"context":"","outcome_status":null,"persistent_id":"","id":74279861,"location_subtype":"","month":"2019-05"},{"category":"anti-social-behaviour","location_type":"Force","location":{"latitude":"51.590347","street":{"id":978170,"name":"On or near Crescent Road"},"longitude":"-0.101044"},"context":"","outcome_status":null,"persistent_id":"","id":74279862,"location_subtype":"","month":"2019-05"},{"category":"anti-social-behaviour","location_type":"Force","location":{"latitude":"51.588069","street":{"id":978139,"name":"On or near West Green Road"},"longitude":"-0.100273"},"context":"","outcome_status":null,"persistent_id":"","id":74279863,"location_subtype":"","month":"2019-05"},{"category":"anti-social-behaviour","location_type":"Force","location":{"latitude":"51.588069","street":{"id":978139,"name":"On or near West Green Road"},"longitude":"-0.100273"},"context":"","outcome_status":null,"persistent_id":"","id":74279864,"location_subtype":"","month":"2019-05"},{"category":"anti-social-behaviour","location_type":"Force","location":{"latitude":"51.588069","street":{"id":978139,"name":"On or near West Green Road"},"longitude":"-0.100273"},"context":"","outcome_status":null,"persistent_id":"","id":74279865,"location_subtype":"","month":"2019-05"},{"category":"anti-social-behaviour","location_type":"Force","location":{"latitude":"51.588069","street":{"id":978139,"name":"On or near West Green Road"},"longitude":"-0.100273"},"context":"","outcome_status":null,"persistent_id":"","id":74279866,"location_subtype":"","month":"2019-05"},{"category":"anti-social-behaviour","location_type":"Force","location":{"latitude":"51.588069","street":{"id":978139,"name":"On or near West Green Road"},"longitude":"-0.100273"},"context":"","outcome_status":null,"persistent_id":"","id":74279867,"location_subtype":"","month":"2019-05"},{"category":"anti-social-behaviour","location_type":"Force","location":{"latitude":"51.574637","street":{"id":974901,"name":"On or near Endymion Road"},"longitude":"-0.102695"},"context":"","outcome_status":null,"persistent_id":"","id":74279868,"location_subtype":"","month":"2019-05"},{"category":"anti-social-behaviour","location_type":"Force","location":{"latitude":"51.591440","street":{"id":978166,"name":"On or near Frome Road"},"longitude":"-0.101331"},"context":"","outcome_status":null,"persistent_id":"","id":74279869,"location_subtype":"","month":"2019-05"},{"category":"anti-social-behaviour","location_type":"Force","location":{"latitude":"51.591440","street":{"id":978166,"name":"On or near Frome Road"},"longitude":"-0.101331"},"context":"","outcome_status":null,"persistent_id":"","id":74279870,"location_subtype":"","month":"2019-05"},{"category":"anti-social-behaviour","location_type":"Force","location":{"latitude":"51.582493","street":{"id":974899,"name":"On or near Hewitt Road"},"longitude":"-0.103017"},"context":"","outcome_status":null,"persistent_id":"","id":74279876,"location_subtype":"","month":"2019-05"},{"category":"anti-social-behaviour","location_type":"Force","location":{"latitude":"51.586527","street":{"id":978369,"name":"On or near Frobisher Road"},"longitude":"-0.104451"},"context":"","outcome_status":null,"persistent_id":"","id":74279881,"location_subtype":"","month":"2019-05"},{"category":"anti-social-behaviour","location_type":"Force","location":{"latitude":"51.581202","street":{"id":974885,"name":"On or near Warham Road"},"longitude":"-0.102710"},"context":"","outcome_status":null,"persistent_id":"","id":74279884,"location_subtype":"","month":"2019-05"},{"category":"anti-social-behaviour","location_type":"Force","location":{"latitude":"51.577723","street":{"id":974891,"name":"On or near Railway Approach"},"longitude":"-0.104414"},"context":"","outcome_status":null,"persistent_id":"","id":74279885,"location_subtype":"","month":"2019-05"},{"category":"anti-social-behaviour","location_type":"Force","location":{"latitude":"51.574657","street":{"id":975247,"name":"On or near Holmdale Terrace"},"longitude":"-0.076847"},"context":"","outcome_status":null,"persistent_id":"","id":74279357,"location_subtype":"","month":"2019-05"},{"category":"anti-social-behaviour","location_type":"Force","location":{"latitude":"51.574657","street":{"id":975247,"name":"On or near Holmdale Terrace"},"longitude":"-0.076847"},"context":"","outcome_status":null,"persistent_id":"","id":74279358,"location_subtype":"","month":"2019-05"},{"category":"anti-social-behaviour","location_type":"Force","location":{"latitude":"51.574657","street":{"id":975247,"name":"On or near Holmdale Terrace"},"longitude":"-0.076847"},"context":"","outcome_status":null,"persistent_id":"","id":74279359,"location_subtype":"","month":"2019-05"},{"category":"anti-social-behaviour","location_type":"Force","location":{"latitude":"51.570072","street":{"id":971724,"name":"On or near East Bank"},"longitude":"-0.078007"},"context":"","outcome_status":null,"persistent_id":"","id":74279368,"location_subtype":"","month":"2019-05"},{"category":"anti-social-behaviour","location_type":"Force","location":{"latitude":"51.569972","street":{"id":971717,"name":"On or near St Andrew's Mews"},"longitude":"-0.079007"},"context":"","outcome_status":null,"persistent_id":"","id":74279397,"location_subtype":"","month":"2019-05"},{"category":"anti-social-behaviour","location_type":"Force","location":{"latitude":"51.573124","street":{"id":975258,"name":"On or near Durley Road"},"longitude":"-0.079322"},"context":"","outcome_status":null,"persistent_id":"","id":74279404,"location_subtype":"","month":"2019-05"},{"category":"anti-social-behaviour","location_type":"Force","location":{"latitude":"51.590719","street":{"id":978332,"name":"On or near Waldegrave Road"},"longitude":"-0.105100"},"context":"","outcome_status":null,"persistent_id":"","id":74280568,"location_subtype":"","month":"2019-05"},{"category":"anti-social-behaviour","location_type":"Force","location":{"latitude":"51.590719","street":{"id":978332,"name":"On or near Waldegrave Road"},"longitude":"-0.105100"},"context":"","outcome_status":null,"persistent_id":"","id":74280569,"location_subtype":"","month":"2019-05"},{"category":"anti-social-behaviour","location_type":"Force","location":{"latitude":"51.590719","street":{"id":978332,"name":"On or near Waldegrave Road"},"longitude":"-0.105100"},"context":"","outcome_status":null,"persistent_id":"","id":74280570,"location_subtype":"","month":"2019-05"},{"category":"anti-social-behaviour","location_type":"Force","location":{"latitude":"51.587046","street":{"id":978360,"name":"On or near Lausanne Road"},"longitude":"-0.105440"},"context":"","outcome_status":null,"persistent_id":"","id":74280578,"location_subtype":"","month":"2019-05"},{"category":"anti-social-behaviour","location_type":"Force","location":{"latitude":"51.590719","street":{"id":978332,"name":"On or near Waldegrave Road"},"longitude":"-0.105100"},"context":"","outcome_status":null,"persistent_id":"","id":74280571,"location_subtype":"","month":"2019-05"},{"category":"anti-social-behaviour","location_type":"Force","location":{"latitude":"51.568298","street":{"id":971911,"name":"On or near St Andrew's Grove"},"longitude":"-0.084475"},"context":"","outcome_status":null,"persistent_id":"","id":74282741,"location_subtype":"","month":"2019-05"},{"category":"anti-social-behaviour","location_type":"Force","location":{"latitude":"51.576728","street":{"id":975083,"name":"On or near Williamson Road"},"longitude":"-0.097975"},"context":"","outcome_status":null,"persistent_id":"","id":74279814,"location_subtype":"","month":"2019-05"},{"category":"anti-social-behaviour","location_type":"Force","location":{"latitude":"51.576728","street":{"id":975083,"name":"On or near Williamson Road"},"longitude":"-0.097975"},"context":"","outcome_status":null,"persistent_id":"","id":74279817,"location_subtype":"","month":"2019-05"},{"category":"anti-social-behaviour","location_type":"Force","location":{"latitude":"51.576728","street":{"id":975083,"name":"On or near Williamson Road"},"longitude":"-0.097975"},"context":"","outcome_status":null,"persistent_id":"","id":74279818,"location_subtype":"","month":"2019-05"},{"category":"anti-social-behaviour","location_type":"Force","location":{"latitude":"51.576728","street":{"id":975083,"name":"On or near Williamson Road"},"longitude":"-0.097975"},"context":"","outcome_status":null,"persistent_id":"","id":74279819,"location_subtype":"","month":"2019-05"},{"category":"anti-social-behaviour","location_type":"Force","location":{"latitude":"51.576728","street":{"id":975083,"name":"On or near Williamson Road"},"longitude":"-0.097975"},"context":"","outcome_status":null,"persistent_id":"","id":74279820,"location_subtype":"","month":"2019-05"},{"category":"anti-social-behaviour","location_type":"Force","location":{"latitude":"51.579437","street":{"id":975113,"name":"On or near Duckett Mews"},"longitude":"-0.099782"},"context":"","outcome_status":null,"persistent_id":"","id":74279823,"location_subtype":"","month":"2019-05"},{"category":"anti-social-behaviour","location_type":"Force","location":{"latitude":"51.579437","street":{"id":975113,"name":"On or near Duckett Mews"},"longitude":"-0.099782"},"context":"","outcome_status":null,"persistent_id":"","id":74279824,"location_subtype":"","month":"2019-05"},{"category":"anti-social-behaviour","location_type":"Force","location":{"latitude":"51.591021","street":{"id":978165,"name":"On or near Graham Road"},"longitude":"-0.099847"},"context":"","outcome_status":null,"persistent_id":"","id":74279828,"location_subtype":"","month":"2019-05"},{"category":"anti-social-behaviour","location_type":"Force","location":{"latitude":"51.582305","street":{"id":975106,"name":"On or near Green Lanes"},"longitude":"-0.099734"},"context":"","outcome_status":null,"persistent_id":"","id":74279829,"location_subtype":"","month":"2019-05"},{"category":"anti-social-behaviour","location_type":"Force","location":{"latitude":"51.582305","street":{"id":975106,"name":"On or near Green Lanes"},"longitude":"-0.099734"},"context":"","outcome_status":null,"persistent_id":"","id":74279831,"location_subtype":"","month":"2019-05"},{"category":"anti-social-behaviour","location_type":"Force","location":{"latitude":"51.582305","street":{"id":975106,"name":"On or near Green Lanes"},"longitude":"-0.099734"},"context":"","outcome_status":null,"persistent_id":"","id":74279832,"location_subtype":"","month":"2019-05"},{"category":"anti-social-behaviour","location_type":"Force","location":{"latitude":"51.582305","street":{"id":975106,"name":"On or near Green Lanes"},"longitude":"-0.099734"},"context":"","outcome_status":null,"persistent_id":"","id":74279833,"location_subtype":"","month":"2019-05"},{"category":"anti-social-behaviour","location_type":"Force","location":{"latitude":"51.591021","street":{"id":978165,"name":"On or near Graham Road"},"longitude":"-0.099847"},"context":"","outcome_status":null,"persistent_id":"","id":74279835,"location_subtype":"","month":"2019-05"},{"category":"anti-social-behaviour","location_type":"Force","location":{"latitude":"51.579437","street":{"id":975113,"name":"On or near Duckett Mews"},"longitude":"-0.099782"},"context":"","outcome_status":null,"persistent_id":"","id":74279836,"location_subtype":"","month":"2019-05"},{"category":"anti-social-behaviour","location_type":"Force","location":{"latitude":"51.579437","street":{"id":975113,"name":"On or near Duckett Mews"},"longitude":"-0.099782"},"context":"","outcome_status":null,"persistent_id":"","id":74279837,"location_subtype":"","month":"2019-05"},{"category":"anti-social-behaviour","location_type":"Force","location":{"latitude":"51.579437","street":{"id":975113,"name":"On or near Duckett Mews"},"longitude":"-0.099782"},"context":"","outcome_status":null,"persistent_id":"","id":74279838,"location_subtype":"","month":"2019-05"},{"category":"anti-social-behaviour","location_type":"Force","location":{"latitude":"51.579437","street":{"id":975113,"name":"On or near Duckett Mews"},"longitude":"-0.099782"},"context":"","outcome_status":null,"persistent_id":"","id":74279839,"location_subtype":"","month":"2019-05"},{"category":"anti-social-behaviour","location_type":"Force","location":{"latitude":"51.571556","street":{"id":975136,"name":"On or near Sports\/recreation Area"},"longitude":"-0.101193"},"context":"","outcome_status":null,"persistent_id":"","id":74279840,"location_subtype":"","month":"2019-05"},{"category":"anti-social-behaviour","location_type":"Force","location":{"latitude":"51.571556","street":{"id":975136,"name":"On or near Sports\/recreation Area"},"longitude":"-0.101193"},"context":"","outcome_status":null,"persistent_id":"","id":74279841,"location_subtype":"","month":"2019-05"},{"category":"anti-social-behaviour","location_type":"Force","location":{"latitude":"51.571556","street":{"id":975136,"name":"On or near Sports\/recreation Area"},"longitude":"-0.101193"},"context":"","outcome_status":null,"persistent_id":"","id":74279843,"location_subtype":"","month":"2019-05"},{"category":"anti-social-behaviour","location_type":"Force","location":{"latitude":"51.566564","street":{"id":972011,"name":"On or near Woodfall Road"},"longitude":"-0.110072"},"context":"","outcome_status":null,"persistent_id":"","id":74281493,"location_subtype":"","month":"2019-05"},{"category":"anti-social-behaviour","location_type":"Force","location":{"latitude":"51.563900","street":{"id":972052,"name":"On or near A1201"},"longitude":"-0.105436"},"context":"","outcome_status":null,"persistent_id":"","id":74281454,"location_subtype":"","month":"2019-05"},{"category":"anti-social-behaviour","location_type":"Force","location":{"latitude":"51.589617","street":{"id":978335,"name":"On or near Turnpike Lane"},"longitude":"-0.106503"},"context":"","outcome_status":null,"persistent_id":"","id":74280602,"location_subtype":"","month":"2019-05"},{"category":"anti-social-behaviour","location_type":"Force","location":{"latitude":"51.569881","street":{"id":971920,"name":"On or near Springpark Drive"},"longitude":"-0.092720"},"context":"","outcome_status":null,"persistent_id":"","id":74282794,"location_subtype":"","month":"2019-05"},{"category":"anti-social-behaviour","location_type":"Force","location":{"latitude":"51.586725","street":{"id":978215,"name":"On or near Mansfield Avenue"},"longitude":"-0.085057"},"context":"","outcome_status":null,"persistent_id":"","id":74289115,"location_subtype":"","month":"2019-05"},{"category":"anti-social-behaviour","location_type":"Force","location":{"latitude":"51.583344","street":{"id":975026,"name":"On or near Newsam Avenue"},"longitude":"-0.084549"},"context":"","outcome_status":null,"persistent_id":"","id":74289111,"location_subtype":"","month":"2019-05"},{"category":"anti-social-behaviour","location_type":"Force","location":{"latitude":"51.583344","street":{"id":975026,"name":"On or near Newsam Avenue"},"longitude":"-0.084549"},"context":"","outcome_status":null,"persistent_id":"","id":74289110,"location_subtype":"","month":"2019-05"},{"category":"anti-social-behaviour","location_type":"Force","location":{"latitude":"51.563591","street":{"id":971855,"name":"On or near Digby Crescent"},"longitude":"-0.095234"},"context":"","outcome_status":null,"persistent_id":"","id":74282792,"location_subtype":"","month":"2019-05"},{"category":"anti-social-behaviour","location_type":"Force","location":{"latitude":"51.583344","street":{"id":975026,"name":"On or near Newsam Avenue"},"longitude":"-0.084549"},"context":"","outcome_status":null,"persistent_id":"","id":74289109,"location_subtype":"","month":"2019-05"},{"category":"anti-social-behaviour","location_type":"Force","location":{"latitude":"51.577952","street":{"id":975021,"name":"On or near Pulford Road"},"longitude":"-0.083679"},"context":"","outcome_status":null,"persistent_id":"","id":74289106,"location_subtype":"","month":"2019-05"},{"category":"anti-social-behaviour","location_type":"Force","location":{"latitude":"51.582334","street":{"id":975264,"name":"On or near Braemar Road"},"longitude":"-0.079987"},"context":"","outcome_status":null,"persistent_id":"","id":74289091,"location_subtype":"","month":"2019-05"},{"category":"anti-social-behaviour","location_type":"Force","location":{"latitude":"51.582334","street":{"id":975264,"name":"On or near Braemar Road"},"longitude":"-0.079987"},"context":"","outcome_status":null,"persistent_id":"","id":74289090,"location_subtype":"","month":"2019-05"},{"category":"anti-social-behaviour","location_type":"Force","location":{"latitude":"51.576545","street":{"id":975253,"name":"On or near Franklin Street"},"longitude":"-0.080621"},"context":"","outcome_status":null,"persistent_id":"","id":74289087,"location_subtype":"","month":"2019-05"},{"category":"anti-social-behaviour","location_type":"Force","location":{"latitude":"51.578595","street":{"id":975263,"name":"On or near Chisley Road"},"longitude":"-0.079553"},"context":"","outcome_status":null,"persistent_id":"","id":74289083,"location_subtype":"","month":"2019-05"},{"category":"anti-social-behaviour","location_type":"Force","location":{"latitude":"51.580994","street":{"id":975220,"name":"On or near Victoria Crescent"},"longitude":"-0.079943"},"context":"","outcome_status":null,"persistent_id":"","id":74289079,"location_subtype":"","month":"2019-05"},{"category":"anti-social-behaviour","location_type":"Force","location":{"latitude":"51.580994","street":{"id":975220,"name":"On or near Victoria Crescent"},"longitude":"-0.079943"},"context":"","outcome_status":null,"persistent_id":"","id":74289078,"location_subtype":"","month":"2019-05"},{"category":"anti-social-behaviour","location_type":"Force","location":{"latitude":"51.576024","street":{"id":975237,"name":"On or near Paignton Road"},"longitude":"-0.079012"},"context":"","outcome_status":null,"persistent_id":"","id":74289075,"location_subtype":"","month":"2019-05"},{"category":"anti-social-behaviour","location_type":"Force","location":{"latitude":"51.578554","street":{"id":975236,"name":"On or near Plevna Crescent"},"longitude":"-0.077606"},"context":"","outcome_status":null,"persistent_id":"","id":74289064,"location_subtype":"","month":"2019-05"},{"category":"anti-social-behaviour","location_type":"Force","location":{"latitude":"51.571065","street":{"id":971986,"name":"On or near Trinder Road"},"longitude":"-0.119280"},"context":"","outcome_status":null,"persistent_id":"","id":74283129,"location_subtype":"","month":"2019-05"},{"category":"anti-social-behaviour","location_type":"Force","location":{"latitude":"51.571065","street":{"id":971986,"name":"On or near Trinder Road"},"longitude":"-0.119280"},"context":"","outcome_status":null,"persistent_id":"","id":74283128,"location_subtype":"","month":"2019-05"},{"category":"anti-social-behaviour","location_type":"Force","location":{"latitude":"51.571113","street":{"id":975137,"name":"On or near Nightclub"},"longitude":"-0.095511"},"context":"","outcome_status":null,"persistent_id":"","id":74282798,"location_subtype":"","month":"2019-05"},{"category":"anti-social-behaviour","location_type":"Force","location":{"latitude":"51.563900","street":{"id":972052,"name":"On or near A1201"},"longitude":"-0.105436"},"context":"","outcome_status":null,"persistent_id":"","id":74281458,"location_subtype":"","month":"2019-05"},{"category":"anti-social-behaviour","location_type":"Force","location":{"latitude":"51.563900","street":{"id":972052,"name":"On or near A1201"},"longitude":"-0.105436"},"context":"","outcome_status":null,"persistent_id":"","id":74281456,"location_subtype":"","month":"2019-05"},{"category":"anti-social-behaviour","location_type":"Force","location":{"latitude":"51.563900","street":{"id":972052,"name":"On or near A1201"},"longitude":"-0.105436"},"context":"","outcome_status":null,"persistent_id":"","id":74281455,"location_subtype":"","month":"2019-05"},{"category":"anti-social-behaviour","location_type":"Force","location":{"latitude":"51.563900","street":{"id":972052,"name":"On or near A1201"},"longitude":"-0.105436"},"context":"","outcome_status":null,"persistent_id":"","id":74281453,"location_subtype":"","month":"2019-05"},{"category":"anti-social-behaviour","location_type":"Force","location":{"latitude":"51.563900","street":{"id":972052,"name":"On or near A1201"},"longitude":"-0.105436"},"context":"","outcome_status":null,"persistent_id":"","id":74281447,"location_subtype":"","month":"2019-05"},{"category":"anti-social-behaviour","location_type":"Force","location":{"latitude":"51.563900","street":{"id":972052,"name":"On or near A1201"},"longitude":"-0.105436"},"context":"","outcome_status":null,"persistent_id":"","id":74281457,"location_subtype":"","month":"2019-05"},{"category":"anti-social-behaviour","location_type":"Force","location":{"latitude":"51.563589","street":{"id":972048,"name":"On or near Blackstock Road"},"longitude":"-0.102895"},"context":"","outcome_status":null,"persistent_id":"","id":74281412,"location_subtype":"","month":"2019-05"},{"category":"anti-social-behaviour","location_type":"Force","location":{"latitude":"51.565584","street":{"id":972106,"name":"On or near Petrol Station"},"longitude":"-0.102812"},"context":"","outcome_status":null,"persistent_id":"","id":74281409,"location_subtype":"","month":"2019-05"},{"category":"anti-social-behaviour","location_type":"Force","location":{"latitude":"51.575193","street":{"id":974967,"name":"On or near Dickenson Road"},"longitude":"-0.121029"},"context":"","outcome_status":null,"persistent_id":"","id":74280729,"location_subtype":"","month":"2019-05"},{"category":"anti-social-behaviour","location_type":"Force","location":{"latitude":"51.582476","street":{"id":974982,"name":"On or near Petrol Station"},"longitude":"-0.119299"},"context":"","outcome_status":null,"persistent_id":"","id":74280715,"location_subtype":"","month":"2019-05"},{"category":"anti-social-behaviour","location_type":"Force","location":{"latitude":"51.577241","street":{"id":974973,"name":"On or near Cecile Park"},"longitude":"-0.119732"},"context":"","outcome_status":null,"persistent_id":"","id":74280708,"location_subtype":"","month":"2019-05"},{"category":"anti-social-behaviour","location_type":"Force","location":{"latitude":"51.577241","street":{"id":974973,"name":"On or near Cecile Park"},"longitude":"-0.119732"},"context":"","outcome_status":null,"persistent_id":"","id":74280707,"location_subtype":"","month":"2019-05"},{"category":"anti-social-behaviour","location_type":"Force","location":{"latitude":"51.577241","street":{"id":974973,"name":"On or near Cecile Park"},"longitude":"-0.119732"},"context":"","outcome_status":null,"persistent_id":"","id":74280706,"location_subtype":"","month":"2019-05"},{"category":"anti-social-behaviour","location_type":"Force","location":{"latitude":"51.577241","street":{"id":974973,"name":"On or near Cecile Park"},"longitude":"-0.119732"},"context":"","outcome_status":null,"persistent_id":"","id":74280705,"location_subtype":"","month":"2019-05"},{"category":"anti-social-behaviour","location_type":"Force","location":{"latitude":"51.581688","street":{"id":974938,"name":"On or near Nelson Road"},"longitude":"-0.117239"},"context":"","outcome_status":null,"persistent_id":"","id":74280691,"location_subtype":"","month":"2019-05"},{"category":"anti-social-behaviour","location_type":"Force","location":{"latitude":"51.583305","street":{"id":974943,"name":"On or near Montague Road"},"longitude":"-0.116018"},"context":"","outcome_status":null,"persistent_id":"","id":74280688,"location_subtype":"","month":"2019-05"},{"category":"anti-social-behaviour","location_type":"Force","location":{"latitude":"51.572841","street":{"id":975134,"name":"On or near Woodberry Grove"},"longitude":"-0.093418"},"context":"","outcome_status":null,"persistent_id":"","id":74282791,"location_subtype":"","month":"2019-05"},{"category":"anti-social-behaviour","location_type":"Force","location":{"latitude":"51.583305","street":{"id":974943,"name":"On or near Montague Road"},"longitude":"-0.116018"},"context":"","outcome_status":null,"persistent_id":"","id":74280685,"location_subtype":"","month":"2019-05"},{"category":"anti-social-behaviour","location_type":"Force","location":{"latitude":"51.573745","street":{"id":974977,"name":"On or near Blythwood Road"},"longitude":"-0.116514"},"context":"","outcome_status":null,"persistent_id":"","id":74280684,"location_subtype":"","month":"2019-05"},{"category":"anti-social-behaviour","location_type":"Force","location":{"latitude":"51.583835","street":{"id":974952,"name":"On or near Harvey Road"},"longitude":"-0.114855"},"context":"","outcome_status":null,"persistent_id":"","id":74280679,"location_subtype":"","month":"2019-05"},{"category":"anti-social-behaviour","location_type":"Force","location":{"latitude":"51.571937","street":{"id":974993,"name":"On or near Mount Pleasant Crescent"},"longitude":"-0.114799"},"context":"","outcome_status":null,"persistent_id":"","id":74280678,"location_subtype":"","month":"2019-05"},{"category":"anti-social-behaviour","location_type":"Force","location":{"latitude":"51.587233","street":{"id":978290,"name":"On or near Gisburn Road"},"longitude":"-0.113661"},"context":"","outcome_status":null,"persistent_id":"","id":74280677,"location_subtype":"","month":"2019-05"},{"category":"anti-social-behaviour","location_type":"Force","location":{"latitude":"51.579235","street":{"id":974896,"name":"On or near Mayfield Road"},"longitude":"-0.112910"},"context":"","outcome_status":null,"persistent_id":"","id":74280669,"location_subtype":"","month":"2019-05"},{"category":"anti-social-behaviour","location_type":"Force","location":{"latitude":"51.579235","street":{"id":974896,"name":"On or near Mayfield Road"},"longitude":"-0.112910"},"context":"","outcome_status":null,"persistent_id":"","id":74280668,"location_subtype":"","month":"2019-05"},{"category":"anti-social-behaviour","location_type":"Force","location":{"latitude":"51.579235","street":{"id":974896,"name":"On or near Mayfield Road"},"longitude":"-0.112910"},"context":"","outcome_status":null,"persistent_id":"","id":74280667,"location_subtype":"","month":"2019-05"},{"category":"anti-social-behaviour","location_type":"Force","location":{"latitude":"51.579235","street":{"id":974896,"name":"On or near Mayfield Road"},"longitude":"-0.112910"},"context":"","outcome_status":null,"persistent_id":"","id":74280653,"location_subtype":"","month":"2019-05"},{"category":"anti-social-behaviour","location_type":"Force","location":{"latitude":"51.588069","street":{"id":978139,"name":"On or near West Green Road"},"longitude":"-0.100273"},"context":"","outcome_status":null,"persistent_id":"","id":74279850,"location_subtype":"","month":"2019-05"},{"category":"anti-social-behaviour","location_type":"Force","location":{"latitude":"51.573091","street":{"id":975008,"name":"On or near Petrol Station"},"longitude":"-0.112746"},"context":"","outcome_status":null,"persistent_id":"","id":74280652,"location_subtype":"","month":"2019-05"},{"category":"anti-social-behaviour","location_type":"Force","location":{"latitude":"51.588894","street":{"id":978361,"name":"On or near Hornsey Park Road"},"longitude":"-0.110142"},"context":"","outcome_status":null,"persistent_id":"","id":74280649,"location_subtype":"","month":"2019-05"},{"category":"anti-social-behaviour","location_type":"Force","location":{"latitude":"51.579265","street":{"id":974903,"name":"On or near Duckett Road"},"longitude":"-0.101939"},"context":"","outcome_status":null,"persistent_id":"","id":74279871,"location_subtype":"","month":"2019-05"},{"category":"anti-social-behaviour","location_type":"Force","location":{"latitude":"51.572841","street":{"id":975134,"name":"On or near Woodberry Grove"},"longitude":"-0.093418"},"context":"","outcome_status":null,"persistent_id":"","id":74282790,"location_subtype":"","month":"2019-05"},{"category":"anti-social-behaviour","location_type":"Force","location":{"latitude":"51.567395","street":{"id":971876,"name":"On or near Henry Road"},"longitude":"-0.096373"},"context":"","outcome_status":null,"persistent_id":"","id":74282805,"location_subtype":"","month":"2019-05"},{"category":"anti-social-behaviour","location_type":"Force","location":{"latitude":"51.568946","street":{"id":971873,"name":"On or near Seven Sisters Road"},"longitude":"-0.098314"},"context":"","outcome_status":null,"persistent_id":"","id":74282812,"location_subtype":"","month":"2019-05"},{"category":"anti-social-behaviour","location_type":"Force","location":{"latitude":"51.569191","street":{"id":972078,"name":"On or near Supermarket"},"longitude":"-0.112359"},"context":"","outcome_status":null,"persistent_id":"","id":74280648,"location_subtype":"","month":"2019-05"},{"category":"anti-social-behaviour","location_type":"Force","location":{"latitude":"51.568946","street":{"id":971873,"name":"On or near Seven Sisters Road"},"longitude":"-0.098314"},"context":"","outcome_status":null,"persistent_id":"","id":74282813,"location_subtype":"","month":"2019-05"},{"category":"anti-social-behaviour","location_type":"Force","location":{"latitude":"51.568946","street":{"id":971873,"name":"On or near Seven Sisters Road"},"longitude":"-0.098314"},"context":"","outcome_status":null,"persistent_id":"","id":74282814,"location_subtype":"","month":"2019-05"},{"category":"anti-social-behaviour","location_type":"Force","location":{"latitude":"51.570864","street":{"id":972068,"name":"On or near Lorne Road"},"longitude":"-0.111856"},"context":"","outcome_status":null,"persistent_id":"","id":74280645,"location_subtype":"","month":"2019-05"},{"category":"anti-social-behaviour","location_type":"Force","location":{"latitude":"51.570864","street":{"id":972068,"name":"On or near Lorne Road"},"longitude":"-0.111856"},"context":"","outcome_status":null,"persistent_id":"","id":74280644,"location_subtype":"","month":"2019-05"},{"category":"anti-social-behaviour","location_type":"Force","location":{"latitude":"51.577476","street":{"id":923763,"name":"On or near Ridge Road"},"longitude":"-0.112001"},"context":"","outcome_status":null,"persistent_id":"","id":74280643,"location_subtype":"","month":"2019-05"},{"category":"anti-social-behaviour","location_type":"Force","location":{"latitude":"51.590719","street":{"id":978332,"name":"On or near Waldegrave Road"},"longitude":"-0.105100"},"context":"","outcome_status":null,"persistent_id":"","id":74280576,"location_subtype":"","month":"2019-05"},{"category":"anti-social-behaviour","location_type":"Force","location":{"latitude":"51.568563","street":{"id":972002,"name":"On or near Evershot Road"},"longitude":"-0.114708"},"context":"","outcome_status":null,"persistent_id":"","id":74283039,"location_subtype":"","month":"2019-05"},{"category":"anti-social-behaviour","location_type":"Force","location":{"latitude":"51.576606","street":{"id":975222,"name":"On or near Thorpe Road"},"longitude":"-0.076115"},"context":"","outcome_status":null,"persistent_id":"","id":74289062,"location_subtype":"","month":"2019-05"},{"category":"anti-social-behaviour","location_type":"Force","location":{"latitude":"51.578595","street":{"id":975263,"name":"On or near Chisley Road"},"longitude":"-0.079553"},"context":"","outcome_status":null,"persistent_id":"","id":74289084,"location_subtype":"","month":"2019-05"},{"category":"anti-social-behaviour","location_type":"Force","location":{"latitude":"51.584714","street":{"id":978248,"name":"On or near Turner Avenue"},"longitude":"-0.080912"},"context":"","outcome_status":null,"persistent_id":"","id":74289085,"location_subtype":"","month":"2019-05"},{"category":"anti-social-behaviour","location_type":"Force","location":{"latitude":"51.581969","street":{"id":975017,"name":"On or near South Grove"},"longitude":"-0.083524"},"context":"","outcome_status":null,"persistent_id":"","id":74289112,"location_subtype":"","month":"2019-05"},{"category":"anti-social-behaviour","location_type":"Force","location":{"latitude":"51.568088","street":{"id":972075,"name":"On or near Athelstane Mews"},"longitude":"-0.110327"},"context":"","outcome_status":null,"persistent_id":"","id":74280631,"location_subtype":"","month":"2019-05"},{"category":"anti-social-behaviour","location_type":"Force","location":{"latitude":"51.587483","street":{"id":978364,"name":"On or near Hampden Road"},"longitude":"-0.106866"},"context":"","outcome_status":null,"persistent_id":"","id":74280617,"location_subtype":"","month":"2019-05"},{"category":"anti-social-behaviour","location_type":"Force","location":{"latitude":"51.589013","street":{"id":978339,"name":"On or near The Mews"},"longitude":"-0.108058"},"context":"","outcome_status":null,"persistent_id":"","id":74280610,"location_subtype":"","month":"2019-05"},{"category":"anti-social-behaviour","location_type":"Force","location":{"latitude":"51.587483","street":{"id":978364,"name":"On or near Hampden Road"},"longitude":"-0.106866"},"context":"","outcome_status":null,"persistent_id":"","id":74280609,"location_subtype":"","month":"2019-05"},{"category":"anti-social-behaviour","location_type":"Force","location":{"latitude":"51.573211","street":{"id":974908,"name":"On or near Cornwall Road"},"longitude":"-0.107906"},"context":"","outcome_status":null,"persistent_id":"","id":74280608,"location_subtype":"","month":"2019-05"},{"category":"anti-social-behaviour","location_type":"Force","location":{"latitude":"51.568061","street":{"id":972071,"name":"On or near Ennis Road"},"longitude":"-0.108077"},"context":"","outcome_status":null,"persistent_id":"","id":74280607,"location_subtype":"","month":"2019-05"},{"category":"anti-social-behaviour","location_type":"Force","location":{"latitude":"51.569793","street":{"id":972065,"name":"On or near Oxford Road"},"longitude":"-0.107860"},"context":"","outcome_status":null,"persistent_id":"","id":74280604,"location_subtype":"","month":"2019-05"},{"category":"anti-social-behaviour","location_type":"Force","location":{"latitude":"51.563591","street":{"id":971855,"name":"On or near Digby Crescent"},"longitude":"-0.095234"},"context":"","outcome_status":null,"persistent_id":"","id":74282795,"location_subtype":"","month":"2019-05"},{"category":"anti-social-behaviour","location_type":"Force","location":{"latitude":"51.589617","street":{"id":978335,"name":"On or near Turnpike Lane"},"longitude":"-0.106503"},"context":"","outcome_status":null,"persistent_id":"","id":74280603,"location_subtype":"","month":"2019-05"},{"category":"anti-social-behaviour","location_type":"Force","location":{"latitude":"51.566661","street":{"id":972017,"name":"On or near Stroud Green Road"},"longitude":"-0.107716"},"context":"","outcome_status":null,"persistent_id":"","id":74280598,"location_subtype":"","month":"2019-05"},{"category":"anti-social-behaviour","location_type":"Force","location":{"latitude":"51.566661","street":{"id":972017,"name":"On or near Stroud Green Road"},"longitude":"-0.107716"},"context":"","outcome_status":null,"persistent_id":"","id":74280597,"location_subtype":"","month":"2019-05"},{"category":"anti-social-behaviour","location_type":"Force","location":{"latitude":"51.573826","street":{"id":974911,"name":"On or near Beatrice Road"},"longitude":"-0.105889"},"context":"","outcome_status":null,"persistent_id":"","id":74280594,"location_subtype":"","month":"2019-05"},{"category":"anti-social-behaviour","location_type":"Force","location":{"latitude":"51.583260","street":{"id":975069,"name":"On or near Alexandra Road"},"longitude":"-0.086588"},"context":"","outcome_status":null,"persistent_id":"","id":74279754,"location_subtype":"","month":"2019-05"},{"category":"anti-social-behaviour","location_type":"Force","location":{"latitude":"51.576728","street":{"id":975083,"name":"On or near Williamson Road"},"longitude":"-0.097975"},"context":"","outcome_status":null,"persistent_id":"","id":74279815,"location_subtype":"","month":"2019-05"},{"category":"anti-social-behaviour","location_type":"Force","location":{"latitude":"51.576728","street":{"id":975083,"name":"On or near Williamson Road"},"longitude":"-0.097975"},"context":"","outcome_status":null,"persistent_id":"","id":74279816,"location_subtype":"","month":"2019-05"},{"category":"anti-social-behaviour","location_type":"Force","location":{"latitude":"51.579437","street":{"id":975113,"name":"On or near Duckett Mews"},"longitude":"-0.099782"},"context":"","outcome_status":null,"persistent_id":"","id":74279825,"location_subtype":"","month":"2019-05"},{"category":"anti-social-behaviour","location_type":"Force","location":{"latitude":"51.579437","street":{"id":975113,"name":"On or near Duckett Mews"},"longitude":"-0.099782"},"context":"","outcome_status":null,"persistent_id":"","id":74279826,"location_subtype":"","month":"2019-05"},{"category":"anti-social-behaviour","location_type":"Force","location":{"latitude":"51.571556","street":{"id":975136,"name":"On or near Sports\/recreation Area"},"longitude":"-0.101193"},"context":"","outcome_status":null,"persistent_id":"","id":74279849,"location_subtype":"","month":"2019-05"},{"category":"anti-social-behaviour","location_type":"Force","location":{"latitude":"51.586466","street":{"id":978164,"name":"On or near Green Lanes"},"longitude":"-0.100715"},"context":"","outcome_status":null,"persistent_id":"","id":74279851,"location_subtype":"","month":"2019-05"},{"category":"anti-social-behaviour","location_type":"Force","location":{"latitude":"51.572841","street":{"id":975134,"name":"On or near Woodberry Grove"},"longitude":"-0.093418"},"context":"","outcome_status":null,"persistent_id":"","id":74282797,"location_subtype":"","month":"2019-05"},{"category":"anti-social-behaviour","location_type":"Force","location":{"latitude":"51.568725","street":{"id":972055,"name":"On or near Woodstock Road"},"longitude":"-0.106880"},"context":"","outcome_status":null,"persistent_id":"","id":74280593,"location_subtype":"","month":"2019-05"},{"category":"anti-social-behaviour","location_type":"Force","location":{"latitude":"51.568725","street":{"id":972055,"name":"On or near Woodstock Road"},"longitude":"-0.106880"},"context":"","outcome_status":null,"persistent_id":"","id":74280592,"location_subtype":"","month":"2019-05"},{"category":"anti-social-behaviour","location_type":"Force","location":{"latitude":"51.572554","street":{"id":975141,"name":"On or near Seven Sisters Road"},"longitude":"-0.090674"},"context":"","outcome_status":null,"persistent_id":"","id":74282784,"location_subtype":"","month":"2019-05"},{"category":"anti-social-behaviour","location_type":"Force","location":{"latitude":"51.563900","street":{"id":972052,"name":"On or near A1201"},"longitude":"-0.105436"},"context":"","outcome_status":null,"persistent_id":"","id":74281459,"location_subtype":"","month":"2019-05"},{"category":"anti-social-behaviour","location_type":"Force","location":{"latitude":"51.563900","street":{"id":972052,"name":"On or near A1201"},"longitude":"-0.105436"},"context":"","outcome_status":null,"persistent_id":"","id":74281460,"location_subtype":"","month":"2019-05"},{"category":"anti-social-behaviour","location_type":"Force","location":{"latitude":"51.563900","street":{"id":972052,"name":"On or near A1201"},"longitude":"-0.105436"},"context":"","outcome_status":null,"persistent_id":"","id":74281461,"location_subtype":"","month":"2019-05"},{"category":"anti-social-behaviour","location_type":"Force","location":{"latitude":"51.564585","street":{"id":972019,"name":"On or near Station Place"},"longitude":"-0.105566"},"context":"","outcome_status":null,"persistent_id":"","id":74281465,"location_subtype":"","month":"2019-05"},{"category":"anti-social-behaviour","location_type":"Force","location":{"latitude":"51.564585","street":{"id":972019,"name":"On or near Station Place"},"longitude":"-0.105566"},"context":"","outcome_status":null,"persistent_id":"","id":74281466,"location_subtype":"","month":"2019-05"},{"category":"anti-social-behaviour","location_type":"Force","location":{"latitude":"51.564585","street":{"id":972019,"name":"On or near Station Place"},"longitude":"-0.105566"},"context":"","outcome_status":null,"persistent_id":"","id":74281467,"location_subtype":"","month":"2019-05"},{"category":"anti-social-behaviour","location_type":"Force","location":{"latitude":"51.564585","street":{"id":972019,"name":"On or near Station Place"},"longitude":"-0.105566"},"context":"","outcome_status":null,"persistent_id":"","id":74281468,"location_subtype":"","month":"2019-05"},{"category":"anti-social-behaviour","location_type":"Force","location":{"latitude":"51.565846","street":{"id":972046,"name":"On or near Clifton Terrace"},"longitude":"-0.108443"},"context":"","outcome_status":null,"persistent_id":"","id":74281491,"location_subtype":"","month":"2019-05"},{"category":"anti-social-behaviour","location_type":"Force","location":{"latitude":"51.565846","street":{"id":972046,"name":"On or near Clifton Terrace"},"longitude":"-0.108443"},"context":"","outcome_status":null,"persistent_id":"","id":74281492,"location_subtype":"","month":"2019-05"},{"category":"anti-social-behaviour","location_type":"Force","location":{"latitude":"51.565290","street":{"id":972041,"name":"On or near Fonthill Road"},"longitude":"-0.109649"},"context":"","outcome_status":null,"persistent_id":"","id":74281495,"location_subtype":"","month":"2019-05"},{"category":"anti-social-behaviour","location_type":"Force","location":{"latitude":"51.565290","street":{"id":972041,"name":"On or near Fonthill Road"},"longitude":"-0.109649"},"context":"","outcome_status":null,"persistent_id":"","id":74281499,"location_subtype":"","month":"2019-05"},{"category":"anti-social-behaviour","location_type":"Force","location":{"latitude":"51.565290","street":{"id":972041,"name":"On or near Fonthill Road"},"longitude":"-0.109649"},"context":"","outcome_status":null,"persistent_id":"","id":74281500,"location_subtype":"","month":"2019-05"},{"category":"anti-social-behaviour","location_type":"Force","location":{"latitude":"51.565290","street":{"id":972041,"name":"On or near Fonthill Road"},"longitude":"-0.109649"},"context":"","outcome_status":null,"persistent_id":"","id":74281501,"location_subtype":"","month":"2019-05"},{"category":"anti-social-behaviour","location_type":"Force","location":{"latitude":"51.567308","street":{"id":972074,"name":"On or near Charteris Road"},"longitude":"-0.109883"},"context":"","outcome_status":null,"persistent_id":"","id":74281509,"location_subtype":"","month":"2019-05"},{"category":"anti-social-behaviour","location_type":"Force","location":{"latitude":"51.566564","street":{"id":972011,"name":"On or near Woodfall Road"},"longitude":"-0.110072"},"context":"","outcome_status":null,"persistent_id":"","id":74281511,"location_subtype":"","month":"2019-05"},{"category":"anti-social-behaviour","location_type":"Force","location":{"latitude":"51.568137","street":{"id":972073,"name":"On or near Charteris Road"},"longitude":"-0.111133"},"context":"","outcome_status":null,"persistent_id":"","id":74281523,"location_subtype":"","month":"2019-05"},{"category":"anti-social-behaviour","location_type":"Force","location":{"latitude":"51.572702","street":{"id":975038,"name":"On or near Cranwich Road"},"longitude":"-0.080999"},"context":"","outcome_status":null,"persistent_id":"","id":74282704,"location_subtype":"","month":"2019-05"},{"category":"anti-social-behaviour","location_type":"Force","location":{"latitude":"51.572419","street":{"id":975138,"name":"On or near Bethune Road"},"longitude":"-0.082425"},"context":"","outcome_status":null,"persistent_id":"","id":74282725,"location_subtype":"","month":"2019-05"},{"category":"anti-social-behaviour","location_type":"Force","location":{"latitude":"51.572419","street":{"id":975138,"name":"On or near Bethune Road"},"longitude":"-0.082425"},"context":"","outcome_status":null,"persistent_id":"","id":74282726,"location_subtype":"","month":"2019-05"},{"category":"anti-social-behaviour","location_type":"Force","location":{"latitude":"51.572419","street":{"id":975138,"name":"On or near Bethune Road"},"longitude":"-0.082425"},"context":"","outcome_status":null,"persistent_id":"","id":74282727,"location_subtype":"","month":"2019-05"},{"category":"anti-social-behaviour","location_type":"Force","location":{"latitude":"51.568298","street":{"id":971911,"name":"On or near St Andrew's Grove"},"longitude":"-0.084475"},"context":"","outcome_status":null,"persistent_id":"","id":74282742,"location_subtype":"","month":"2019-05"},{"category":"anti-social-behaviour","location_type":"Force","location":{"latitude":"51.568298","street":{"id":971911,"name":"On or near St Andrew's Grove"},"longitude":"-0.084475"},"context":"","outcome_status":null,"persistent_id":"","id":74282743,"location_subtype":"","month":"2019-05"},{"category":"anti-social-behaviour","location_type":"Force","location":{"latitude":"51.568298","street":{"id":971911,"name":"On or near St Andrew's Grove"},"longitude":"-0.084475"},"context":"","outcome_status":null,"persistent_id":"","id":74282744,"location_subtype":"","month":"2019-05"},{"category":"anti-social-behaviour","location_type":"Force","location":{"latitude":"51.568298","street":{"id":971911,"name":"On or near St Andrew's Grove"},"longitude":"-0.084475"},"context":"","outcome_status":null,"persistent_id":"","id":74282745,"location_subtype":"","month":"2019-05"},{"category":"anti-social-behaviour","location_type":"Force","location":{"latitude":"51.573612","street":{"id":975057,"name":"On or near Seven Sisters Road"},"longitude":"-0.087715"},"context":"","outcome_status":null,"persistent_id":"","id":74282772,"location_subtype":"","month":"2019-05"},{"category":"anti-social-behaviour","location_type":"Force","location":{"latitude":"51.573612","street":{"id":975057,"name":"On or near Seven Sisters Road"},"longitude":"-0.087715"},"context":"","outcome_status":null,"persistent_id":"","id":74282773,"location_subtype":"","month":"2019-05"},{"category":"anti-social-behaviour","location_type":"Force","location":{"latitude":"51.573612","street":{"id":975057,"name":"On or near Seven Sisters Road"},"longitude":"-0.087715"},"context":"","outcome_status":null,"persistent_id":"","id":74282774,"location_subtype":"","month":"2019-05"},{"category":"anti-social-behaviour","location_type":"Force","location":{"latitude":"51.573612","street":{"id":975057,"name":"On or near Seven Sisters Road"},"longitude":"-0.087715"},"context":"","outcome_status":null,"persistent_id":"","id":74282781,"location_subtype":"","month":"2019-05"},{"category":"anti-social-behaviour","location_type":"Force","location":{"latitude":"51.572554","street":{"id":975141,"name":"On or near Seven Sisters Road"},"longitude":"-0.090674"},"context":"","outcome_status":null,"persistent_id":"","id":74282785,"location_subtype":"","month":"2019-05"},{"category":"anti-social-behaviour","location_type":"Force","location":{"latitude":"51.569026","street":{"id":971877,"name":"On or near Green Lanes"},"longitude":"-0.094372"},"context":"","outcome_status":null,"persistent_id":"","id":74282796,"location_subtype":"","month":"2019-05"},{"category":"anti-social-behaviour","location_type":"Force","location":{"latitude":"51.571113","street":{"id":975137,"name":"On or near Nightclub"},"longitude":"-0.095511"},"context":"","outcome_status":null,"persistent_id":"","id":74282801,"location_subtype":"","month":"2019-05"},{"category":"anti-social-behaviour","location_type":"Force","location":{"latitude":"51.571113","street":{"id":975137,"name":"On or near Nightclub"},"longitude":"-0.095511"},"context":"","outcome_status":null,"persistent_id":"","id":74282802,"location_subtype":"","month":"2019-05"},{"category":"anti-social-behaviour","location_type":"Force","location":{"latitude":"51.564892","street":{"id":971846,"name":"On or near Myddleton Avenue"},"longitude":"-0.095627"},"context":"","outcome_status":null,"persistent_id":"","id":74282803,"location_subtype":"","month":"2019-05"},{"category":"anti-social-behaviour","location_type":"Force","location":{"latitude":"51.571113","street":{"id":975137,"name":"On or near Nightclub"},"longitude":"-0.095511"},"context":"","outcome_status":null,"persistent_id":"","id":74282804,"location_subtype":"","month":"2019-05"},{"category":"anti-social-behaviour","location_type":"Force","location":{"latitude":"51.567395","street":{"id":971876,"name":"On or near Henry Road"},"longitude":"-0.096373"},"context":"","outcome_status":null,"persistent_id":"","id":74282806,"location_subtype":"","month":"2019-05"},{"category":"anti-social-behaviour","location_type":"Force","location":{"latitude":"51.570989","street":{"id":975133,"name":"On or near Pedestrian Subway"},"longitude":"-0.096194"},"context":"","outcome_status":null,"persistent_id":"","id":74282807,"location_subtype":"","month":"2019-05"},{"category":"anti-social-behaviour","location_type":"Force","location":{"latitude":"51.570989","street":{"id":975133,"name":"On or near Pedestrian Subway"},"longitude":"-0.096194"},"context":"","outcome_status":null,"persistent_id":"","id":74282808,"location_subtype":"","month":"2019-05"},{"category":"anti-social-behaviour","location_type":"Force","location":{"latitude":"51.572994","street":{"id":975098,"name":"On or near Rowley Gardens"},"longitude":"-0.095591"},"context":"","outcome_status":null,"persistent_id":"","id":74282809,"location_subtype":"","month":"2019-05"},{"category":"anti-social-behaviour","location_type":"Force","location":{"latitude":"51.572994","street":{"id":975098,"name":"On or near Rowley Gardens"},"longitude":"-0.095591"},"context":"","outcome_status":null,"persistent_id":"","id":74282810,"location_subtype":"","month":"2019-05"},{"category":"anti-social-behaviour","location_type":"Force","location":{"latitude":"51.566326","street":{"id":971853,"name":"On or near Gloucester Drive"},"longitude":"-0.097558"},"context":"","outcome_status":null,"persistent_id":"","id":74282815,"location_subtype":"","month":"2019-05"},{"category":"anti-social-behaviour","location_type":"Force","location":{"latitude":"51.565344","street":{"id":971843,"name":"On or near Princess Crescent"},"longitude":"-0.098566"},"context":"","outcome_status":null,"persistent_id":"","id":74282816,"location_subtype":"","month":"2019-05"},{"category":"anti-social-behaviour","location_type":"Force","location":{"latitude":"51.565344","street":{"id":971843,"name":"On or near Princess Crescent"},"longitude":"-0.098566"},"context":"","outcome_status":null,"persistent_id":"","id":74282817,"location_subtype":"","month":"2019-05"},{"category":"anti-social-behaviour","location_type":"Force","location":{"latitude":"51.568427","street":{"id":971880,"name":"On or near Brand Close"},"longitude":"-0.098437"},"context":"","outcome_status":null,"persistent_id":"","id":74282818,"location_subtype":"","month":"2019-05"},{"category":"anti-social-behaviour","location_type":"Force","location":{"latitude":"51.568427","street":{"id":971880,"name":"On or near Brand Close"},"longitude":"-0.098437"},"context":"","outcome_status":null,"persistent_id":"","id":74282819,"location_subtype":"","month":"2019-05"},{"category":"anti-social-behaviour","location_type":"Force","location":{"latitude":"51.568427","street":{"id":971880,"name":"On or near Brand Close"},"longitude":"-0.098437"},"context":"","outcome_status":null,"persistent_id":"","id":74282820,"location_subtype":"","month":"2019-05"},{"category":"anti-social-behaviour","location_type":"Force","location":{"latitude":"51.564090","street":{"id":971840,"name":"On or near Somerfield Road"},"longitude":"-0.101056"},"context":"","outcome_status":null,"persistent_id":"","id":74282822,"location_subtype":"","month":"2019-05"},{"category":"anti-social-behaviour","location_type":"Force","location":{"latitude":"51.564090","street":{"id":971840,"name":"On or near Somerfield Road"},"longitude":"-0.101056"},"context":"","outcome_status":null,"persistent_id":"","id":74282823,"location_subtype":"","month":"2019-05"},{"category":"anti-social-behaviour","location_type":"Force","location":{"latitude":"51.564090","street":{"id":971840,"name":"On or near Somerfield Road"},"longitude":"-0.101056"},"context":"","outcome_status":null,"persistent_id":"","id":74282824,"location_subtype":"","month":"2019-05"},{"category":"anti-social-behaviour","location_type":"Force","location":{"latitude":"51.564090","street":{"id":971840,"name":"On or near Somerfield Road"},"longitude":"-0.101056"},"context":"","outcome_status":null,"persistent_id":"","id":74282825,"location_subtype":"","month":"2019-05"},{"category":"anti-social-behaviour","location_type":"Force","location":{"latitude":"51.564090","street":{"id":971840,"name":"On or near Somerfield Road"},"longitude":"-0.101056"},"context":"","outcome_status":null,"persistent_id":"","id":74282826,"location_subtype":"","month":"2019-05"},{"category":"anti-social-behaviour","location_type":"Force","location":{"latitude":"51.564090","street":{"id":971840,"name":"On or near Somerfield Road"},"longitude":"-0.101056"},"context":"","outcome_status":null,"persistent_id":"","id":74282827,"location_subtype":"","month":"2019-05"},{"category":"anti-social-behaviour","location_type":"Force","location":{"latitude":"51.564090","street":{"id":971840,"name":"On or near Somerfield Road"},"longitude":"-0.101056"},"context":"","outcome_status":null,"persistent_id":"","id":74282828,"location_subtype":"","month":"2019-05"},{"category":"anti-social-behaviour","location_type":"Force","location":{"latitude":"51.565584","street":{"id":972106,"name":"On or near Petrol Station"},"longitude":"-0.102812"},"context":"","outcome_status":null,"persistent_id":"","id":74282829,"location_subtype":"","month":"2019-05"},{"category":"anti-social-behaviour","location_type":"Force","location":{"latitude":"51.565584","street":{"id":972106,"name":"On or near Petrol Station"},"longitude":"-0.102812"},"context":"","outcome_status":null,"persistent_id":"","id":74282830,"location_subtype":"","month":"2019-05"},{"category":"anti-social-behaviour","location_type":"Force","location":{"latitude":"51.565584","street":{"id":972106,"name":"On or near Petrol Station"},"longitude":"-0.102812"},"context":"","outcome_status":null,"persistent_id":"","id":74282831,"location_subtype":"","month":"2019-05"},{"category":"anti-social-behaviour","location_type":"Force","location":{"latitude":"51.563589","street":{"id":972048,"name":"On or near Blackstock Road"},"longitude":"-0.102895"},"context":"","outcome_status":null,"persistent_id":"","id":74282832,"location_subtype":"","month":"2019-05"},{"category":"anti-social-behaviour","location_type":"Force","location":{"latitude":"51.568725","street":{"id":972055,"name":"On or near Woodstock Road"},"longitude":"-0.106880"},"context":"","outcome_status":null,"persistent_id":"","id":74280591,"location_subtype":"","month":"2019-05"},{"category":"anti-social-behaviour","location_type":"Force","location":{"latitude":"51.568725","street":{"id":972055,"name":"On or near Woodstock Road"},"longitude":"-0.106880"},"context":"","outcome_status":null,"persistent_id":"","id":74280590,"location_subtype":"","month":"2019-05"},{"category":"anti-social-behaviour","location_type":"Force","location":{"latitude":"51.568725","street":{"id":972055,"name":"On or near Woodstock Road"},"longitude":"-0.106880"},"context":"","outcome_status":null,"persistent_id":"","id":74280589,"location_subtype":"","month":"2019-05"},{"category":"anti-social-behaviour","location_type":"Force","location":{"latitude":"51.577723","street":{"id":974891,"name":"On or near Railway Approach"},"longitude":"-0.104414"},"context":"","outcome_status":null,"persistent_id":"","id":74280586,"location_subtype":"","month":"2019-05"},{"category":"anti-social-behaviour","location_type":"Force","location":{"latitude":"51.585901","street":{"id":978392,"name":"On or near Falkland Road"},"longitude":"-0.104102"},"context":"","outcome_status":null,"persistent_id":"","id":74280585,"location_subtype":"","month":"2019-05"},{"category":"anti-social-behaviour","location_type":"Force","location":{"latitude":"51.574398","street":{"id":974905,"name":"On or near Dagmar Road"},"longitude":"-0.106255"},"context":"","outcome_status":null,"persistent_id":"","id":74280584,"location_subtype":"","month":"2019-05"},{"category":"anti-social-behaviour","location_type":"Force","location":{"latitude":"51.587046","street":{"id":978360,"name":"On or near Lausanne Road"},"longitude":"-0.105440"},"context":"","outcome_status":null,"persistent_id":"","id":74280580,"location_subtype":"","month":"2019-05"},{"category":"anti-social-behaviour","location_type":"Force","location":{"latitude":"51.587046","street":{"id":978360,"name":"On or near Lausanne Road"},"longitude":"-0.105440"},"context":"","outcome_status":null,"persistent_id":"","id":74280579,"location_subtype":"","month":"2019-05"},{"category":"anti-social-behaviour","location_type":"Force","location":{"latitude":"51.590719","street":{"id":978332,"name":"On or near Waldegrave Road"},"longitude":"-0.105100"},"context":"","outcome_status":null,"persistent_id":"","id":74280577,"location_subtype":"","month":"2019-05"},{"category":"anti-social-behaviour","location_type":"Force","location":{"latitude":"51.590719","street":{"id":978332,"name":"On or near Waldegrave Road"},"longitude":"-0.105100"},"context":"","outcome_status":null,"persistent_id":"","id":74280575,"location_subtype":"","month":"2019-05"},{"category":"anti-social-behaviour","location_type":"Force","location":{"latitude":"51.590719","street":{"id":978332,"name":"On or near Waldegrave Road"},"longitude":"-0.105100"},"context":"","outcome_status":null,"persistent_id":"","id":74280574,"location_subtype":"","month":"2019-05"},{"category":"anti-social-behaviour","location_type":"Force","location":{"latitude":"51.590719","street":{"id":978332,"name":"On or near Waldegrave Road"},"longitude":"-0.105100"},"context":"","outcome_status":null,"persistent_id":"","id":74280573,"location_subtype":"","month":"2019-05"},{"category":"anti-social-behaviour","location_type":"Force","location":{"latitude":"51.590719","street":{"id":978332,"name":"On or near Waldegrave Road"},"longitude":"-0.105100"},"context":"","outcome_status":null,"persistent_id":"","id":74280572,"location_subtype":"","month":"2019-05"},{"category":"anti-social-behaviour","location_type":"Force","location":{"latitude":"51.568427","street":{"id":971880,"name":"On or near Brand Close"},"longitude":"-0.098437"},"context":"","outcome_status":null,"persistent_id":"","id":74279712,"location_subtype":"","month":"2019-05"},{"category":"anti-social-behaviour","location_type":"Force","location":{"latitude":"51.568427","street":{"id":971880,"name":"On or near Brand Close"},"longitude":"-0.098437"},"context":"","outcome_status":null,"persistent_id":"","id":74279713,"location_subtype":"","month":"2019-05"},{"category":"anti-social-behaviour","location_type":"Force","location":{"latitude":"51.568427","street":{"id":971880,"name":"On or near Brand Close"},"longitude":"-0.098437"},"context":"","outcome_status":null,"persistent_id":"","id":74279714,"location_subtype":"","month":"2019-05"},{"category":"anti-social-behaviour","location_type":"Force","location":{"latitude":"51.568427","street":{"id":971880,"name":"On or near Brand Close"},"longitude":"-0.098437"},"context":"","outcome_status":null,"persistent_id":"","id":74279715,"location_subtype":"","month":"2019-05"},{"category":"anti-social-behaviour","location_type":"Force","location":{"latitude":"51.586725","street":{"id":978215,"name":"On or near Mansfield Avenue"},"longitude":"-0.085057"},"context":"","outcome_status":null,"persistent_id":"","id":74279729,"location_subtype":"","month":"2019-05"},{"category":"anti-social-behaviour","location_type":"Force","location":{"latitude":"51.584116","street":{"id":978254,"name":"On or near Avenue Road"},"longitude":"-0.084459"},"context":"","outcome_status":null,"persistent_id":"","id":74279730,"location_subtype":"","month":"2019-05"},{"category":"anti-social-behaviour","location_type":"Force","location":{"latitude":"51.585510","street":{"id":978253,"name":"On or near Caradon Way"},"longitude":"-0.085050"},"context":"","outcome_status":null,"persistent_id":"","id":74279732,"location_subtype":"","month":"2019-05"},{"category":"anti-social-behaviour","location_type":"Force","location":{"latitude":"51.583335","street":{"id":975043,"name":"On or near Avenue Road"},"longitude":"-0.084564"},"context":"","outcome_status":null,"persistent_id":"","id":74279733,"location_subtype":"","month":"2019-05"},{"category":"anti-social-behaviour","location_type":"Force","location":{"latitude":"51.584988","street":{"id":978249,"name":"On or near Sturrock Close"},"longitude":"-0.085519"},"context":"","outcome_status":null,"persistent_id":"","id":74279734,"location_subtype":"","month":"2019-05"},{"category":"anti-social-behaviour","location_type":"Force","location":{"latitude":"51.585510","street":{"id":978253,"name":"On or near Caradon Way"},"longitude":"-0.085050"},"context":"","outcome_status":null,"persistent_id":"","id":74279735,"location_subtype":"","month":"2019-05"},{"category":"anti-social-behaviour","location_type":"Force","location":{"latitude":"51.585510","street":{"id":978253,"name":"On or near Caradon Way"},"longitude":"-0.085050"},"context":"","outcome_status":null,"persistent_id":"","id":74279736,"location_subtype":"","month":"2019-05"},{"category":"anti-social-behaviour","location_type":"Force","location":{"latitude":"51.585510","street":{"id":978253,"name":"On or near Caradon Way"},"longitude":"-0.085050"},"context":"","outcome_status":null,"persistent_id":"","id":74279737,"location_subtype":"","month":"2019-05"},{"category":"anti-social-behaviour","location_type":"Force","location":{"latitude":"51.585510","street":{"id":978253,"name":"On or near Caradon Way"},"longitude":"-0.085050"},"context":"","outcome_status":null,"persistent_id":"","id":74279738,"location_subtype":"","month":"2019-05"},{"category":"anti-social-behaviour","location_type":"Force","location":{"latitude":"51.582359","street":{"id":975025,"name":"On or near North Grove"},"longitude":"-0.085890"},"context":"","outcome_status":null,"persistent_id":"","id":74279741,"location_subtype":"","month":"2019-05"},{"category":"anti-social-behaviour","location_type":"Force","location":{"latitude":"51.577599","street":{"id":975054,"name":"On or near Tiverton Road"},"longitude":"-0.086826"},"context":"","outcome_status":null,"persistent_id":"","id":74279743,"location_subtype":"","month":"2019-05"},{"category":"anti-social-behaviour","location_type":"Force","location":{"latitude":"51.588488","street":{"id":978197,"name":"On or near Keston Road"},"longitude":"-0.086772"},"context":"","outcome_status":null,"persistent_id":"","id":74279745,"location_subtype":"","month":"2019-05"},{"category":"anti-social-behaviour","location_type":"Force","location":{"latitude":"51.581684","street":{"id":975067,"name":"On or near Ascot Road"},"longitude":"-0.086943"},"context":"","outcome_status":null,"persistent_id":"","id":74279746,"location_subtype":"","month":"2019-05"},{"category":"anti-social-behaviour","location_type":"Force","location":{"latitude":"51.581684","street":{"id":975067,"name":"On or near Ascot Road"},"longitude":"-0.086943"},"context":"","outcome_status":null,"persistent_id":"","id":74279747,"location_subtype":"","month":"2019-05"},{"category":"anti-social-behaviour","location_type":"Force","location":{"latitude":"51.581684","street":{"id":975067,"name":"On or near Ascot Road"},"longitude":"-0.086943"},"context":"","outcome_status":null,"persistent_id":"","id":74279748,"location_subtype":"","month":"2019-05"},{"category":"anti-social-behaviour","location_type":"Force","location":{"latitude":"51.581684","street":{"id":975067,"name":"On or near Ascot Road"},"longitude":"-0.086943"},"context":"","outcome_status":null,"persistent_id":"","id":74279749,"location_subtype":"","month":"2019-05"},{"category":"anti-social-behaviour","location_type":"Force","location":{"latitude":"51.573612","street":{"id":975057,"name":"On or near Seven Sisters Road"},"longitude":"-0.087715"},"context":"","outcome_status":null,"persistent_id":"","id":74279750,"location_subtype":"","month":"2019-05"},{"category":"anti-social-behaviour","location_type":"Force","location":{"latitude":"51.573612","street":{"id":975057,"name":"On or near Seven Sisters Road"},"longitude":"-0.087715"},"context":"","outcome_status":null,"persistent_id":"","id":74279753,"location_subtype":"","month":"2019-05"},{"category":"anti-social-behaviour","location_type":"Force","location":{"latitude":"51.573612","street":{"id":975057,"name":"On or near Seven Sisters Road"},"longitude":"-0.087715"},"context":"","outcome_status":null,"persistent_id":"","id":74279751,"location_subtype":"","month":"2019-05"},{"category":"anti-social-behaviour","location_type":"Force","location":{"latitude":"51.573612","street":{"id":975057,"name":"On or near Seven Sisters Road"},"longitude":"-0.087715"},"context":"","outcome_status":null,"persistent_id":"","id":74279752,"location_subtype":"","month":"2019-05"},{"category":"anti-social-behaviour","location_type":"Force","location":{"latitude":"51.577460","street":{"id":975064,"name":"On or near Frogwell Close"},"longitude":"-0.087654"},"context":"","outcome_status":null,"persistent_id":"","id":74279755,"location_subtype":"","month":"2019-05"},{"category":"anti-social-behaviour","location_type":"Force","location":{"latitude":"51.583758","street":{"id":975075,"name":"On or near Falmer Road"},"longitude":"-0.088429"},"context":"","outcome_status":null,"persistent_id":"","id":74279756,"location_subtype":"","month":"2019-05"},{"category":"anti-social-behaviour","location_type":"Force","location":{"latitude":"51.583758","street":{"id":975075,"name":"On or near Falmer Road"},"longitude":"-0.088429"},"context":"","outcome_status":null,"persistent_id":"","id":74279757,"location_subtype":"","month":"2019-05"},{"category":"anti-social-behaviour","location_type":"Force","location":{"latitude":"51.586607","street":{"id":978202,"name":"On or near Ashleys Alley"},"longitude":"-0.090547"},"context":"","outcome_status":null,"persistent_id":"","id":74279767,"location_subtype":"","month":"2019-05"},{"category":"anti-social-behaviour","location_type":"Force","location":{"latitude":"51.585239","street":{"id":978247,"name":"On or near Abbotsford Avenue"},"longitude":"-0.090474"},"context":"","outcome_status":null,"persistent_id":"","id":74279768,"location_subtype":"","month":"2019-05"},{"category":"anti-social-behaviour","location_type":"Force","location":{"latitude":"51.586150","street":{"id":978191,"name":"On or near West Green Road"},"longitude":"-0.091172"},"context":"","outcome_status":null,"persistent_id":"","id":74279770,"location_subtype":"","month":"2019-05"},{"category":"anti-social-behaviour","location_type":"Force","location":{"latitude":"51.575924","street":{"id":975063,"name":"On or near Hermitage Road"},"longitude":"-0.091644"},"context":"","outcome_status":null,"persistent_id":"","id":74279773,"location_subtype":"","month":"2019-05"},{"category":"anti-social-behaviour","location_type":"Force","location":{"latitude":"51.583775","street":{"id":975130,"name":"On or near Cranleigh Road"},"longitude":"-0.092759"},"context":"","outcome_status":null,"persistent_id":"","id":74279778,"location_subtype":"","month":"2019-05"},{"category":"anti-social-behaviour","location_type":"Force","location":{"latitude":"51.586150","street":{"id":978191,"name":"On or near West Green Road"},"longitude":"-0.091172"},"context":"","outcome_status":null,"persistent_id":"","id":74279779,"location_subtype":"","month":"2019-05"},{"category":"anti-social-behaviour","location_type":"Force","location":{"latitude":"51.590064","street":{"id":978169,"name":"On or near Crossfield Road"},"longitude":"-0.093564"},"context":"","outcome_status":null,"persistent_id":"","id":74279780,"location_subtype":"","month":"2019-05"},{"category":"anti-social-behaviour","location_type":"Force","location":{"latitude":"51.579948","street":{"id":975084,"name":"On or near Warwick Gardens"},"longitude":"-0.093597"},"context":"","outcome_status":null,"persistent_id":"","id":74279781,"location_subtype":"","month":"2019-05"},{"category":"anti-social-behaviour","location_type":"Force","location":{"latitude":"51.576042","street":{"id":975092,"name":"On or near Surrey Gardens"},"longitude":"-0.093905"},"context":"","outcome_status":null,"persistent_id":"","id":74279782,"location_subtype":"","month":"2019-05"},{"category":"anti-social-behaviour","location_type":"Force","location":{"latitude":"51.576042","street":{"id":975092,"name":"On or near Surrey Gardens"},"longitude":"-0.093905"},"context":"","outcome_status":null,"persistent_id":"","id":74279783,"location_subtype":"","month":"2019-05"},{"category":"anti-social-behaviour","location_type":"Force","location":{"latitude":"51.569026","street":{"id":971877,"name":"On or near Green Lanes"},"longitude":"-0.094372"},"context":"","outcome_status":null,"persistent_id":"","id":74279784,"location_subtype":"","month":"2019-05"},{"category":"anti-social-behaviour","location_type":"Force","location":{"latitude":"51.585715","street":{"id":978260,"name":"On or near Culross Close"},"longitude":"-0.094280"},"context":"","outcome_status":null,"persistent_id":"","id":74279785,"location_subtype":"","month":"2019-05"},{"category":"anti-social-behaviour","location_type":"Force","location":{"latitude":"51.575406","street":{"id":975085,"name":"On or near Vale Terrace"},"longitude":"-0.095216"},"context":"","outcome_status":null,"persistent_id":"","id":74279786,"location_subtype":"","month":"2019-05"},{"category":"anti-social-behaviour","location_type":"Force","location":{"latitude":"51.575406","street":{"id":975085,"name":"On or near Vale Terrace"},"longitude":"-0.095216"},"context":"","outcome_status":null,"persistent_id":"","id":74279787,"location_subtype":"","month":"2019-05"},{"category":"anti-social-behaviour","location_type":"Force","location":{"latitude":"51.575406","street":{"id":975085,"name":"On or near Vale Terrace"},"longitude":"-0.095216"},"context":"","outcome_status":null,"persistent_id":"","id":74279788,"location_subtype":"","month":"2019-05"},{"category":"anti-social-behaviour","location_type":"Force","location":{"latitude":"51.575406","street":{"id":975085,"name":"On or near Vale Terrace"},"longitude":"-0.095216"},"context":"","outcome_status":null,"persistent_id":"","id":74279789,"location_subtype":"","month":"2019-05"},{"category":"anti-social-behaviour","location_type":"Force","location":{"latitude":"51.575406","street":{"id":975085,"name":"On or near Vale Terrace"},"longitude":"-0.095216"},"context":"","outcome_status":null,"persistent_id":"","id":74279790,"location_subtype":"","month":"2019-05"},{"category":"anti-social-behaviour","location_type":"Force","location":{"latitude":"51.575406","street":{"id":975085,"name":"On or near Vale Terrace"},"longitude":"-0.095216"},"context":"","outcome_status":null,"persistent_id":"","id":74279791,"location_subtype":"","month":"2019-05"},{"category":"anti-social-behaviour","location_type":"Force","location":{"latitude":"51.578251","street":{"id":975114,"name":"On or near Doncaster Gardens"},"longitude":"-0.095371"},"context":"","outcome_status":null,"persistent_id":"","id":74279794,"location_subtype":"","month":"2019-05"},{"category":"anti-social-behaviour","location_type":"Force","location":{"latitude":"51.577289","street":{"id":975125,"name":"On or near Supermarket"},"longitude":"-0.095412"},"context":"","outcome_status":null,"persistent_id":"","id":74279795,"location_subtype":"","month":"2019-05"},{"category":"anti-social-behaviour","location_type":"Force","location":{"latitude":"51.582148","street":{"id":975122,"name":"On or near Brampton Road"},"longitude":"-0.094472"},"context":"","outcome_status":null,"persistent_id":"","id":74279797,"location_subtype":"","month":"2019-05"},{"category":"anti-social-behaviour","location_type":"Force","location":{"latitude":"51.578334","street":{"id":975093,"name":"On or near Stanhope Gardens"},"longitude":"-0.096089"},"context":"","outcome_status":null,"persistent_id":"","id":74279798,"location_subtype":"","month":"2019-05"},{"category":"anti-social-behaviour","location_type":"Force","location":{"latitude":"51.578334","street":{"id":975093,"name":"On or near Stanhope Gardens"},"longitude":"-0.096089"},"context":"","outcome_status":null,"persistent_id":"","id":74279799,"location_subtype":"","month":"2019-05"},{"category":"anti-social-behaviour","location_type":"Force","location":{"latitude":"51.588151","street":{"id":978143,"name":"On or near Stanmore Road"},"longitude":"-0.096459"},"context":"","outcome_status":null,"persistent_id":"","id":74279800,"location_subtype":"","month":"2019-05"},{"category":"anti-social-behaviour","location_type":"Force","location":{"latitude":"51.589384","street":{"id":978157,"name":"On or near Langham Road"},"longitude":"-0.095974"},"context":"","outcome_status":null,"persistent_id":"","id":74279801,"location_subtype":"","month":"2019-05"},{"category":"anti-social-behaviour","location_type":"Force","location":{"latitude":"51.580936","street":{"id":975103,"name":"On or near Kimberley Gardens"},"longitude":"-0.097381"},"context":"","outcome_status":null,"persistent_id":"","id":74279802,"location_subtype":"","month":"2019-05"},{"category":"anti-social-behaviour","location_type":"Force","location":{"latitude":"51.590565","street":{"id":978158,"name":"On or near Langham Place"},"longitude":"-0.097816"},"context":"","outcome_status":null,"persistent_id":"","id":74279803,"location_subtype":"","month":"2019-05"},{"category":"anti-social-behaviour","location_type":"Force","location":{"latitude":"51.577885","street":{"id":975101,"name":"On or near Portland Gardens"},"longitude":"-0.097768"},"context":"","outcome_status":null,"persistent_id":"","id":74279805,"location_subtype":"","month":"2019-05"},{"category":"anti-social-behaviour","location_type":"Force","location":{"latitude":"51.575577","street":{"id":975108,"name":"On or near Green Lanes"},"longitude":"-0.098499"},"context":"","outcome_status":null,"persistent_id":"","id":74279806,"location_subtype":"","month":"2019-05"},{"category":"anti-social-behaviour","location_type":"Force","location":{"latitude":"51.576728","street":{"id":975083,"name":"On or near Williamson Road"},"longitude":"-0.097975"},"context":"","outcome_status":null,"persistent_id":"","id":74279807,"location_subtype":"","month":"2019-05"},{"category":"anti-social-behaviour","location_type":"Force","location":{"latitude":"51.585592","street":{"id":978257,"name":"On or near Harringay Road"},"longitude":"-0.098384"},"context":"","outcome_status":null,"persistent_id":"","id":74279809,"location_subtype":"","month":"2019-05"},{"category":"anti-social-behaviour","location_type":"Force","location":{"latitude":"51.576728","street":{"id":975083,"name":"On or near Williamson Road"},"longitude":"-0.097975"},"context":"","outcome_status":null,"persistent_id":"","id":74279810,"location_subtype":"","month":"2019-05"},{"category":"anti-social-behaviour","location_type":"Force","location":{"latitude":"51.576728","street":{"id":975083,"name":"On or near Williamson Road"},"longitude":"-0.097975"},"context":"","outcome_status":null,"persistent_id":"","id":74279811,"location_subtype":"","month":"2019-05"},{"category":"anti-social-behaviour","location_type":"Force","location":{"latitude":"51.576728","street":{"id":975083,"name":"On or near Williamson Road"},"longitude":"-0.097975"},"context":"","outcome_status":null,"persistent_id":"","id":74279812,"location_subtype":"","month":"2019-05"},{"category":"anti-social-behaviour","location_type":"Force","location":{"latitude":"51.576728","street":{"id":975083,"name":"On or near Williamson Road"},"longitude":"-0.097975"},"context":"","outcome_status":null,"persistent_id":"","id":74279813,"location_subtype":"","month":"2019-05"},{"category":"bicycle-theft","location_type":"Force","location":{"latitude":"51.565107","street":{"id":972018,"name":"On or near Stroud Green Road"},"longitude":"-0.105559"},"context":"","outcome_status":{"category":"Status update unavailable","date":"2019-09"},"persistent_id":"7f56adfabf47303a9cbf2cf96ea69fb17f7e11f2aaa6edce6aa6fbd5118cf0ce","id":74346142,"location_subtype":"","month":"2019-05"},{"category":"bicycle-theft","location_type":"Force","location":{"latitude":"51.572151","street":{"id":975135,"name":"On or near Green Lanes"},"longitude":"-0.096839"},"context":"","outcome_status":{"category":"Status update unavailable","date":"2019-09"},"persistent_id":"d80030fa42f6505707b863d0286e3e70277da6c19eec94d7e15f892a212729a6","id":74353639,"location_subtype":"","month":"2019-05"},{"category":"bicycle-theft","location_type":"Force","location":{"latitude":"51.564900","street":{"id":971884,"name":"On or near Tauheed Close"},"longitude":"-0.093375"},"context":"","outcome_status":{"category":"Status update unavailable","date":"2019-09"},"persistent_id":"78e256d9a36a1ebbb4b55d0cabd7e7daf0dc4f12268169d4c1258ebeb044df6e","id":74295643,"location_subtype":"","month":"2019-05"},{"category":"bicycle-theft","location_type":"Force","location":{"latitude":"51.570989","street":{"id":975133,"name":"On or near Pedestrian Subway"},"longitude":"-0.096194"},"context":"","outcome_status":{"category":"Status update unavailable","date":"2019-09"},"persistent_id":"468ef17eb245fc80a21778639ecc7a9e8f7b49e840c8467dc24b931b98db5d60","id":74333644,"location_subtype":"","month":"2019-05"},{"category":"bicycle-theft","location_type":"Force","location":{"latitude":"51.563900","street":{"id":972052,"name":"On or near A1201"},"longitude":"-0.105436"},"context":"","outcome_status":{"category":"Status update unavailable","date":"2019-09"},"persistent_id":"435e3fd7c45d28c100356384f5b6f3b7dd217afd3287e4f799174997cec64839","id":74329824,"location_subtype":"","month":"2019-05"},{"category":"bicycle-theft","location_type":"Force","location":{"latitude":"51.581688","street":{"id":974938,"name":"On or near Nelson Road"},"longitude":"-0.117239"},"context":"","outcome_status":{"category":"Status update unavailable","date":"2019-09"},"persistent_id":"518c91ab375156a40ae1b194052e04ecec46abff0dafc1667382ef8ec2296561","id":74360597,"location_subtype":"","month":"2019-05"},{"category":"bicycle-theft","location_type":"Force","location":{"latitude":"51.578595","street":{"id":975112,"name":"On or near Essex Gardens"},"longitude":"-0.097219"},"context":"","outcome_status":{"category":"Status update unavailable","date":"2019-09"},"persistent_id":"7032d24ef6e7c0147ea384222fbc6759c59e02cbc383f7c9055282bfe0e01111","id":74341246,"location_subtype":"","month":"2019-05"},{"category":"bicycle-theft","location_type":"Force","location":{"latitude":"51.565290","street":{"id":972041,"name":"On or near Fonthill Road"},"longitude":"-0.109649"},"context":"","outcome_status":{"category":"Status update unavailable","date":"2019-09"},"persistent_id":"bb14c9578e943fcc9e7463386a0e1f325dcaa069991d9f43b31b3be1d6ed790d","id":74325117,"location_subtype":"","month":"2019-05"},{"category":"bicycle-theft","location_type":"Force","location":{"latitude":"51.568799","street":{"id":971727,"name":"On or near Bethune Road"},"longitude":"-0.079331"},"context":"","outcome_status":{"category":"Status update unavailable","date":"2019-09"},"persistent_id":"27c752857c34c0c91d85d91591e7288b237cb50e047364b8113e4baa6009132c","id":74326777,"location_subtype":"","month":"2019-05"},{"category":"bicycle-theft","location_type":"Force","location":{"latitude":"51.579437","street":{"id":975113,"name":"On or near Duckett Mews"},"longitude":"-0.099782"},"context":"","outcome_status":{"category":"Status update unavailable","date":"2019-09"},"persistent_id":"abceceadbd6e3bd036f7d35d8a7fad13fd718e77a8b60752e87f358d6abd6f57","id":74323314,"location_subtype":"","month":"2019-05"},{"category":"bicycle-theft","location_type":"Force","location":{"latitude":"51.564090","street":{"id":971840,"name":"On or near Somerfield Road"},"longitude":"-0.101056"},"context":"","outcome_status":{"category":"Status update unavailable","date":"2019-09"},"persistent_id":"7dff8f605cfbb6193c0c14a2434bf827bc80b00787fc5a5f240821e31052d67b","id":74299937,"location_subtype":"","month":"2019-05"},{"category":"bicycle-theft","location_type":"Force","location":{"latitude":"51.576473","street":{"id":975034,"name":"On or near Heysham Road"},"longitude":"-0.082832"},"context":"","outcome_status":{"category":"Status update unavailable","date":"2019-09"},"persistent_id":"60c771bb8526e0bbe2faeda8b75cda6c43bed51f36f24fdc3a99952b42b79b32","id":74297637,"location_subtype":"","month":"2019-05"},{"category":"bicycle-theft","location_type":"Force","location":{"latitude":"51.586461","street":{"id":978236,"name":"On or near Bedford Road"},"longitude":"-0.081040"},"context":"","outcome_status":{"category":"Status update unavailable","date":"2019-09"},"persistent_id":"dcf434881c033471996e765f303d07ec386b4765094a6037b240ef05e9e487dc","id":74297625,"location_subtype":"","month":"2019-05"},{"category":"bicycle-theft","location_type":"Force","location":{"latitude":"51.575924","street":{"id":975063,"name":"On or near Hermitage Road"},"longitude":"-0.091644"},"context":"","outcome_status":{"category":"Status update unavailable","date":"2019-09"},"persistent_id":"d28a1795010efece6c2568fa11a4c152349aac74344c62ad9809fd79c93be60a","id":74341280,"location_subtype":"","month":"2019-05"},{"category":"bicycle-theft","location_type":"Force","location":{"latitude":"51.581979","street":{"id":974884,"name":"On or near Wightman Road"},"longitude":"-0.106272"},"context":"","outcome_status":{"category":"Status update unavailable","date":"2019-09"},"persistent_id":"907d5d7f247aed8518e8be61448d9dce7788ea5f929a408a96db7700ccd06afe","id":74296585,"location_subtype":"","month":"2019-05"},{"category":"bicycle-theft","location_type":"Force","location":{"latitude":"51.582039","street":{"id":974890,"name":"On or near Rathcoole Gardens"},"longitude":"-0.112245"},"context":"","outcome_status":{"category":"Status update unavailable","date":"2019-09"},"persistent_id":"d1477a4b12acc142a216f63510ae066c864c95f9cf4f3344fa3b59bbc5b98eaa","id":74337728,"location_subtype":"","month":"2019-05"},{"category":"bicycle-theft","location_type":"Force","location":{"latitude":"51.581202","street":{"id":974885,"name":"On or near Warham Road"},"longitude":"-0.102710"},"context":"","outcome_status":{"category":"Status update unavailable","date":"2019-09"},"persistent_id":"e717ee5cc7f3cc6812a6d717a2ab3cb5b5fbe1774e9e0dcffcd333f40d6cd516","id":74319820,"location_subtype":"","month":"2019-05"},{"category":"bicycle-theft","location_type":"Force","location":{"latitude":"51.563900","street":{"id":972052,"name":"On or near A1201"},"longitude":"-0.105436"},"context":"","outcome_status":{"category":"Status update unavailable","date":"2019-09"},"persistent_id":"cb135f4fe073540302cdefbfcd069528350716069165da46c7eeed683a486b55","id":74323312,"location_subtype":"","month":"2019-05"},{"category":"bicycle-theft","location_type":"Force","location":{"latitude":"51.590719","street":{"id":978332,"name":"On or near Waldegrave Road"},"longitude":"-0.105100"},"context":"","outcome_status":{"category":"Status update unavailable","date":"2019-09"},"persistent_id":"80e3221d1bd2044419387e78ca5b814c834560a51dc9c917f2293b48c1d21026","id":74319849,"location_subtype":"","month":"2019-05"},{"category":"bicycle-theft","location_type":"Force","location":{"latitude":"51.568298","street":{"id":971911,"name":"On or near St Andrew's Grove"},"longitude":"-0.084475"},"context":"","outcome_status":{"category":"Status update unavailable","date":"2019-09"},"persistent_id":"cdec793ad277323dd8e72981d83e4fe20ececd516451ae7744cf6d19709cfc1d","id":74295436,"location_subtype":"","month":"2019-05"},{"category":"burglary","location_type":"Force","location":{"latitude":"51.574657","street":{"id":975247,"name":"On or near Holmdale Terrace"},"longitude":"-0.076847"},"context":"","outcome_status":{"category":"Status update unavailable","date":"2019-09"},"persistent_id":"da2c3d545a1e0e77b62bdfda47d7b7831415963f911f62ec318aa79f22e7eb09","id":74325925,"location_subtype":"","month":"2019-05"},{"category":"burglary","location_type":"Force","location":{"latitude":"51.584913","street":{"id":978263,"name":"On or near Clarendon Road"},"longitude":"-0.095295"},"context":"","outcome_status":{"category":"Status update unavailable","date":"2019-09"},"persistent_id":"56020f315bfa6e9ce6165c77437afda897aba945e318b2d5703cf9782bf7fc56","id":74315975,"location_subtype":"","month":"2019-05"},{"category":"burglary","location_type":"Force","location":{"latitude":"51.563591","street":{"id":971855,"name":"On or near Digby Crescent"},"longitude":"-0.095234"},"context":"","outcome_status":{"category":"Status update unavailable","date":"2019-09"},"persistent_id":"b319654f36c1a3662770274cf4dbf91841a4628f06b2b46d47b16070ddc0c734","id":74315915,"location_subtype":"","month":"2019-05"},{"category":"burglary","location_type":"Force","location":{"latitude":"51.568427","street":{"id":971880,"name":"On or near Brand Close"},"longitude":"-0.098437"},"context":"","outcome_status":{"category":"Status update unavailable","date":"2019-09"},"persistent_id":"56024c9aff2aecaf11aa2d91cef0491d574c082379b3a2ce9f27aac08bdcee66","id":74315833,"location_subtype":"","month":"2019-05"},{"category":"burglary","location_type":"Force","location":{"latitude":"51.571571","street":{"id":975002,"name":"On or near Upper Tollington Park"},"longitude":"-0.107166"},"context":"","outcome_status":{"category":"Status update unavailable","date":"2019-09"},"persistent_id":"177fc3df5368c4ebd5c9c99ea69156fddaf971efeb64de8e26e86a3308def6f5","id":74315535,"location_subtype":"","month":"2019-05"},{"category":"burglary","location_type":"Force","location":{"latitude":"51.581335","street":{"id":975261,"name":"On or near Culvert Road"},"longitude":"-0.079928"},"context":"","outcome_status":{"category":"Status update unavailable","date":"2019-09"},"persistent_id":"37a15edbcb3dc4523360323f7d84ac9bacda91c26a7b1caeeca0fbfa63509a49","id":74326521,"location_subtype":"","month":"2019-05"},{"category":"burglary","location_type":"Force","location":{"latitude":"51.577345","street":{"id":923607,"name":"On or near Ashfield Road"},"longitude":"-0.090545"},"context":"","outcome_status":{"category":"Status update unavailable","date":"2019-09"},"persistent_id":"7e1cb09abadd8ad8cc3f23cbbde088f87e81958837a0ee01fcd3839a6ec18591","id":74306523,"location_subtype":"","month":"2019-05"},{"category":"burglary","location_type":"Force","location":{"latitude":"51.571113","street":{"id":975137,"name":"On or near Nightclub"},"longitude":"-0.095511"},"context":"","outcome_status":{"category":"Court result unavailable","date":"2020-01"},"persistent_id":"fbf4116461dfcc175e8a8d3770075f58be2763308a05b43435dd0c3237806830","id":74294863,"location_subtype":"","month":"2019-05"},{"category":"burglary","location_type":"Force","location":{"latitude":"51.581202","street":{"id":974885,"name":"On or near Warham Road"},"longitude":"-0.102710"},"context":"","outcome_status":{"category":"Status update unavailable","date":"2019-09"},"persistent_id":"204036deee326a9a039eb8fa6f1c4f87d0758bd7a706c1d04ff9fc4add051e5d","id":74290890,"location_subtype":"","month":"2019-05"},{"category":"burglary","location_type":"Force","location":{"latitude":"51.573091","street":{"id":975008,"name":"On or near Petrol Station"},"longitude":"-0.112746"},"context":"","outcome_status":{"category":"Status update unavailable","date":"2019-09"},"persistent_id":"69fe85a61cf5b9432ab59b2f69662050a63b017d534e0e4f950b43563ecadc84","id":74302771,"location_subtype":"","month":"2019-05"},{"category":"burglary","location_type":"Force","location":{"latitude":"51.575908","street":{"id":975221,"name":"On or near Vartry Road"},"longitude":"-0.080763"},"context":"","outcome_status":{"category":"Investigation complete; no suspect identified","date":"2020-03"},"persistent_id":"dfc0cd05cbca722c508696ee0334fb1e1aa4883c59e0f54e220321b8df4b39c5","id":74371856,"location_subtype":"","month":"2019-05"},{"category":"burglary","location_type":"Force","location":{"latitude":"51.576024","street":{"id":975237,"name":"On or near Paignton Road"},"longitude":"-0.079012"},"context":"","outcome_status":{"category":"Status update unavailable","date":"2019-09"},"persistent_id":"02e9b5978477a1e185ac89f832f1d27d4c0ca28fae7ed807ea0283f22529569b","id":74291525,"location_subtype":"","month":"2019-05"},{"category":"burglary","location_type":"Force","location":{"latitude":"51.564239","street":{"id":972040,"name":"On or near Goodwin Street"},"longitude":"-0.108077"},"context":"","outcome_status":{"category":"Investigation complete; no suspect identified","date":"2020-03"},"persistent_id":"e5e9cdbca864467be5947837e9e8d09d67896ea25826ff265a4e57afb6cb557d","id":74340613,"location_subtype":"","month":"2019-05"},{"category":"burglary","location_type":"Force","location":{"latitude":"51.572841","street":{"id":975134,"name":"On or near Woodberry Grove"},"longitude":"-0.093418"},"context":"","outcome_status":{"category":"Status update unavailable","date":"2019-09"},"persistent_id":"02bcfcb690fdd8d728c48970a2f970c1f677b59a0d9a72a0070f695aec23eac5","id":74306588,"location_subtype":"","month":"2019-05"},{"category":"burglary","location_type":"Force","location":{"latitude":"51.585275","street":{"id":978393,"name":"On or near Fairfax Road"},"longitude":"-0.103753"},"context":"","outcome_status":{"category":"Investigation complete; no suspect identified","date":"2020-04"},"persistent_id":"268e13aa07f67bdb9d8f0da327212bf3529bedd091b321b6d259648cc6c32f99","id":74310875,"location_subtype":"","month":"2019-05"},{"category":"burglary","location_type":"Force","location":{"latitude":"51.586155","street":{"id":978144,"name":"On or near Stanley Road"},"longitude":"-0.097610"},"context":"","outcome_status":{"category":"Court result unavailable","date":"2020-03"},"persistent_id":"b20fa0df581ed2ea79b7cfc2a4cf78eb60680804132668355d0ae76494ddf11a","id":74356130,"location_subtype":"","month":"2019-05"},{"category":"burglary","location_type":"Force","location":{"latitude":"51.580663","street":{"id":975073,"name":"On or near Hospital"},"longitude":"-0.092182"},"context":"","outcome_status":{"category":"Status update unavailable","date":"2019-09"},"persistent_id":"7636b50a6a633436f026b2d4ae946ea1432122b1a51555e006a9ea5e5d94ddb3","id":74312546,"location_subtype":"","month":"2019-05"},{"category":"burglary","location_type":"Force","location":{"latitude":"51.568088","street":{"id":972075,"name":"On or near Athelstane Mews"},"longitude":"-0.110327"},"context":"","outcome_status":{"category":"Status update unavailable","date":"2019-09"},"persistent_id":"f2920d1fa41a56015763ae18b8309da1eb9acfeb1dcedfc70b7b9645cc09cb93","id":74312611,"location_subtype":"","month":"2019-05"},{"category":"burglary","location_type":"Force","location":{"latitude":"51.566496","street":{"id":971837,"name":"On or near Waverley Place"},"longitude":"-0.100249"},"context":"","outcome_status":{"category":"Status update unavailable","date":"2019-09"},"persistent_id":"b2f8a234116800c53954d5d0d5c82ee4f5d8955369e1f8db4ef05f70bd1c3f5d","id":74323089,"location_subtype":"","month":"2019-05"},{"category":"burglary","location_type":"Force","location":{"latitude":"51.582359","street":{"id":975025,"name":"On or near North Grove"},"longitude":"-0.085890"},"context":"","outcome_status":{"category":"Status update unavailable","date":"2019-09"},"persistent_id":"885b7a2c81cd73e53e053749a26136014f9bee5b2253cd45d859c888ec09cd04","id":74368105,"location_subtype":"","month":"2019-05"},{"category":"burglary","location_type":"Force","location":{"latitude":"51.570864","street":{"id":972068,"name":"On or near Lorne Road"},"longitude":"-0.111856"},"context":"","outcome_status":{"category":"Status update unavailable","date":"2019-09"},"persistent_id":"b0d4589c9075bf5a8c643c96335ee7c45de8d87bf6e3eb2f225e1dcae2e31b07","id":74343502,"location_subtype":"","month":"2019-05"},{"category":"burglary","location_type":"Force","location":{"latitude":"51.573826","street":{"id":974911,"name":"On or near Beatrice Road"},"longitude":"-0.105889"},"context":"","outcome_status":{"category":"Status update unavailable","date":"2019-09"},"persistent_id":"f396be9863e90438ac80dc5b34ad66ff5f99849a2c8dce2ac1fe55a2caf0aa6c","id":74353005,"location_subtype":"","month":"2019-05"},{"category":"burglary","location_type":"Force","location":{"latitude":"51.572562","street":{"id":975279,"name":"On or near West Bank"},"longitude":"-0.078494"},"context":"","outcome_status":{"category":"Status update unavailable","date":"2019-09"},"persistent_id":"cfcf9a4356b0c1fc0a744e9559eaa09d00bb3d2983c39b45d91af787fc2240aa","id":74365357,"location_subtype":"","month":"2019-05"},{"category":"burglary","location_type":"Force","location":{"latitude":"51.580330","street":{"id":975118,"name":"On or near Chesterfield Mews"},"longitude":"-0.098806"},"context":"","outcome_status":{"category":"Status update unavailable","date":"2019-09"},"persistent_id":"01a02ac0ebee9d1a7333503017297e34c15e5605915ae2018ae13da35d507c9f","id":74367401,"location_subtype":"","month":"2019-05"},{"category":"burglary","location_type":"Force","location":{"latitude":"51.573091","street":{"id":975008,"name":"On or near Petrol Station"},"longitude":"-0.112746"},"context":"","outcome_status":{"category":"Status update unavailable","date":"2019-09"},"persistent_id":"b37190d9ae0a1a97855b16769895c88f5bee510eef717ba76dd8c901fd89482a","id":74364102,"location_subtype":"","month":"2019-05"},{"category":"burglary","location_type":"Force","location":{"latitude":"51.565059","street":{"id":971886,"name":"On or near Queen Elizabeth's Walk"},"longitude":"-0.087641"},"context":"","outcome_status":{"category":"Status update unavailable","date":"2019-09"},"persistent_id":"2c9eeb83d8228b13628ca6108c1b5707fc9f22c0358f2396cac2415fed763ede","id":74363047,"location_subtype":"","month":"2019-05"},{"category":"burglary","location_type":"Force","location":{"latitude":"51.567731","street":{"id":971910,"name":"On or near St Kilda's Road"},"longitude":"-0.082247"},"context":"","outcome_status":{"category":"Status update unavailable","date":"2019-09"},"persistent_id":"55ad1d86b36b10f50898aa3ce8c82e94ab95e45ac71f9d77f41cf817c59d4517","id":74361440,"location_subtype":"","month":"2019-05"},{"category":"burglary","location_type":"Force","location":{"latitude":"51.589840","street":{"id":978174,"name":"On or near Carlingford Road"},"longitude":"-0.099160"},"context":"","outcome_status":{"category":"Status update unavailable","date":"2019-09"},"persistent_id":"2232d1b4bf0b3da419cd4b63f73ce6a34d3858e6bd7b972078937dd3a772a421","id":74357792,"location_subtype":"","month":"2019-05"},{"category":"burglary","location_type":"Force","location":{"latitude":"51.569191","street":{"id":972078,"name":"On or near Supermarket"},"longitude":"-0.112359"},"context":"","outcome_status":{"category":"Status update unavailable","date":"2019-09"},"persistent_id":"db005e77b3544ed593bc874bbaa329bf5ab8093de4f32dfe64383cf9ab43ee72","id":74357666,"location_subtype":"","month":"2019-05"},{"category":"burglary","location_type":"Force","location":{"latitude":"51.578535","street":{"id":975041,"name":"On or near Bushey Road"},"longitude":"-0.081345"},"context":"","outcome_status":{"category":"Status update unavailable","date":"2019-09"},"persistent_id":"df7cbba9765812919fca14d4f20895ac90f624a5de2a4ac7b527bc82d698ed98","id":74357646,"location_subtype":"","month":"2019-05"},