[{"category":"anti-social-behaviour","location_type":"Force","location":{"latitude":"51.545807","street":{"id":967943,"name":"On or near Supermarket"},"longitude":"-0.162579"},"context":"","outcome_status":null,"persistent_id":"","id":74288915,"location_subtype":"","month":"2019-05"},{"category":"anti-social-behaviour","location_type":"Force","location":{"latitude":"51.547122","street":{"id":967932,"name":"On or near Primrose Gardens"},"longitude":"-0.163290"},"context":"","outcome_status":null,"persistent_id":"","id":74288918,"location_subtype":"","month":"2019-05"},{"category":"anti-social-behaviour","location_type":"Force","location":{"latitude":"51.545483","street":{"id":965057,"name":"On or near Further\/higher Educational Building"},"longitude":"-0.161972"},"context":"","outcome_status":null,"persistent_id":"","id":74288916,"location_subtype":"","month":"2019-05"},{"category":"anti-social-behaviour","location_type":"Force","location":{"latitude":"51.542764","street":{"id":965046,"name":"On or near Elsworthy Rise"},"longitude":"-0.164591"},"context":"","outcome_status":null,"persistent_id":"","id":74288923,"location_subtype":"","month":"2019-05"},{"category":"anti-social-behaviour","location_type":"Force","location":{"latitude":"51.551600","street":{"id":967898,"name":"On or near Russell Place"},"longitude":"-0.163846"},"context":"","outcome_status":null,"persistent_id":"","id":74288921,"location_subtype":"","month":"2019-05"},{"category":"anti-social-behaviour","location_type":"Force","location":{"latitude":"51.551600","street":{"id":967898,"name":"On or near Russell Place"},"longitude":"-0.163846"},"context":"","outcome_status":null,"persistent_id":"","id":74288922,"location_subtype":"","month":"2019-05"},{"category":"anti-social-behaviour","location_type":"Force","location":{"latitude":"51.543954","street":{"id":965052,"name":"On or near Brocas Close"},"longitude":"-0.165408"},"context":"","outcome_status":null,"persistent_id":"","id":74288924,"location_subtype":"","month":"2019-05"},{"category":"anti-social-behaviour","location_type":"Force","location":{"latitude":"51.551593","street":{"id":967920,"name":"On or near Aspern Grove"},"longitude":"-0.164538"},"context":"","outcome_status":null,"persistent_id":"","id":74288925,"location_subtype":"","month":"2019-05"},{"category":"anti-social-behaviour","location_type":"Force","location":{"latitude":"51.551593","street":{"id":967920,"name":"On or near Aspern Grove"},"longitude":"-0.164538"},"context":"","outcome_status":null,"persistent_id":"","id":74288926,"location_subtype":"","month":"2019-05"},{"category":"anti-social-behaviour","location_type":"Force","location":{"latitude":"51.557378","street":{"id":967895,"name":"On or near South Hill Park"},"longitude":"-0.164147"},"context":"","outcome_status":null,"persistent_id":"","id":74288927,"location_subtype":"","month":"2019-05"},{"category":"anti-social-behaviour","location_type":"Force","location":{"latitude":"51.546109","street":{"id":967935,"name":"On or near Lambolle Place"},"longitude":"-0.165177"},"context":"","outcome_status":null,"persistent_id":"","id":74288928,"location_subtype":"","month":"2019-05"},{"category":"anti-social-behaviour","location_type":"Force","location":{"latitude":"51.551593","street":{"id":967920,"name":"On or near Aspern Grove"},"longitude":"-0.164538"},"context":"","outcome_status":null,"persistent_id":"","id":74288929,"location_subtype":"","month":"2019-05"},{"category":"anti-social-behaviour","location_type":"Force","location":{"latitude":"51.543180","street":{"id":965056,"name":"On or near Adelaide Road"},"longitude":"-0.165901"},"context":"","outcome_status":null,"persistent_id":"","id":74288930,"location_subtype":"","month":"2019-05"},{"category":"anti-social-behaviour","location_type":"Force","location":{"latitude":"51.543180","street":{"id":965056,"name":"On or near Adelaide Road"},"longitude":"-0.165901"},"context":"","outcome_status":null,"persistent_id":"","id":74288931,"location_subtype":"","month":"2019-05"},{"category":"anti-social-behaviour","location_type":"Force","location":{"latitude":"51.551604","street":{"id":967711,"name":"On or near Petrol Station"},"longitude":"-0.166975"},"context":"","outcome_status":null,"persistent_id":"","id":74288932,"location_subtype":"","month":"2019-05"},{"category":"anti-social-behaviour","location_type":"Force","location":{"latitude":"51.551604","street":{"id":967711,"name":"On or near Petrol Station"},"longitude":"-0.166975"},"context":"","outcome_status":null,"persistent_id":"","id":74288933,"location_subtype":"","month":"2019-05"},{"category":"anti-social-behaviour","location_type":"Force","location":{"latitude":"51.551114","street":{"id":967890,"name":"On or near Upper Park Road"},"longitude":"-0.160375"},"context":"","outcome_status":null,"persistent_id":"","id":74288903,"location_subtype":"","month":"2019-05"},{"category":"anti-social-behaviour","location_type":"Force","location":{"latitude":"51.543902","street":{"id":965028,"name":"On or near Primrose Hill Road"},"longitude":"-0.162627"},"context":"","outcome_status":null,"persistent_id":"","id":74288905,"location_subtype":"","month":"2019-05"},{"category":"anti-social-behaviour","location_type":"Force","location":{"latitude":"51.543902","street":{"id":965028,"name":"On or near Primrose Hill Road"},"longitude":"-0.162627"},"context":"","outcome_status":null,"persistent_id":"","id":74288906,"location_subtype":"","month":"2019-05"},{"category":"anti-social-behaviour","location_type":"Force","location":{"latitude":"51.548328","street":{"id":967886,"name":"On or near Antrim Grove"},"longitude":"-0.162203"},"context":"","outcome_status":null,"persistent_id":"","id":74288909,"location_subtype":"","month":"2019-05"},{"category":"anti-social-behaviour","location_type":"Force","location":{"latitude":"51.554515","street":{"id":967916,"name":"On or near Cressy Road"},"longitude":"-0.161060"},"context":"","outcome_status":null,"persistent_id":"","id":74288907,"location_subtype":"","month":"2019-05"},{"category":"anti-social-behaviour","location_type":"Force","location":{"latitude":"51.548328","street":{"id":967886,"name":"On or near Antrim Grove"},"longitude":"-0.162203"},"context":"","outcome_status":null,"persistent_id":"","id":74288908,"location_subtype":"","month":"2019-05"},{"category":"anti-social-behaviour","location_type":"Force","location":{"latitude":"51.548328","street":{"id":967886,"name":"On or near Antrim Grove"},"longitude":"-0.162203"},"context":"","outcome_status":null,"persistent_id":"","id":74288910,"location_subtype":"","month":"2019-05"},{"category":"anti-social-behaviour","location_type":"Force","location":{"latitude":"51.543902","street":{"id":965028,"name":"On or near Primrose Hill Road"},"longitude":"-0.162627"},"context":"","outcome_status":null,"persistent_id":"","id":74288911,"location_subtype":"","month":"2019-05"},{"category":"anti-social-behaviour","location_type":"Force","location":{"latitude":"51.543902","street":{"id":965028,"name":"On or near Primrose Hill Road"},"longitude":"-0.162627"},"context":"","outcome_status":null,"persistent_id":"","id":74288912,"location_subtype":"","month":"2019-05"},{"category":"anti-social-behaviour","location_type":"Force","location":{"latitude":"51.543902","street":{"id":965028,"name":"On or near Primrose Hill Road"},"longitude":"-0.162627"},"context":"","outcome_status":null,"persistent_id":"","id":74288914,"location_subtype":"","month":"2019-05"},{"category":"anti-social-behaviour","location_type":"Force","location":{"latitude":"51.543902","street":{"id":965028,"name":"On or near Primrose Hill Road"},"longitude":"-0.162627"},"context":"","outcome_status":null,"persistent_id":"","id":74288913,"location_subtype":"","month":"2019-05"},{"category":"anti-social-behaviour","location_type":"Force","location":{"latitude":"51.547122","street":{"id":967932,"name":"On or near Primrose Gardens"},"longitude":"-0.163290"},"context":"","outcome_status":null,"persistent_id":"","id":74288917,"location_subtype":"","month":"2019-05"},{"category":"anti-social-behaviour","location_type":"Force","location":{"latitude":"51.561805","street":{"id":972109,"name":"On or near Kingswear Road"},"longitude":"-0.144852"},"context":"","outcome_status":null,"persistent_id":"","id":74288304,"location_subtype":"","month":"2019-05"},{"category":"anti-social-behaviour","location_type":"Force","location":{"latitude":"51.542741","street":{"id":965233,"name":"On or near Avenue Road"},"longitude":"-0.174124"},"context":"","outcome_status":null,"persistent_id":"","id":74288960,"location_subtype":"","month":"2019-05"},{"category":"anti-social-behaviour","location_type":"Force","location":{"latitude":"51.555732","street":{"id":967843,"name":"On or near Little Green Street"},"longitude":"-0.145258"},"context":"","outcome_status":null,"persistent_id":"","id":74288303,"location_subtype":"","month":"2019-05"},{"category":"anti-social-behaviour","location_type":"Force","location":{"latitude":"51.550115","street":{"id":968052,"name":"On or near Regis Road"},"longitude":"-0.143712"},"context":"","outcome_status":null,"persistent_id":"","id":74288306,"location_subtype":"","month":"2019-05"},{"category":"anti-social-behaviour","location_type":"Force","location":{"latitude":"51.563731","street":{"id":972278,"name":"On or near Langbourne Avenue"},"longitude":"-0.149492"},"context":"","outcome_status":null,"persistent_id":"","id":74288351,"location_subtype":"","month":"2019-05"},{"category":"anti-social-behaviour","location_type":"Force","location":{"latitude":"51.552464","street":{"id":967862,"name":"On or near Dale Road"},"longitude":"-0.150728"},"context":"","outcome_status":null,"persistent_id":"","id":74288363,"location_subtype":"","month":"2019-05"},{"category":"anti-social-behaviour","location_type":"Force","location":{"latitude":"51.554877","street":{"id":967906,"name":"On or near Mackeson Road"},"longitude":"-0.160021"},"context":"","outcome_status":null,"persistent_id":"","id":74288898,"location_subtype":"","month":"2019-05"},{"category":"anti-social-behaviour","location_type":"Force","location":{"latitude":"51.553223","street":{"id":967710,"name":"On or near Hampstead Green"},"longitude":"-0.167531"},"context":"","outcome_status":null,"persistent_id":"","id":74288941,"location_subtype":"","month":"2019-05"},{"category":"anti-social-behaviour","location_type":"Force","location":{"latitude":"51.549422","street":{"id":967720,"name":"On or near Lithos Road"},"longitude":"-0.183953"},"context":"","outcome_status":null,"persistent_id":"","id":74288998,"location_subtype":"","month":"2019-05"},{"category":"anti-social-behaviour","location_type":"Force","location":{"latitude":"51.559773","street":{"id":972261,"name":"On or near Laurier Road"},"longitude":"-0.143723"},"context":"","outcome_status":null,"persistent_id":"","id":74288300,"location_subtype":"","month":"2019-05"},{"category":"anti-social-behaviour","location_type":"Force","location":{"latitude":"51.556532","street":{"id":968065,"name":"On or near Ingestre Road"},"longitude":"-0.142932"},"context":"","outcome_status":null,"persistent_id":"","id":74288284,"location_subtype":"","month":"2019-05"},{"category":"anti-social-behaviour","location_type":"Force","location":{"latitude":"51.554996","street":{"id":968072,"name":"On or near Burghley Road"},"longitude":"-0.141898"},"context":"","outcome_status":null,"persistent_id":"","id":74288257,"location_subtype":"","month":"2019-05"},{"category":"anti-social-behaviour","location_type":"Force","location":{"latitude":"51.542344","street":{"id":965188,"name":"On or near Hawtrey Road"},"longitude":"-0.168847"},"context":"","outcome_status":null,"persistent_id":"","id":74288944,"location_subtype":"","month":"2019-05"},{"category":"anti-social-behaviour","location_type":"Force","location":{"latitude":"51.546333","street":{"id":967781,"name":"On or near Goldhurst Terrace"},"longitude":"-0.179014"},"context":"","outcome_status":null,"persistent_id":"","id":74288980,"location_subtype":"","month":"2019-05"},{"category":"anti-social-behaviour","location_type":"Force","location":{"latitude":"51.557694","street":{"id":967757,"name":"On or near Golden Yard"},"longitude":"-0.178618"},"context":"","outcome_status":null,"persistent_id":"","id":74288978,"location_subtype":"","month":"2019-05"},{"category":"anti-social-behaviour","location_type":"Force","location":{"latitude":"51.556503","street":{"id":967753,"name":"On or near Holly Bush Vale"},"longitude":"-0.178968"},"context":"","outcome_status":null,"persistent_id":"","id":74288977,"location_subtype":"","month":"2019-05"},{"category":"anti-social-behaviour","location_type":"Force","location":{"latitude":"51.544871","street":{"id":965228,"name":"On or near College Crescent"},"longitude":"-0.175149"},"context":"","outcome_status":null,"persistent_id":"","id":74288963,"location_subtype":"","month":"2019-05"},{"category":"anti-social-behaviour","location_type":"Force","location":{"latitude":"51.549183","street":{"id":967715,"name":"On or near Rosemont Road"},"longitude":"-0.183011"},"context":"","outcome_status":null,"persistent_id":"","id":74288993,"location_subtype":"","month":"2019-05"},{"category":"anti-social-behaviour","location_type":"Force","location":{"latitude":"51.543062","street":{"id":965215,"name":"On or near Hornby Close"},"longitude":"-0.170448"},"context":"","outcome_status":null,"persistent_id":"","id":74288948,"location_subtype":"","month":"2019-05"},{"category":"anti-social-behaviour","location_type":"Force","location":{"latitude":"51.549183","street":{"id":967715,"name":"On or near Rosemont Road"},"longitude":"-0.183011"},"context":"","outcome_status":null,"persistent_id":"","id":74288987,"location_subtype":"","month":"2019-05"},{"category":"anti-social-behaviour","location_type":"Force","location":{"latitude":"51.555514","street":{"id":967768,"name":"On or near Church Row"},"longitude":"-0.180739"},"context":"","outcome_status":null,"persistent_id":"","id":74288986,"location_subtype":"","month":"2019-05"},{"category":"anti-social-behaviour","location_type":"Force","location":{"latitude":"51.547945","street":{"id":967786,"name":"On or near Nightclub"},"longitude":"-0.181430"},"context":"","outcome_status":null,"persistent_id":"","id":74288985,"location_subtype":"","month":"2019-05"},{"category":"anti-social-behaviour","location_type":"Force","location":{"latitude":"51.547945","street":{"id":967786,"name":"On or near Nightclub"},"longitude":"-0.181430"},"context":"","outcome_status":null,"persistent_id":"","id":74288984,"location_subtype":"","month":"2019-05"},{"category":"anti-social-behaviour","location_type":"Force","location":{"latitude":"51.546333","street":{"id":967781,"name":"On or near Goldhurst Terrace"},"longitude":"-0.179014"},"context":"","outcome_status":null,"persistent_id":"","id":74288982,"location_subtype":"","month":"2019-05"},{"category":"anti-social-behaviour","location_type":"Force","location":{"latitude":"51.546739","street":{"id":967788,"name":"On or near Further\/higher Educational Building"},"longitude":"-0.179098"},"context":"","outcome_status":null,"persistent_id":"","id":74288976,"location_subtype":"","month":"2019-05"},{"category":"anti-social-behaviour","location_type":"Force","location":{"latitude":"51.555508","street":{"id":967756,"name":"On or near Heath Street"},"longitude":"-0.178561"},"context":"","outcome_status":null,"persistent_id":"","id":74288975,"location_subtype":"","month":"2019-05"},{"category":"anti-social-behaviour","location_type":"Force","location":{"latitude":"51.543919","street":{"id":965218,"name":"On or near Harben Road"},"longitude":"-0.177596"},"context":"","outcome_status":null,"persistent_id":"","id":74288973,"location_subtype":"","month":"2019-05"},{"category":"anti-social-behaviour","location_type":"Force","location":{"latitude":"51.562111","street":{"id":972324,"name":"On or near Vale Of Health"},"longitude":"-0.176421"},"context":"","outcome_status":null,"persistent_id":"","id":74288972,"location_subtype":"","month":"2019-05"},{"category":"anti-social-behaviour","location_type":"Force","location":{"latitude":"51.562111","street":{"id":972324,"name":"On or near Vale Of Health"},"longitude":"-0.176421"},"context":"","outcome_status":null,"persistent_id":"","id":74288971,"location_subtype":"","month":"2019-05"},{"category":"anti-social-behaviour","location_type":"Force","location":{"latitude":"51.559061","street":{"id":972333,"name":"On or near Grove Place"},"longitude":"-0.175779"},"context":"","outcome_status":null,"persistent_id":"","id":74288970,"location_subtype":"","month":"2019-05"},{"category":"anti-social-behaviour","location_type":"Force","location":{"latitude":"51.544100","street":{"id":965242,"name":"On or near Shopping Area"},"longitude":"-0.175916"},"context":"","outcome_status":null,"persistent_id":"","id":74288969,"location_subtype":"","month":"2019-05"},{"category":"anti-social-behaviour","location_type":"Force","location":{"latitude":"51.544100","street":{"id":965242,"name":"On or near Shopping Area"},"longitude":"-0.175916"},"context":"","outcome_status":null,"persistent_id":"","id":74288968,"location_subtype":"","month":"2019-05"},{"category":"anti-social-behaviour","location_type":"Force","location":{"latitude":"51.544100","street":{"id":965242,"name":"On or near Shopping Area"},"longitude":"-0.175916"},"context":"","outcome_status":null,"persistent_id":"","id":74288966,"location_subtype":"","month":"2019-05"},{"category":"anti-social-behaviour","location_type":"Force","location":{"latitude":"51.544100","street":{"id":965242,"name":"On or near Shopping Area"},"longitude":"-0.175916"},"context":"","outcome_status":null,"persistent_id":"","id":74288965,"location_subtype":"","month":"2019-05"},{"category":"anti-social-behaviour","location_type":"Force","location":{"latitude":"51.541959","street":{"id":965235,"name":"On or near Adelaide Road"},"longitude":"-0.172367"},"context":"","outcome_status":null,"persistent_id":"","id":74288959,"location_subtype":"","month":"2019-05"},{"category":"anti-social-behaviour","location_type":"Force","location":{"latitude":"51.541959","street":{"id":965235,"name":"On or near Adelaide Road"},"longitude":"-0.172367"},"context":"","outcome_status":null,"persistent_id":"","id":74288958,"location_subtype":"","month":"2019-05"},{"category":"anti-social-behaviour","location_type":"Force","location":{"latitude":"51.549414","street":{"id":967724,"name":"On or near Dresden Close"},"longitude":"-0.185742"},"context":"","outcome_status":null,"persistent_id":"","id":74288999,"location_subtype":"","month":"2019-05"},{"category":"anti-social-behaviour","location_type":"Force","location":{"latitude":"51.541959","street":{"id":965235,"name":"On or near Adelaide Road"},"longitude":"-0.172367"},"context":"","outcome_status":null,"persistent_id":"","id":74288957,"location_subtype":"","month":"2019-05"},{"category":"anti-social-behaviour","location_type":"Force","location":{"latitude":"51.548609","street":{"id":967631,"name":"On or near Mccrone Mews"},"longitude":"-0.172663"},"context":"","outcome_status":null,"persistent_id":"","id":74288955,"location_subtype":"","month":"2019-05"},{"category":"anti-social-behaviour","location_type":"Force","location":{"latitude":"51.544802","street":{"id":965237,"name":"On or near Adamson Road"},"longitude":"-0.172498"},"context":"","outcome_status":null,"persistent_id":"","id":74288954,"location_subtype":"","month":"2019-05"},{"category":"anti-social-behaviour","location_type":"Force","location":{"latitude":"51.544802","street":{"id":965237,"name":"On or near Adamson Road"},"longitude":"-0.172498"},"context":"","outcome_status":null,"persistent_id":"","id":74288953,"location_subtype":"","month":"2019-05"},{"category":"anti-social-behaviour","location_type":"Force","location":{"latitude":"51.557518","street":{"id":967653,"name":"On or near Willow Road"},"longitude":"-0.171368"},"context":"","outcome_status":null,"persistent_id":"","id":74288952,"location_subtype":"","month":"2019-05"},{"category":"anti-social-behaviour","location_type":"Force","location":{"latitude":"51.549422","street":{"id":967720,"name":"On or near Lithos Road"},"longitude":"-0.183953"},"context":"","outcome_status":null,"persistent_id":"","id":74288997,"location_subtype":"","month":"2019-05"},{"category":"anti-social-behaviour","location_type":"Force","location":{"latitude":"51.555985","street":{"id":967689,"name":"On or near Downshire Hill"},"longitude":"-0.169930"},"context":"","outcome_status":null,"persistent_id":"","id":74288950,"location_subtype":"","month":"2019-05"},{"category":"anti-social-behaviour","location_type":"Force","location":{"latitude":"51.554468","street":{"id":967696,"name":"On or near Police Station"},"longitude":"-0.171246"},"context":"","outcome_status":null,"persistent_id":"","id":74288951,"location_subtype":"","month":"2019-05"},{"category":"anti-social-behaviour","location_type":"Force","location":{"latitude":"51.543919","street":{"id":965218,"name":"On or near Harben Road"},"longitude":"-0.177596"},"context":"","outcome_status":null,"persistent_id":"","id":74288974,"location_subtype":"","month":"2019-05"},{"category":"anti-social-behaviour","location_type":"Force","location":{"latitude":"51.549422","street":{"id":967720,"name":"On or near Lithos Road"},"longitude":"-0.183953"},"context":"","outcome_status":null,"persistent_id":"","id":74288996,"location_subtype":"","month":"2019-05"},{"category":"anti-social-behaviour","location_type":"Force","location":{"latitude":"51.543062","street":{"id":965215,"name":"On or near Hornby Close"},"longitude":"-0.170448"},"context":"","outcome_status":null,"persistent_id":"","id":74288949,"location_subtype":"","month":"2019-05"},{"category":"anti-social-behaviour","location_type":"Force","location":{"latitude":"51.549422","street":{"id":967720,"name":"On or near Lithos Road"},"longitude":"-0.183953"},"context":"","outcome_status":null,"persistent_id":"","id":74288995,"location_subtype":"","month":"2019-05"},{"category":"anti-social-behaviour","location_type":"Force","location":{"latitude":"51.543062","street":{"id":965215,"name":"On or near Hornby Close"},"longitude":"-0.170448"},"context":"","outcome_status":null,"persistent_id":"","id":74288947,"location_subtype":"","month":"2019-05"},{"category":"anti-social-behaviour","location_type":"Force","location":{"latitude":"51.552697","street":{"id":967658,"name":"On or near Waterhouse Close"},"longitude":"-0.170119"},"context":"","outcome_status":null,"persistent_id":"","id":74288946,"location_subtype":"","month":"2019-05"},{"category":"anti-social-behaviour","location_type":"Force","location":{"latitude":"51.542344","street":{"id":965188,"name":"On or near Hawtrey Road"},"longitude":"-0.168847"},"context":"","outcome_status":null,"persistent_id":"","id":74288945,"location_subtype":"","month":"2019-05"},{"category":"anti-social-behaviour","location_type":"Force","location":{"latitude":"51.543211","street":{"id":965190,"name":"On or near Briary Close"},"longitude":"-0.168452"},"context":"","outcome_status":null,"persistent_id":"","id":74288943,"location_subtype":"","month":"2019-05"},{"category":"anti-social-behaviour","location_type":"Force","location":{"latitude":"51.555801","street":{"id":967707,"name":"On or near Keats Grove"},"longitude":"-0.168495"},"context":"","outcome_status":null,"persistent_id":"","id":74288942,"location_subtype":"","month":"2019-05"},{"category":"anti-social-behaviour","location_type":"Force","location":{"latitude":"51.553223","street":{"id":967710,"name":"On or near Hampstead Green"},"longitude":"-0.167531"},"context":"","outcome_status":null,"persistent_id":"","id":74288940,"location_subtype":"","month":"2019-05"},{"category":"anti-social-behaviour","location_type":"Force","location":{"latitude":"51.555771","street":{"id":967703,"name":"On or near South End Road"},"longitude":"-0.166606"},"context":"","outcome_status":null,"persistent_id":"","id":74288939,"location_subtype":"","month":"2019-05"},{"category":"anti-social-behaviour","location_type":"Force","location":{"latitude":"51.549422","street":{"id":967720,"name":"On or near Lithos Road"},"longitude":"-0.183953"},"context":"","outcome_status":null,"persistent_id":"","id":74288994,"location_subtype":"","month":"2019-05"},{"category":"anti-social-behaviour","location_type":"Force","location":{"latitude":"51.555771","street":{"id":967703,"name":"On or near South End Road"},"longitude":"-0.166606"},"context":"","outcome_status":null,"persistent_id":"","id":74288938,"location_subtype":"","month":"2019-05"},{"category":"anti-social-behaviour","location_type":"Force","location":{"latitude":"51.551604","street":{"id":967711,"name":"On or near Petrol Station"},"longitude":"-0.166975"},"context":"","outcome_status":null,"persistent_id":"","id":74288937,"location_subtype":"","month":"2019-05"},{"category":"anti-social-behaviour","location_type":"Force","location":{"latitude":"51.551604","street":{"id":967711,"name":"On or near Petrol Station"},"longitude":"-0.166975"},"context":"","outcome_status":null,"persistent_id":"","id":74288936,"location_subtype":"","month":"2019-05"},{"category":"anti-social-behaviour","location_type":"Force","location":{"latitude":"51.551604","street":{"id":967711,"name":"On or near Petrol Station"},"longitude":"-0.166975"},"context":"","outcome_status":null,"persistent_id":"","id":74288935,"location_subtype":"","month":"2019-05"},{"category":"anti-social-behaviour","location_type":"Force","location":{"latitude":"51.546333","street":{"id":967781,"name":"On or near Goldhurst Terrace"},"longitude":"-0.179014"},"context":"","outcome_status":null,"persistent_id":"","id":74288983,"location_subtype":"","month":"2019-05"},{"category":"anti-social-behaviour","location_type":"Force","location":{"latitude":"51.561805","street":{"id":972109,"name":"On or near Kingswear Road"},"longitude":"-0.144852"},"context":"","outcome_status":null,"persistent_id":"","id":74288305,"location_subtype":"","month":"2019-05"},{"category":"anti-social-behaviour","location_type":"Force","location":{"latitude":"51.551604","street":{"id":967711,"name":"On or near Petrol Station"},"longitude":"-0.166975"},"context":"","outcome_status":null,"persistent_id":"","id":74288934,"location_subtype":"","month":"2019-05"},{"category":"anti-social-behaviour","location_type":"Force","location":{"latitude":"51.544871","street":{"id":965228,"name":"On or near College Crescent"},"longitude":"-0.175149"},"context":"","outcome_status":null,"persistent_id":"","id":74288962,"location_subtype":"","month":"2019-05"},{"category":"anti-social-behaviour","location_type":"Force","location":{"latitude":"51.562111","street":{"id":972324,"name":"On or near Vale Of Health"},"longitude":"-0.176421"},"context":"","outcome_status":null,"persistent_id":"","id":74288964,"location_subtype":"","month":"2019-05"},{"category":"anti-social-behaviour","location_type":"Force","location":{"latitude":"51.546333","street":{"id":967781,"name":"On or near Goldhurst Terrace"},"longitude":"-0.179014"},"context":"","outcome_status":null,"persistent_id":"","id":74288981,"location_subtype":"","month":"2019-05"},{"category":"anti-social-behaviour","location_type":"Force","location":{"latitude":"51.547815","street":{"id":968056,"name":"On or near Grafton Road"},"longitude":"-0.145551"},"context":"","outcome_status":null,"persistent_id":"","id":74288311,"location_subtype":"","month":"2019-05"},{"category":"anti-social-behaviour","location_type":"Force","location":{"latitude":"51.556516","street":{"id":967868,"name":"On or near Petrol Station"},"longitude":"-0.145918"},"context":"","outcome_status":null,"persistent_id":"","id":74288321,"location_subtype":"","month":"2019-05"},{"category":"anti-social-behaviour","location_type":"Force","location":{"latitude":"51.556516","street":{"id":967868,"name":"On or near Petrol Station"},"longitude":"-0.145918"},"context":"","outcome_status":null,"persistent_id":"","id":74288322,"location_subtype":"","month":"2019-05"},{"category":"anti-social-behaviour","location_type":"Force","location":{"latitude":"51.555811","street":{"id":967840,"name":"On or near Mortimer Terrace"},"longitude":"-0.146827"},"context":"","outcome_status":null,"persistent_id":"","id":74288337,"location_subtype":"","month":"2019-05"},{"category":"anti-social-behaviour","location_type":"Force","location":{"latitude":"51.548245","street":{"id":967825,"name":"On or near Athlone Street"},"longitude":"-0.148346"},"context":"","outcome_status":null,"persistent_id":"","id":74288344,"location_subtype":"","month":"2019-05"},{"category":"anti-social-behaviour","location_type":"Force","location":{"latitude":"51.555775","street":{"id":967857,"name":"On or near Gordon House Road"},"longitude":"-0.148560"},"context":"","outcome_status":null,"persistent_id":"","id":74288345,"location_subtype":"","month":"2019-05"},{"category":"anti-social-behaviour","location_type":"Force","location":{"latitude":"51.555775","street":{"id":967857,"name":"On or near Gordon House Road"},"longitude":"-0.148560"},"context":"","outcome_status":null,"persistent_id":"","id":74288346,"location_subtype":"","month":"2019-05"},{"category":"anti-social-behaviour","location_type":"Force","location":{"latitude":"51.562374","street":{"id":972272,"name":"On or near St Anne's Close"},"longitude":"-0.150701"},"context":"","outcome_status":null,"persistent_id":"","id":74288354,"location_subtype":"","month":"2019-05"},{"category":"anti-social-behaviour","location_type":"Force","location":{"latitude":"51.551248","street":{"id":967855,"name":"On or near Grafton Road"},"longitude":"-0.149998"},"context":"","outcome_status":null,"persistent_id":"","id":74288358,"location_subtype":"","month":"2019-05"},{"category":"anti-social-behaviour","location_type":"Force","location":{"latitude":"51.545917","street":{"id":967953,"name":"On or near Prince Of Wales Road"},"longitude":"-0.151267"},"context":"","outcome_status":null,"persistent_id":"","id":74288360,"location_subtype":"","month":"2019-05"},{"category":"anti-social-behaviour","location_type":"Force","location":{"latitude":"51.546291","street":{"id":967955,"name":"On or near Newbury Mews"},"longitude":"-0.150430"},"context":"","outcome_status":null,"persistent_id":"","id":74288361,"location_subtype":"","month":"2019-05"},{"category":"anti-social-behaviour","location_type":"Force","location":{"latitude":"51.544080","street":{"id":965118,"name":"On or near Belmont Street"},"longitude":"-0.151082"},"context":"","outcome_status":null,"persistent_id":"","id":74288362,"location_subtype":"","month":"2019-05"},{"category":"anti-social-behaviour","location_type":"Force","location":{"latitude":"51.552464","street":{"id":967862,"name":"On or near Dale Road"},"longitude":"-0.150728"},"context":"","outcome_status":null,"persistent_id":"","id":74288364,"location_subtype":"","month":"2019-05"},{"category":"anti-social-behaviour","location_type":"Force","location":{"latitude":"51.544885","street":{"id":965106,"name":"On or near Crogsland Road"},"longitude":"-0.151958"},"context":"","outcome_status":null,"persistent_id":"","id":74288365,"location_subtype":"","month":"2019-05"},{"category":"anti-social-behaviour","location_type":"Force","location":{"latitude":"51.547176","street":{"id":967957,"name":"On or near Marsden Street"},"longitude":"-0.151837"},"context":"","outcome_status":null,"persistent_id":"","id":74288366,"location_subtype":"","month":"2019-05"},{"category":"anti-social-behaviour","location_type":"Force","location":{"latitude":"51.547176","street":{"id":967957,"name":"On or near Marsden Street"},"longitude":"-0.151837"},"context":"","outcome_status":null,"persistent_id":"","id":74288367,"location_subtype":"","month":"2019-05"},{"category":"anti-social-behaviour","location_type":"Force","location":{"latitude":"51.547176","street":{"id":967957,"name":"On or near Marsden Street"},"longitude":"-0.151837"},"context":"","outcome_status":null,"persistent_id":"","id":74288368,"location_subtype":"","month":"2019-05"},{"category":"anti-social-behaviour","location_type":"Force","location":{"latitude":"51.547176","street":{"id":967957,"name":"On or near Marsden Street"},"longitude":"-0.151837"},"context":"","outcome_status":null,"persistent_id":"","id":74288369,"location_subtype":"","month":"2019-05"},{"category":"anti-social-behaviour","location_type":"Force","location":{"latitude":"51.547176","street":{"id":967957,"name":"On or near Marsden Street"},"longitude":"-0.151837"},"context":"","outcome_status":null,"persistent_id":"","id":74288370,"location_subtype":"","month":"2019-05"},{"category":"anti-social-behaviour","location_type":"Force","location":{"latitude":"51.547176","street":{"id":967957,"name":"On or near Marsden Street"},"longitude":"-0.151837"},"context":"","outcome_status":null,"persistent_id":"","id":74288858,"location_subtype":"","month":"2019-05"},{"category":"anti-social-behaviour","location_type":"Force","location":{"latitude":"51.547176","street":{"id":967957,"name":"On or near Marsden Street"},"longitude":"-0.151837"},"context":"","outcome_status":null,"persistent_id":"","id":74288857,"location_subtype":"","month":"2019-05"},{"category":"anti-social-behaviour","location_type":"Force","location":{"latitude":"51.547176","street":{"id":967957,"name":"On or near Marsden Street"},"longitude":"-0.151837"},"context":"","outcome_status":null,"persistent_id":"","id":74288859,"location_subtype":"","month":"2019-05"},{"category":"anti-social-behaviour","location_type":"Force","location":{"latitude":"51.552215","street":{"id":967836,"name":"On or near Vicar's Road"},"longitude":"-0.152555"},"context":"","outcome_status":null,"persistent_id":"","id":74288860,"location_subtype":"","month":"2019-05"},{"category":"anti-social-behaviour","location_type":"Force","location":{"latitude":"51.553711","street":{"id":967847,"name":"On or near Julia Street"},"longitude":"-0.152783"},"context":"","outcome_status":null,"persistent_id":"","id":74288861,"location_subtype":"","month":"2019-05"},{"category":"anti-social-behaviour","location_type":"Force","location":{"latitude":"51.547904","street":{"id":967823,"name":"On or near Baptist Gardens"},"longitude":"-0.154620"},"context":"","outcome_status":null,"persistent_id":"","id":74288868,"location_subtype":"","month":"2019-05"},{"category":"anti-social-behaviour","location_type":"Force","location":{"latitude":"51.567355","street":{"id":972279,"name":"On or near Holly Lodge Gardens"},"longitude":"-0.152360"},"context":"","outcome_status":null,"persistent_id":"","id":74288867,"location_subtype":"","month":"2019-05"},{"category":"anti-social-behaviour","location_type":"Force","location":{"latitude":"51.551042","street":{"id":967867,"name":"On or near Allcroft Road"},"longitude":"-0.152935"},"context":"","outcome_status":null,"persistent_id":"","id":74288869,"location_subtype":"","month":"2019-05"},{"category":"anti-social-behaviour","location_type":"Force","location":{"latitude":"51.551042","street":{"id":967867,"name":"On or near Allcroft Road"},"longitude":"-0.152935"},"context":"","outcome_status":null,"persistent_id":"","id":74288871,"location_subtype":"","month":"2019-05"},{"category":"anti-social-behaviour","location_type":"Force","location":{"latitude":"51.551042","street":{"id":967867,"name":"On or near Allcroft Road"},"longitude":"-0.152935"},"context":"","outcome_status":null,"persistent_id":"","id":74288870,"location_subtype":"","month":"2019-05"},{"category":"anti-social-behaviour","location_type":"Force","location":{"latitude":"51.551042","street":{"id":967867,"name":"On or near Allcroft Road"},"longitude":"-0.152935"},"context":"","outcome_status":null,"persistent_id":"","id":74288872,"location_subtype":"","month":"2019-05"},{"category":"anti-social-behaviour","location_type":"Force","location":{"latitude":"51.566313","street":{"id":972281,"name":"On or near Highgate West Hill"},"longitude":"-0.153614"},"context":"","outcome_status":null,"persistent_id":"","id":74288873,"location_subtype":"","month":"2019-05"},{"category":"anti-social-behaviour","location_type":"Force","location":{"latitude":"51.550499","street":{"id":967814,"name":"On or near Malden Road"},"longitude":"-0.154428"},"context":"","outcome_status":null,"persistent_id":"","id":74288874,"location_subtype":"","month":"2019-05"},{"category":"anti-social-behaviour","location_type":"Force","location":{"latitude":"51.567355","street":{"id":972279,"name":"On or near Holly Lodge Gardens"},"longitude":"-0.152360"},"context":"","outcome_status":null,"persistent_id":"","id":74288875,"location_subtype":"","month":"2019-05"},{"category":"anti-social-behaviour","location_type":"Force","location":{"latitude":"51.551440","street":{"id":967851,"name":"On or near Haverstock Road"},"longitude":"-0.154765"},"context":"","outcome_status":null,"persistent_id":"","id":74288877,"location_subtype":"","month":"2019-05"},{"category":"anti-social-behaviour","location_type":"Force","location":{"latitude":"51.543619","street":{"id":965115,"name":"On or near Bridge Approach"},"longitude":"-0.154908"},"context":"","outcome_status":null,"persistent_id":"","id":74288876,"location_subtype":"","month":"2019-05"},{"category":"anti-social-behaviour","location_type":"Force","location":{"latitude":"51.550996","street":{"id":967894,"name":"On or near Southampton Road"},"longitude":"-0.156817"},"context":"","outcome_status":null,"persistent_id":"","id":74288881,"location_subtype":"","month":"2019-05"},{"category":"anti-social-behaviour","location_type":"Force","location":{"latitude":"51.546767","street":{"id":967956,"name":"On or near Modbury Gardens"},"longitude":"-0.154983"},"context":"","outcome_status":null,"persistent_id":"","id":74288879,"location_subtype":"","month":"2019-05"},{"category":"anti-social-behaviour","location_type":"Force","location":{"latitude":"51.543870","street":{"id":965121,"name":"On or near Adelaide Road"},"longitude":"-0.156614"},"context":"","outcome_status":null,"persistent_id":"","id":74288880,"location_subtype":"","month":"2019-05"},{"category":"anti-social-behaviour","location_type":"Force","location":{"latitude":"51.548264","street":{"id":967816,"name":"On or near Maitland Park Villas"},"longitude":"-0.156365"},"context":"","outcome_status":null,"persistent_id":"","id":74288883,"location_subtype":"","month":"2019-05"},{"category":"anti-social-behaviour","location_type":"Force","location":{"latitude":"51.548264","street":{"id":967816,"name":"On or near Maitland Park Villas"},"longitude":"-0.156365"},"context":"","outcome_status":null,"persistent_id":"","id":74288884,"location_subtype":"","month":"2019-05"},{"category":"anti-social-behaviour","location_type":"Force","location":{"latitude":"51.550622","street":{"id":967875,"name":"On or near Park Hill Walk"},"longitude":"-0.158202"},"context":"","outcome_status":null,"persistent_id":"","id":74288885,"location_subtype":"","month":"2019-05"},{"category":"anti-social-behaviour","location_type":"Force","location":{"latitude":"51.553522","street":{"id":967910,"name":"On or near Heathgate Place"},"longitude":"-0.158474"},"context":"","outcome_status":null,"persistent_id":"","id":74288886,"location_subtype":"","month":"2019-05"},{"category":"anti-social-behaviour","location_type":"Force","location":{"latitude":"51.553522","street":{"id":967910,"name":"On or near Heathgate Place"},"longitude":"-0.158474"},"context":"","outcome_status":null,"persistent_id":"","id":74288887,"location_subtype":"","month":"2019-05"},{"category":"anti-social-behaviour","location_type":"Force","location":{"latitude":"51.553522","street":{"id":967910,"name":"On or near Heathgate Place"},"longitude":"-0.158474"},"context":"","outcome_status":null,"persistent_id":"","id":74288888,"location_subtype":"","month":"2019-05"},{"category":"anti-social-behaviour","location_type":"Force","location":{"latitude":"51.552251","street":{"id":967915,"name":"On or near Dunboyne Road"},"longitude":"-0.158857"},"context":"","outcome_status":null,"persistent_id":"","id":74288891,"location_subtype":"","month":"2019-05"},{"category":"anti-social-behaviour","location_type":"Force","location":{"latitude":"51.553522","street":{"id":967910,"name":"On or near Heathgate Place"},"longitude":"-0.158474"},"context":"","outcome_status":null,"persistent_id":"","id":74288889,"location_subtype":"","month":"2019-05"},{"category":"anti-social-behaviour","location_type":"Force","location":{"latitude":"51.542528","street":{"id":965036,"name":"On or near King Henry's Road"},"longitude":"-0.158731"},"context":"","outcome_status":null,"persistent_id":"","id":74288890,"location_subtype":"","month":"2019-05"},{"category":"anti-social-behaviour","location_type":"Force","location":{"latitude":"51.543854","street":{"id":965041,"name":"On or near Eton Road"},"longitude":"-0.159571"},"context":"","outcome_status":null,"persistent_id":"","id":74288892,"location_subtype":"","month":"2019-05"},{"category":"anti-social-behaviour","location_type":"Force","location":{"latitude":"51.541667","street":{"id":965030,"name":"On or near Oppidans Road"},"longitude":"-0.160063"},"context":"","outcome_status":null,"persistent_id":"","id":74288893,"location_subtype":"","month":"2019-05"},{"category":"anti-social-behaviour","location_type":"Force","location":{"latitude":"51.551801","street":{"id":967901,"name":"On or near Parkhill Road"},"longitude":"-0.159424"},"context":"","outcome_status":null,"persistent_id":"","id":74288894,"location_subtype":"","month":"2019-05"},{"category":"anti-social-behaviour","location_type":"Force","location":{"latitude":"51.541667","street":{"id":965030,"name":"On or near Oppidans Road"},"longitude":"-0.160063"},"context":"","outcome_status":null,"persistent_id":"","id":74288895,"location_subtype":"","month":"2019-05"},{"category":"anti-social-behaviour","location_type":"Force","location":{"latitude":"51.554877","street":{"id":967906,"name":"On or near Mackeson Road"},"longitude":"-0.160021"},"context":"","outcome_status":null,"persistent_id":"","id":74288896,"location_subtype":"","month":"2019-05"},{"category":"anti-social-behaviour","location_type":"Force","location":{"latitude":"51.554877","street":{"id":967906,"name":"On or near Mackeson Road"},"longitude":"-0.160021"},"context":"","outcome_status":null,"persistent_id":"","id":74288897,"location_subtype":"","month":"2019-05"},{"category":"anti-social-behaviour","location_type":"Force","location":{"latitude":"51.554144","street":{"id":967921,"name":"On or near Agincourt Road"},"longitude":"-0.160339"},"context":"","outcome_status":null,"persistent_id":"","id":74288899,"location_subtype":"","month":"2019-05"},{"category":"anti-social-behaviour","location_type":"Force","location":{"latitude":"51.551114","street":{"id":967890,"name":"On or near Upper Park Road"},"longitude":"-0.160375"},"context":"","outcome_status":null,"persistent_id":"","id":74288900,"location_subtype":"","month":"2019-05"},{"category":"anti-social-behaviour","location_type":"Force","location":{"latitude":"51.551114","street":{"id":967890,"name":"On or near Upper Park Road"},"longitude":"-0.160375"},"context":"","outcome_status":null,"persistent_id":"","id":74288901,"location_subtype":"","month":"2019-05"},{"category":"anti-social-behaviour","location_type":"Force","location":{"latitude":"51.551114","street":{"id":967890,"name":"On or near Upper Park Road"},"longitude":"-0.160375"},"context":"","outcome_status":null,"persistent_id":"","id":74288902,"location_subtype":"","month":"2019-05"},{"category":"bicycle-theft","location_type":"Force","location":{"latitude":"51.551604","street":{"id":967711,"name":"On or near Petrol Station"},"longitude":"-0.166975"},"context":"","outcome_status":{"category":"Status update unavailable","date":"2019-09"},"persistent_id":"84818fbbb458dd854c869032484c238ee6e6e3c5ff412380c6a9e7f11ee7cffd","id":74361939,"location_subtype":"","month":"2019-05"},{"category":"bicycle-theft","location_type":"Force","location":{"latitude":"51.550575","street":{"id":967879,"name":"On or near Haverstock Hill"},"longitude":"-0.164421"},"context":"","outcome_status":{"category":"Status update unavailable","date":"2019-09"},"persistent_id":"10b4488c3b0b9e75490a7b856338bcb2e91c9f988a89a846515fa91dcfddcdf5","id":74344169,"location_subtype":"","month":"2019-05"},{"category":"bicycle-theft","location_type":"Force","location":{"latitude":"51.550499","street":{"id":967814,"name":"On or near Malden Road"},"longitude":"-0.154428"},"context":"","outcome_status":{"category":"Status update unavailable","date":"2019-09"},"persistent_id":"fdbc2d0556e53f239228034b06fc71f750819814cea88ce6e7ed24dff78511dc","id":74353614,"location_subtype":"","month":"2019-05"},{"category":"bicycle-theft","location_type":"Force","location":{"latitude":"51.542741","street":{"id":965233,"name":"On or near Avenue Road"},"longitude":"-0.174124"},"context":"","outcome_status":{"category":"Status update unavailable","date":"2019-09"},"persistent_id":"e5b68cda8b8adb9fd6c5d2b5caccc3bbc8d2fcd2d3d8d31af148689bd5d57a17","id":74308720,"location_subtype":"","month":"2019-05"},{"category":"bicycle-theft","location_type":"Force","location":{"latitude":"51.545687","street":{"id":967962,"name":"On or near Craddock Street"},"longitude":"-0.153772"},"context":"","outcome_status":{"category":"Status update unavailable","date":"2019-09"},"persistent_id":"82bff7255fefe9b45fa87b91941f4a0c680983ac71ad506e569257365f4232ef","id":74315431,"location_subtype":"","month":"2019-05"},{"category":"bicycle-theft","location_type":"Force","location":{"latitude":"51.557328","street":{"id":967844,"name":"On or near Lissenden Gardens"},"longitude":"-0.148958"},"context":"","outcome_status":{"category":"Status update unavailable","date":"2019-09"},"persistent_id":"bf2a2cd1f323fadb7265123e3ef8e0961c1f471c2eeac22fe4232fe6b3e12ef2","id":74349679,"location_subtype":"","month":"2019-05"},{"category":"bicycle-theft","location_type":"Force","location":{"latitude":"51.543189","street":{"id":965197,"name":"On or near Winchester Road"},"longitude":"-0.172246"},"context":"","outcome_status":{"category":"Status update unavailable","date":"2019-09"},"persistent_id":"d033afc330a45c40959628d3fe97c494833eba13b014188f8518caa7f65cde41","id":74294487,"location_subtype":"","month":"2019-05"},{"category":"bicycle-theft","location_type":"Force","location":{"latitude":"51.549783","street":{"id":967820,"name":"On or near Gilden Crescent"},"longitude":"-0.152914"},"context":"","outcome_status":{"category":"Status update unavailable","date":"2019-09"},"persistent_id":"22386d868e79d78f063b642a60849ce9bab3d038d70cb11b4287c75fda782c28","id":74354063,"location_subtype":"","month":"2019-05"},{"category":"bicycle-theft","location_type":"Force","location":{"latitude":"51.559409","street":{"id":972298,"name":"On or near Woodsome Road"},"longitude":"-0.146912"},"context":"","outcome_status":{"category":"Status update unavailable","date":"2019-09"},"persistent_id":"904fd5cbe183d54e8c6feb5140ae238a65375c4b6664b243a9cc88117fb9c154","id":74350308,"location_subtype":"","month":"2019-05"},{"category":"bicycle-theft","location_type":"Force","location":{"latitude":"51.547945","street":{"id":967786,"name":"On or near Nightclub"},"longitude":"-0.181430"},"context":"","outcome_status":{"category":"Status update unavailable","date":"2019-09"},"persistent_id":"7d7fe2bf484b344a354848951c9bfbd9416ca94b230dd98a63aef0ac8eada4e0","id":74318812,"location_subtype":"","month":"2019-05"},{"category":"bicycle-theft","location_type":"Force","location":{"latitude":"51.551621","street":{"id":967705,"name":"On or near Perceval Avenue"},"longitude":"-0.168590"},"context":"","outcome_status":{"category":"Status update unavailable","date":"2019-09"},"persistent_id":"49ad34eefd06b7958fe071ed6895c96dae655e7d6cd00023aeab450abc8aa8fe","id":74310157,"location_subtype":"","month":"2019-05"},{"category":"bicycle-theft","location_type":"Force","location":{"latitude":"51.553224","street":{"id":967925,"name":"On or near Hospital"},"longitude":"-0.165324"},"context":"","outcome_status":{"category":"Status update unavailable","date":"2019-09"},"persistent_id":"d1948fa8b11f4f461b8fe616c86cc459e313ee097ae78b975d92738c1c88b4c8","id":74361937,"location_subtype":"","month":"2019-05"},{"category":"burglary","location_type":"Force","location":{"latitude":"51.551248","street":{"id":967855,"name":"On or near Grafton Road"},"longitude":"-0.149998"},"context":"","outcome_status":{"category":"Status update unavailable","date":"2019-09"},"persistent_id":"d1b938db484b316267cbe20c9fd8a8885c82d0b5270bdbc8fd62a30ded27a654","id":74342236,"location_subtype":"","month":"2019-05"},{"category":"burglary","location_type":"Force","location":{"latitude":"51.554468","street":{"id":967696,"name":"On or near Police Station"},"longitude":"-0.171246"},"context":"","outcome_status":{"category":"Status update unavailable","date":"2019-09"},"persistent_id":"99d525febff3372eda9d73c01e2c0e5968399ee40a05d8c48606e2f0f69de104","id":74341631,"location_subtype":"","month":"2019-05"},{"category":"burglary","location_type":"Force","location":{"latitude":"51.555775","street":{"id":967857,"name":"On or near Gordon House Road"},"longitude":"-0.148560"},"context":"","outcome_status":{"category":"Status update unavailable","date":"2019-09"},"persistent_id":"e792536e340ee5e84d2014058d7e7d419f7515a37e514a59d95d345e81275997","id":74341333,"location_subtype":"","month":"2019-05"},{"category":"burglary","location_type":"Force","location":{"latitude":"51.555699","street":{"id":967681,"name":"On or near Hampstead High Street"},"longitude":"-0.176404"},"context":"","outcome_status":{"category":"Status update unavailable","date":"2019-09"},"persistent_id":"8bfd1766381f11f56c4db90cba0d086082790a6207b06f1a26a563031d9e714a","id":74335064,"location_subtype":"","month":"2019-05"},{"category":"burglary","location_type":"Force","location":{"latitude":"51.551593","street":{"id":967920,"name":"On or near Aspern Grove"},"longitude":"-0.164538"},"context":"","outcome_status":{"category":"Court result unavailable","date":"2020-07"},"persistent_id":"b97cd0c34dad42a84888836854dfad1a1ff17076b56d592d6e9ca8374a2656fc","id":74334508,"location_subtype":"","month":"2019-05"},{"category":"burglary","location_type":"Force","location":{"latitude":"51.544526","street":{"id":965031,"name":"On or near Merton Rise"},"longitude":"-0.166885"},"context":"","outcome_status":{"category":"Status update unavailable","date":"2019-09"},"persistent_id":"5bddcfae1decd2e6a6a933bd528fdfcf0fbbe00e01d87b8229d61c81b1a7bf71","id":74310335,"location_subtype":"","month":"2019-05"},{"category":"burglary","location_type":"Force","location":{"latitude":"51.547836","street":{"id":967809,"name":"On or near Rhyl Street"},"longitude":"-0.150872"},"context":"","outcome_status":{"category":"Court result unavailable","date":"2020-03"},"persistent_id":"9c0aec05f9443beb0ba47f2c78e66a1604f818b7ef29f430c6a57be9566a8682","id":74340602,"location_subtype":"","month":"2019-05"},{"category":"burglary","location_type":"Force","location":{"latitude":"51.551652","street":{"id":967676,"name":"On or near Lyndhurst Road"},"longitude":"-0.175787"},"context":"","outcome_status":{"category":"Court result unavailable","date":"2019-11"},"persistent_id":"ed302d7ed9adf8096fc08a05245f7e301856bdbc3185106d01d918411a16680c","id":74322015,"location_subtype":"","month":"2019-05"},{"category":"burglary","location_type":"Force","location":{"latitude":"51.554441","street":{"id":967899,"name":"On or near Roderick Road"},"longitude":"-0.158048"},"context":"","outcome_status":{"category":"Status update unavailable","date":"2019-09"},"persistent_id":"5485bc9f7d7e41c7e75998998dba1feca74eecdfa1eb8fb5b494e8f261c45b62","id":74352771,"location_subtype":"","month":"2019-05"},{"category":"burglary","location_type":"Force","location":{"latitude":"51.549924","street":{"id":967730,"name":"On or near Nightclub"},"longitude":"-0.182649"},"context":"","outcome_status":{"category":"Status update unavailable","date":"2019-09"},"persistent_id":"9033bb5b03a234a122a15de5cb713d04a2c1f06469d8fbd538c0ce7101a632cf","id":74353401,"location_subtype":"","month":"2019-05"},{"category":"burglary","location_type":"Force","location":{"latitude":"51.545834","street":{"id":967793,"name":"On or near College Crescent"},"longitude":"-0.176957"},"context":"","outcome_status":{"category":"Status update unavailable","date":"2019-09"},"persistent_id":"360c7ff4b175b1c758aa6f04859c13578687d5c18a7042fa7763ade59f8a5cb7","id":74345772,"location_subtype":"","month":"2019-05"},{"category":"burglary","location_type":"Force","location":{"latitude":"51.549962","street":{"id":967721,"name":"On or near Hampstead Gate"},"longitude":"-0.181624"},"context":"","outcome_status":{"category":"Status update unavailable","date":"2019-09"},"persistent_id":"dc45df90a7142bcd818902ebc6ab318696b677911a3709f0a3407a3ddbc9c131","id":74346389,"location_subtype":"","month":"2019-05"},{"category":"burglary","location_type":"Force","location":{"latitude":"51.558911","street":{"id":967656,"name":"On or near Well Walk"},"longitude":"-0.173635"},"context":"","outcome_status":{"category":"Status update unavailable","date":"2019-09"},"persistent_id":"47e4677b12a304f4103f1b95dab1d79ba8362b45f2f6f38ea49c954d80755d92","id":74356885,"location_subtype":"","month":"2019-05"},{"category":"burglary","location_type":"Force","location":{"latitude":"51.541667","street":{"id":965030,"name":"On or near Oppidans Road"},"longitude":"-0.160063"},"context":"","outcome_status":{"category":"Status update unavailable","date":"2019-09"},"persistent_id":"3123bde30e906090764f58c1ac8b62ae5d6890493cdd6732df2fcad9e8dba963","id":74359215,"location_subtype":"","month":"2019-05"},{"category":"burglary","location_type":"Force","location":{"latitude":"51.547122","street":{"id":967932,"name":"On or near Primrose Gardens"},"longitude":"-0.163290"},"context":"","outcome_status":{"category":"Status update unavailable","date":"2019-09"},"persistent_id":"cb6c358f2b43fc759cf9a0aba14951926aeabf5ed2ff1026a3194745376f05a5","id":74368114,"location_subtype":"","month":"2019-05"},{"category":"burglary","location_type":"Force","location":{"latitude":"51.563058","street":{"id":972283,"name":"On or near Bromwich Avenue"},"longitude":"-0.147903"},"context":"","outcome_status":{"category":"Status update unavailable","date":"2019-09"},"persistent_id":"6ca4c6fc4ec37081bbed7d61165b8ba37b4e56dcf808326fa36933b887e44339","id":74353518,"location_subtype":"","month":"2019-05"},{"category":"burglary","location_type":"Force","location":{"latitude":"51.543480","street":{"id":965073,"name":"On or near Regent's Park Road"},"longitude":"-0.154092"},"context":"","outcome_status":{"category":"Status update unavailable","date":"2019-09"},"persistent_id":"0c8756d187d079990fabe2d7249069c75c457bb285cd41fa9ba8a0eebf0428f7","id":74346323,"location_subtype":"","month":"2019-05"},{"category":"burglary","location_type":"Force","location":{"latitude":"51.545389","street":{"id":967958,"name":"On or near Malden Crescent"},"longitude":"-0.149702"},"context":"","outcome_status":{"category":"Status update unavailable","date":"2019-09"},"persistent_id":"e025122cf1bac68eff2fb8ccc93928ea5d0c64bce004113e5ae1bd6f467dd916","id":74353014,"location_subtype":"","month":"2019-05"},{"category":"burglary","location_type":"Force","location":{"latitude":"51.547815","street":{"id":968056,"name":"On or near Grafton Road"},"longitude":"-0.145551"},"context":"","outcome_status":{"category":"Status update unavailable","date":"2019-09"},"persistent_id":"200397065da2f4e56ab3469523d81898e33a87ff553055ec88f7798e86d1eaae","id":74352969,"location_subtype":"","month":"2019-05"},{"category":"burglary","location_type":"Force","location":{"latitude":"51.542028","street":{"id":965035,"name":"On or near King Henry's Road"},"longitude":"-0.166437"},"context":"","outcome_status":{"category":"Status update unavailable","date":"2019-09"},"persistent_id":"f2b5769b15afa194f4e6845517a790f2d50cef864c084b2a056407ff0d4074b8","id":74296080,"location_subtype":"","month":"2019-05"},{"category":"burglary","location_type":"Force","location":{"latitude":"51.556438","street":{"id":967654,"name":"On or near Willoughby Road"},"longitude":"-0.173590"},"context":"","outcome_status":{"category":"Status update unavailable","date":"2019-09"},"persistent_id":"d37a2171b9642522e65e145f2c14a7d193055859f200faa54326f4688d7fa72b","id":74296087,"location_subtype":"","month":"2019-05"},{"category":"burglary","location_type":"Force","location":{"latitude":"51.546333","street":{"id":967781,"name":"On or near Goldhurst Terrace"},"longitude":"-0.179014"},"context":"","outcome_status":{"category":"Status update unavailable","date":"2019-09"},"persistent_id":"192e49f0ad225402b10dd5c2abc47e3a86e8225b58e5c7b456e3af0e8a2be4a4","id":74297494,"location_subtype":"","month":"2019-05"},{"category":"burglary","location_type":"Force","location":{"latitude":"51.542443","street":{"id":965061,"name":"On or near Regent's Park Road"},"longitude":"-0.155605"},"context":"","outcome_status":{"category":"Status update unavailable","date":"2019-09"},"persistent_id":"f0dfcb528d4093831616e6ab95535e3d459626d4da73f4fd51060baef69afd82","id":74357958,"location_subtype":"","month":"2019-05"},{"category":"burglary","location_type":"Force","location":{"latitude":"51.550413","street":{"id":967633,"name":"On or near Fitzjohn's Avenue"},"longitude":"-0.175908"},"context":"","outcome_status":{"category":"Status update unavailable","date":"2019-09"},"persistent_id":"2713d09aabf2313a4cd514ecc994ba5fa712b7ec96d0a6b866506fcdf6920844","id":74357473,"location_subtype":"","month":"2019-05"},{"category":"burglary","location_type":"Force","location":{"latitude":"51.547945","street":{"id":967786,"name":"On or near Nightclub"},"longitude":"-0.181430"},"context":"","outcome_status":{"category":"Status update unavailable","date":"2019-09"},"persistent_id":"dda3b5d450b3c5fda0d4307316f5657e370737e27128e321d0de434d8442d0f5","id":74357423,"location_subtype":"","month":"2019-05"},{"category":"burglary","location_type":"Force","location":{"latitude":"51.546376","street":{"id":967939,"name":"On or near Elizabeth Mews"},"longitude":"-0.162109"},"context":"","outcome_status":{"category":"Status update unavailable","date":"2019-09"},"persistent_id":"056ffef8a6adee56c3203e5fb51bab7c849a6f59c705424f0debae3e732283f6","id":74300018,"location_subtype":"","month":"2019-05"},{"category":"burglary","location_type":"Force","location":{"latitude":"51.551604","street":{"id":967711,"name":"On or near Petrol Station"},"longitude":"-0.166975"},"context":"","outcome_status":{"category":"Status update unavailable","date":"2019-09"},"persistent_id":"6b7d443784d59edb336cefc17214c5d24d33004af648514d31816e4d6ee7ce36","id":74361468,"location_subtype":"","month":"2019-05"},{"category":"burglary","location_type":"Force","location":{"latitude":"51.545834","street":{"id":967793,"name":"On or near College Crescent"},"longitude":"-0.176957"},"context":"","outcome_status":{"category":"Status update unavailable","date":"2019-09"},"persistent_id":"a01fce09e86d4f0baab6faaa9e1daeef995ebc3c50a8da578e95331a7a0ef764","id":74303137,"location_subtype":"","month":"2019-05"},{"category":"burglary","location_type":"Force","location":{"latitude":"51.550633","street":{"id":967887,"name":"On or near Supermarket"},"longitude":"-0.165789"},"context":"","outcome_status":{"category":"Status update unavailable","date":"2019-09"},"persistent_id":"e2c3480e300310f39980eac5d85c50c740aaf45a20e7f7bf361af1a13fd3d04d","id":74351610,"location_subtype":"","month":"2019-05"},{"category":"burglary","location_type":"Force","location":{"latitude":"51.548956","street":{"id":967874,"name":"On or near Parkhill Road"},"longitude":"-0.158644"},"context":"","outcome_status":{"category":"Status update unavailable","date":"2019-09"},"persistent_id":"4bee1a7c32be12c6fa905a3ef8a6a610aa5d6d270e6a75a9c5da609c07ed6308","id":74291668,"location_subtype":"","month":"2019-05"},{"category":"burglary","location_type":"Force","location":{"latitude":"51.550587","street":{"id":967883,"name":"On or near Downside Crescent"},"longitude":"-0.162891"},"context":"","outcome_status":{"category":"Status update unavailable","date":"2019-09"},"persistent_id":"a2a27cc9d05ee9abe83fcec4d9f105e3cf78d0b8a362546fbcbb5af3a9a7da92","id":74291669,"location_subtype":"","month":"2019-05"},{"category":"burglary","location_type":"Force","location":{"latitude":"51.547945","street":{"id":967786,"name":"On or near Nightclub"},"longitude":"-0.181430"},"context":"","outcome_status":{"category":"Status update unavailable","date":"2019-09"},"persistent_id":"4c4d95c6a0c15452a727ca8bb681158473ee699cdc79270b0538723da8e03120","id":74351236,"location_subtype":"","month":"2019-05"},{"category":"burglary","location_type":"Force","location":{"latitude":"51.547945","street":{"id":967786,"name":"On or near Nightclub"},"longitude":"-0.181430"},"context":"","outcome_status":{"category":"Status update unavailable","date":"2019-09"},"persistent_id":"351b5f38a2dc175c7647a4fcb6cc3a90c5a65256c71fb8f9d73ece1e43042e81","id":74351057,"location_subtype":"","month":"2019-05"},{"category":"burglary","location_type":"Force","location":{"latitude":"51.554144","street":{"id":967921,"name":"On or near Agincourt Road"},"longitude":"-0.160339"},"context":"","outcome_status":{"category":"Status update unavailable","date":"2019-09"},"persistent_id":"6901aa604f9fd7ad5bde5847b37e931c111b81747db0394da82b946b80e696b8","id":74292388,"location_subtype":"","month":"2019-05"},{"category":"burglary","location_type":"Force","location":{"latitude":"51.555852","street":{"id":967755,"name":"On or near Heath Street"},"longitude":"-0.178706"},"context":"","outcome_status":{"category":"Status update unavailable","date":"2019-09"},"persistent_id":"ed51d32bdf741da50a53ef76c5c9e0f6d74b6f4b732f21e859e270c73765dad8","id":74292456,"location_subtype":"","month":"2019-05"},{"category":"burglary","location_type":"Force","location":{"latitude":"51.550633","street":{"id":967887,"name":"On or near Supermarket"},"longitude":"-0.165789"},"context":"","outcome_status":{"category":"Status update unavailable","date":"2019-09"},"persistent_id":"73f16973ac0476062b0a3a8da7db1b5d60d3e9ccf2f40f75e5d2375d9411b490","id":74295256,"location_subtype":"","month":"2019-05"},{"category":"burglary","location_type":"Force","location":{"latitude":"51.553900","street":{"id":967666,"name":"On or near Rosslyn Hill"},"longitude":"-0.170619"},"context":"","outcome_status":{"category":"Status update unavailable","date":"2019-09"},"persistent_id":"dd66336fb869d49a54ac30c0c74751e1b33906423b88c88ea4c97d98a1274fa9","id":74295274,"location_subtype":"","month":"2019-05"},{"category":"burglary","location_type":"Force","location":{"latitude":"51.546376","street":{"id":967939,"name":"On or near Elizabeth Mews"},"longitude":"-0.162109"},"context":"","outcome_status":{"category":"Status update unavailable","date":"2019-09"},"persistent_id":"b46571c58f5123f1fd62e506f802d3dbb9f8407f2facc9b94fd59cc65c0c1089","id":74307105,"location_subtype":"","month":"2019-05"},{"category":"burglary","location_type":"Force","location":{"latitude":"51.553522","street":{"id":967910,"name":"On or near Heathgate Place"},"longitude":"-0.158474"},"context":"","outcome_status":{"category":"Status update unavailable","date":"2019-09"},"persistent_id":"76f2e2d6892929fa976517392e905b794d335e7165fcaebbbc3d4586a1a4e4b0","id":74349318,"location_subtype":"","month":"2019-05"},{"category":"burglary","location_type":"Force","location":{"latitude":"51.549962","street":{"id":967721,"name":"On or near Hampstead Gate"},"longitude":"-0.181624"},"context":"","outcome_status":{"category":"Status update unavailable","date":"2019-09"},"persistent_id":"f4ec51940443d7b1c0296ff4efa3bba3a7c43f8eb1bf02fe3c3e4fc9cdd26ecd","id":74349095,"location_subtype":"","month":"2019-05"},{"category":"burglary","location_type":"Force","location":{"latitude":"51.542741","street":{"id":965233,"name":"On or near Avenue Road"},"longitude":"-0.174124"},"context":"","outcome_status":{"category":"Status update unavailable","date":"2019-09"},"persistent_id":"c0421649a38cdf48ce3abfa5e66fd02cfba45930b3a06cb48353e6a84893b45f","id":74348731,"location_subtype":"","month":"2019-05"},{"category":"burglary","location_type":"Force","location":{"latitude":"51.542855","street":{"id":965085,"name":"On or near King Henry's Road"},"longitude":"-0.156078"},"context":"","outcome_status":{"category":"Status update unavailable","date":"2019-09"},"persistent_id":"59228e27ff342d46c58b81abd0d8836ff0a525a093f41ae2a81fd11d665d0acf","id":74308692,"location_subtype":"","month":"2019-05"},{"category":"burglary","location_type":"Force","location":{"latitude":"51.544802","street":{"id":965237,"name":"On or near Adamson Road"},"longitude":"-0.172498"},"context":"","outcome_status":{"category":"Status update unavailable","date":"2019-09"},"persistent_id":"e1b7dd8abb392f6f5bb4105b615e77177cebc9bb99dd2be3d44b782ee9c6451a","id":74305134,"location_subtype":"","month":"2019-05"},{"category":"burglary","location_type":"Force","location":{"latitude":"51.544798","street":{"id":965102,"name":"On or near Eton College Road"},"longitude":"-0.156115"},"context":"","outcome_status":{"category":"Status update unavailable","date":"2019-09"},"persistent_id":"047ce8d862f2db8ba62266045f605fc5a4b62fd05e0d1a6f7d159d653b7ff771","id":74348634,"location_subtype":"","month":"2019-05"},{"category":"burglary","location_type":"Force","location":{"latitude":"51.557394","street":{"id":967686,"name":"On or near Flask Walk"},"longitude":"-0.176134"},"context":"","outcome_status":{"category":"Status update unavailable","date":"2019-09"},"persistent_id":"b319a7da3a0ad4b8089a8755a0c7d86d2fa7477143464f9c2713ac277a8da50e","id":74323146,"location_subtype":"","month":"2019-05"},{"category":"burglary","location_type":"Force","location":{"latitude":"51.546739","street":{"id":967788,"name":"On or near Further\/higher Educational Building"},"longitude":"-0.179098"},"context":"","outcome_status":{"category":"Status update unavailable","date":"2019-09"},"persistent_id":"437d12c490ff2e1a8f7c24c63d51b7d6e36969a3e408ad58769c0520918ffe8a","id":74323189,"location_subtype":"","month":"2019-05"},{"category":"burglary","location_type":"Force","location":{"latitude":"51.544080","street":{"id":965118,"name":"On or near Belmont Street"},"longitude":"-0.151082"},"context":"","outcome_status":{"category":"Status update unavailable","date":"2019-09"},"persistent_id":"0d1c295d76276919f5755ca5371b68773eca0cbd7e4951fbe62908bffe62b0db","id":74348251,"location_subtype":"","month":"2019-05"},{"category":"burglary","location_type":"Force","location":{"latitude":"51.555775","street":{"id":967857,"name":"On or near Gordon House Road"},"longitude":"-0.148560"},"context":"","outcome_status":{"category":"Status update unavailable","date":"2019-09"},"persistent_id":"ab92aa56dd41d744556c4c6db758214d050fda7ffd6783c3a9adea1478164766","id":74323788,"location_subtype":"","month":"2019-05"},{"category":"burglary","location_type":"Force","location":{"latitude":"51.558160","street":{"id":968070,"name":"On or near Chetwynd Road"},"longitude":"-0.143543"},"context":"","outcome_status":{"category":"Status update unavailable","date":"2019-09"},"persistent_id":"cc7fc80a2e3262453b948deffca6757d5fdd90889f4509155495c26989b84ae7","id":74309842,"location_subtype":"","month":"2019-05"},{"category":"burglary","location_type":"Force","location":{"latitude":"51.551652","street":{"id":967676,"name":"On or near Lyndhurst Road"},"longitude":"-0.175787"},"context":"","outcome_status":{"category":"Status update unavailable","date":"2019-09"},"persistent_id":"169e6082102a1124c5996617f0f9c241dbc7ca66707a2e09d4f1fb33b55ab1d7","id":74309910,"location_subtype":"","month":"2019-05"},{"category":"burglary","location_type":"Force","location":{"latitude":"51.547176","street":{"id":967957,"name":"On or near Marsden Street"},"longitude":"-0.151837"},"context":"","outcome_status":{"category":"Status update unavailable","date":"2019-09"},"persistent_id":"fdba5bea20651a86c9cfd91e8e2e379c7ccfb06d12f62bd753c51ab17f0e00c2","id":74310298,"location_subtype":"","month":"2019-05"},{"category":"burglary","location_type":"Force","location":{"latitude":"51.549056","street":{"id":967632,"name":"On or near Maresfield Gardens"},"longitude":"-0.177722"},"context":"","outcome_status":{"category":"Status update unavailable","date":"2019-09"},"persistent_id":"df8d7be9fa645337d7a7dad26083bdb2d8f91fa31227a97588d38e80c2ae8a70","id":74311906,"location_subtype":"","month":"2019-05"},{"category":"burglary","location_type":"Force","location":{"latitude":"51.565544","street":{"id":972275,"name":"On or near Oakeshott Avenue"},"longitude":"-0.149851"},"context":"","outcome_status":{"category":"Status update unavailable","date":"2019-09"},"persistent_id":"6b6be4acd2e12e6cf8729ba990495ccef789a6bbe467104259bb38cac3b67ea0","id":74313726,"location_subtype":"","month":"2019-05"},{"category":"burglary","location_type":"Force","location":{"latitude":"51.566468","street":{"id":972274,"name":"On or near Robin Grove"},"longitude":"-0.152007"},"context":"","outcome_status":{"category":"Status update unavailable","date":"2019-09"},"persistent_id":"2a6243c6a2cfeecfb4b745e58bdab94d54105e7fc5c138c6e131e2e54c7de702","id":74326212,"location_subtype":"","month":"2019-05"},{"category":"burglary","location_type":"Force","location":{"latitude":"51.551593","street":{"id":967920,"name":"On or near Aspern Grove"},"longitude":"-0.164538"},"context":"","outcome_status":{"category":"Status update unavailable","date":"2019-09"},"persistent_id":"231b5c371f8a1fbcebc5f5be6e8dd4b6b387ec21eaa1c990441f20e6a0e30f2c","id":74354993,"location_subtype":"","month":"2019-05"},{"category":"burglary","location_type":"Force","location":{"latitude":"51.553224","street":{"id":967925,"name":"On or near Hospital"},"longitude":"-0.165324"},"context":"","outcome_status":{"category":"Status update unavailable","date":"2019-09"},"persistent_id":"fdc63fe6e2743e3134b51d7e779560a94fb3409d13b662c06bd5b6ed889cb9e7","id":74354281,"location_subtype":"","month":"2019-05"},{"category":"burglary","location_type":"Force","location":{"latitude":"51.558160","street":{"id":968070,"name":"On or near Chetwynd Road"},"longitude":"-0.143543"},"context":"","outcome_status":{"category":"Status update unavailable","date":"2019-09"},"persistent_id":"263eac6e774e8b5350c504c194b2b6625d9470f4d3b76a9f8dfc5c425de62404","id":74314709,"location_subtype":"","month":"2019-05"},{"category":"burglary","location_type":"Force","location":{"latitude":"51.550413","street":{"id":967633,"name":"On or near Fitzjohn's Avenue"},"longitude":"-0.175908"},"context":"","outcome_status":{"category":"Status update unavailable","date":"2019-09"},"persistent_id":"36f3aa583b82f291cb810710cbf41743f412f5c4b4f63b3bd2b5900e74c8be8c","id":74314864,"location_subtype":"","month":"2019-05"},{"category":"burglary","location_type":"Force","location":{"latitude":"51.554877","street":{"id":967906,"name":"On or near Mackeson Road"},"longitude":"-0.160021"},"context":"","outcome_status":{"category":"Status update unavailable","date":"2019-09"},"persistent_id":"77727e1c9cd0e207748001d426b3b66f7e5884bc36f7ebd5eeb4808ae8ba0d33","id":74315568,"location_subtype":"","month":"2019-05"},{"category":"burglary","location_type":"Force","location":{"latitude":"51.548688","street":{"id":967628,"name":"On or near Glenilla Road"},"longitude":"-0.167929"},"context":"","outcome_status":{"category":"Status update unavailable","date":"2019-09"},"persistent_id":"eacb5c11baf51a740e86946d77fe6dc8223b3d81d6a3a73eecf16a6494e5258d","id":74315982,"location_subtype":"","month":"2019-05"},{"category":"burglary","location_type":"Force","location":{"latitude":"51.543189","street":{"id":965197,"name":"On or near Winchester Road"},"longitude":"-0.172246"},"context":"","outcome_status":{"category":"Status update unavailable","date":"2019-09"},"persistent_id":"268a4948f225dd889e92f768c096b2db2920ce9274821ee5cf33f503d4059fd1","id":74316494,"location_subtype":"","month":"2019-05"},{"category":"burglary","location_type":"Force","location":{"latitude":"51.555699","street":{"id":967681,"name":"On or near Hampstead High Street"},"longitude":"-0.176404"},"context":"","outcome_status":{"category":"Status update unavailable","date":"2019-09"},"persistent_id":"0bbe760c8454bd3a878f746d98e1afbef05c80e8c42e9c63cca8763a68229dd2","id":74345773,"location_subtype":"","month":"2019-05"},{"category":"burglary","location_type":"Force","location":{"latitude":"51.543902","street":{"id":965028,"name":"On or near Primrose Hill Road"},"longitude":"-0.162627"},"context":"","outcome_status":{"category":"Status update unavailable","date":"2019-09"},"persistent_id":"84bd314269eb288dd944abe391fa1219c8d13b98cc42e79d53d40322be5e7f07","id":74313997,"location_subtype":"","month":"2019-05"},{"category":"burglary","location_type":"Force","location":{"latitude":"51.547051","street":{"id":967782,"name":"On or near Canfield Place"},"longitude":"-0.181192"},"context":"","outcome_status":{"category":"Status update unavailable","date":"2019-09"},"persistent_id":"60341d8b2af7421186efa7b076ec3936c752a8f1062d4e7643806da756fb2112","id":74340284,"location_subtype":"","month":"2019-05"},{"category":"burglary","location_type":"Force","location":{"latitude":"51.553723","street":{"id":967861,"name":"On or near Elaine Grove"},"longitude":"-0.153562"},"context":"","outcome_status":{"category":"Status update unavailable","date":"2019-09"},"persistent_id":"af76f8c5be94924d3e4a5f30a019d3623c87f77aac83b2fc8665a5ff78b44d00","id":74340283,"location_subtype":"","month":"2019-05"},{"category":"burglary","location_type":"Force","location":{"latitude":"51.548830","street":{"id":967635,"name":"On or near Daleham Gardens"},"longitude":"-0.174140"},"context":"","outcome_status":{"category":"Status update unavailable","date":"2019-09"},"persistent_id":"955f8b6b021692149a653a8df852780d53468a523b37f24e61de9dde9b98f422","id":74339065,"location_subtype":"","month":"2019-05"},{"category":"burglary","location_type":"Force","location":{"latitude":"51.547203","street":{"id":967954,"name":"On or near Perren Street"},"longitude":"-0.146124"},"context":"","outcome_status":{"category":"Status update unavailable","date":"2019-09"},"persistent_id":"33a2dcd2a0411c2b3bef794606d189ad6dc69c1f2e3af68cd011bdd3bba968d0","id":74338204,"location_subtype":"","month":"2019-05"},{"category":"burglary","location_type":"Force","location":{"latitude":"51.545834","street":{"id":967793,"name":"On or near College Crescent"},"longitude":"-0.176957"},"context":"","outcome_status":{"category":"Offender given a caution","date":"2019-12"},"persistent_id":"9bfdabdc1b14d646e6452fd42f66210f88613d04d2fc7dfede9d619f8712182b","id":74292530,"location_subtype":"","month":"2019-05"},{"category":"burglary","location_type":"Force","location":{"latitude":"51.551565","street":{"id":967678,"name":"On or near Lyndhurst Gardens"},"longitude":"-0.171376"},"context":"","outcome_status":{"category":"Status update unavailable","date":"2019-09"},"persistent_id":"c3082f2d46b1bd9ed9b96077a471b726dc139f71497256d017792b08b075d330","id":74338082,"location_subtype":"","month":"2019-05"},{"category":"burglary","location_type":"Force","location":{"latitude":"51.547945","street":{"id":967786,"name":"On or near Nightclub"},"longitude":"-0.181430"},"context":"","outcome_status":{"category":"Status update unavailable","date":"2019-09"},"persistent_id":"2ecb7eeb883f900d791bde1db00124d46e6b697b2be8b9cb7b80ec3bcf244561","id":74327740,"location_subtype":"","month":"2019-05"},{"category":"burglary","location_type":"Force","location":{"latitude":"51.559988","street":{"id":972335,"name":"On or near East Heath Road"},"longitude":"-0.172308"},"context":"","outcome_status":{"category":"Status update unavailable","date":"2019-09"},"persistent_id":"e07956908e9e91fc2d0659f9fd3d1ee469eb3ee68c47ee8ec2855283ad5db114","id":74337675,"location_subtype":"","month":"2019-05"},{"category":"burglary","location_type":"Force","location":{"latitude":"51.544100","street":{"id":965242,"name":"On or near Shopping Area"},"longitude":"-0.175916"},"context":"","outcome_status":{"category":"Status update unavailable","date":"2019-09"},"persistent_id":"e61bc523cac5a165fa4332ddf7eb2830e2feff787d1857d72e2e8569b0518fa2","id":74344207,"location_subtype":"","month":"2019-05"},{"category":"burglary","location_type":"Force","location":{"latitude":"51.540898","street":{"id":965288,"name":"On or near Wadham Gardens"},"longitude":"-0.167766"},"context":"","outcome_status":{"category":"Status update unavailable","date":"2019-09"},"persistent_id":"e707f19dd847f6c996e9fe20e6293c6cb4aa4afa5a756a16b5bf2e8310ac82c1","id":74328389,"location_subtype":"","month":"2019-05"},{"category":"burglary","location_type":"Force","location":{"latitude":"51.549962","street":{"id":967721,"name":"On or near Hampstead Gate"},"longitude":"-0.181624"},"context":"","outcome_status":{"category":"Status update unavailable","date":"2019-09"},"persistent_id":"cf649e9f97625f7f548ce0974eb45c2ca11a139374babea993c3172e4cce6896","id":74342751,"location_subtype":"","month":"2019-05"},{"category":"burglary","location_type":"Force","location":{"latitude":"51.555790","street":{"id":967837,"name":"On or near Savernake Road"},"longitude":"-0.155743"},"context":"","outcome_status":{"category":"Status update unavailable","date":"2019-09"},"persistent_id":"bbb68cfe466ad49bb7fdd3cd2e6ceee7353f604c422708079a109dfff5ed7896","id":74336891,"location_subtype":"","month":"2019-05"},{"category":"burglary","location_type":"Force","location":{"latitude":"51.556169","street":{"id":967669,"name":"On or near Pilgrim's Lane"},"longitude":"-0.171350"},"context":"","outcome_status":{"category":"Status update unavailable","date":"2019-09"},"persistent_id":"b144bb9fe772f7208d30f1a4f1ab66c4288c5acf9bf57331b8485604c4eff75d","id":74342389,"location_subtype":"","month":"2019-05"},{"category":"criminal-damage-arson","location_type":"Force","location":{"latitude":"51.543902","street":{"id":965028,"name":"On or near Primrose Hill Road"},"longitude":"-0.162627"},"context":"","outcome_status":{"category":"Status update unavailable","date":"2019-09"},"persistent_id":"15d66fa0c8c118b8fb7aa18561d9f977d069bb33b731ef6b6631817fa42a6479","id":74339321,"location_subtype":"","month":"2019-05"},{"category":"criminal-damage-arson","location_type":"Force","location":{"latitude":"51.561808","street":{"id":972304,"name":"On or near Whitestone Walk"},"longitude":"-0.180084"},"context":"","outcome_status":{"category":"Status update unavailable","date":"2019-09"},"persistent_id":"6432302625031db5869b83b33e7042237e9b90d701c8f93e35ceb261cda42013","id":74314672,"location_subtype":"","month":"2019-05"},{"category":"criminal-damage-arson","location_type":"Force","location":{"latitude":"51.556682","street":{"id":967683,"name":"On or near Gayton Road"},"longitude":"-0.175412"},"context":"","outcome_status":{"category":"Status update unavailable","date":"2019-09"},"persistent_id":"8beff180ff56ff28ed0498cef5d54b15632c6caaa4f1ab1f22da98f806209295","id":74360605,"location_subtype":"","month":"2019-05"},{"category":"criminal-damage-arson","location_type":"Force","location":{"latitude":"51.555337","street":{"id":967918,"name":"On or near Constantine Road"},"longitude":"-0.161257"},"context":"","outcome_status":{"category":"Status update unavailable","date":"2019-09"},"persistent_id":"b71a85742191b254ab31733ea8aa6645918d0f0ad2b80a6275ae0cdca5d19b7c","id":74298966,"location_subtype":"","month":"2019-05"},{"category":"criminal-damage-arson","location_type":"Force","location":{"latitude":"51.555801","street":{"id":967707,"name":"On or near Keats Grove"},"longitude":"-0.168495"},"context":"","outcome_status":{"category":"Status update unavailable","date":"2019-09"},"persistent_id":"0299297ddcc0eccedb3e2784e2485f93e698ab27a7f48f84843941cb380ca13d","id":74296586,"location_subtype":"","month":"2019-05"},{"category":"criminal-damage-arson","location_type":"Force","location":{"latitude":"51.558920","street":{"id":972299,"name":"On or near Highgate Road"},"longitude":"-0.148937"},"context":"","outcome_status":{"category":"Status update unavailable","date":"2019-09"},"persistent_id":"3b9177ecf1301e0dcc1e057ea5815e8c46e43548b5d3a305c379e5844453441b","id":74352906,"location_subtype":"","month":"2019-05"},{"category":"criminal-damage-arson","location_type":"Force","location":{"latitude":"51.554503","street":{"id":967652,"name":"On or near Parking Area"},"longitude":"-0.176423"},"context":"","outcome_status":{"category":"Status update unavailable","date":"2019-09"},"persistent_id":"9bc5b26b1f4afee3070b63286333824384533c0732cf24df92e676e3ba54b695","id":74343513,"location_subtype":"","month":"2019-05"},{"category":"criminal-damage-arson","location_type":"Force","location":{"latitude":"51.547945","street":{"id":967786,"name":"On or near Nightclub"},"longitude":"-0.181430"},"context":"","outcome_status":{"category":"Status update unavailable","date":"2019-09"},"persistent_id":"dd5a0b6f9ff61fec9dfafeab4f049b1937e250bc5776e1d4cc3462c44203d5b2","id":74324972,"location_subtype":"","month":"2019-05"},{"category":"criminal-damage-arson","location_type":"Force","location":{"latitude":"51.543919","street":{"id":965218,"name":"On or near Harben Road"},"longitude":"-0.177596"},"context":"","outcome_status":{"category":"Status update unavailable","date":"2019-09"},"persistent_id":"5ef5f51519a899199286404f0f95cd92d8197fae4637b668990f2dfdd0c45f14","id":74296232,"location_subtype":"","month":"2019-05"},{"category":"criminal-damage-arson","location_type":"Force","location":{"latitude":"51.553224","street":{"id":967925,"name":"On or near Hospital"},"longitude":"-0.165324"},"context":"","outcome_status":{"category":"Status update unavailable","date":"2019-09"},"persistent_id":"10043a415afef2b91bfc03982211debeca91219618887c16ec1f1bd3dc13f522","id":74347837,"location_subtype":"","month":"2019-05"},{"category":"criminal-damage-arson","location_type":"Force","location":{"latitude":"51.546182","street":{"id":967787,"name":"On or near Supermarket"},"longitude":"-0.179669"},"context":"","outcome_status":{"category":"Status update unavailable","date":"2019-09"},"persistent_id":"17829dc9cc6190584d1390b3ae68700829af18c4a5433fbbd435b142d499077d","id":74290316,"location_subtype":"","month":"2019-05"},{"category":"criminal-damage-arson","location_type":"Force","location":{"latitude":"51.554632","street":{"id":967897,"name":"On or near Shirlock Road"},"longitude":"-0.157030"},"context":"","outcome_status":{"category":"Status update unavailable","date":"2019-09"},"persistent_id":"20f2d82618236bab32a638d3ce12813a1857b5bb23edbe05fc449ad28439afda","id":74342044,"location_subtype":"","month":"2019-05"},{"category":"criminal-damage-arson","location_type":"BTP","location":{"latitude":"51.555400","street":{"id":1486830,"name":"Gospel Oak (station)"},"longitude":"-0.151328"},"context":"","outcome_status":{"category":"Status update unavailable","date":"2019-09"},"persistent_id":"","id":88719643,"location_subtype":"STATION","month":"2019-05"},{"category":"criminal-damage-arson","location_type":"Force","location":{"latitude":"51.542789","street":{"id":965023,"name":"On or near Quickswood"},"longitude":"-0.163349"},"context":"","outcome_status":{"category":"Status update unavailable","date":"2019-09"},"persistent_id":"196d56e5b0bb7df562dba59efd179f70ae88ecf0ac16bc2883a4243cb76fce9d","id":74353885,"location_subtype":"","month":"2019-05"},{"category":"criminal-damage-arson","location_type":"Force","location":{"latitude":"51.551248","street":{"id":967855,"name":"On or near Grafton Road"},"longitude":"-0.149998"},"context":"","outcome_status":{"category":"Status update unavailable","date":"2019-09"},"persistent_id":"6ba75a3bd696d0c452ca9848b5f915d725cf538f43b184060d23145721321813","id":74358727,"location_subtype":"","month":"2019-05"},{"category":"criminal-damage-arson","location_type":"Force","location":{"latitude":"51.554144","street":{"id":967921,"name":"On or near Agincourt Road"},"longitude":"-0.160339"},"context":"","outcome_status":{"category":"Local resolution","date":"2019-12"},"persistent_id":"e6b4cd5a0dac9f85962dab0c4308ce964884e677597bec5f85a50aaf85024db1","id":74331372,"location_subtype":"","month":"2019-05"},{"category":"criminal-damage-arson","location_type":"Force","location":{"latitude":"51.551593","street":{"id":967920,"name":"On or near Aspern Grove"},"longitude":"-0.164538"},"context":"","outcome_status":{"category":"Status update unavailable","date":"2019-09"},"persistent_id":"20ef107dcb4531d5a311f7a4d67d9623e26ba6d00dd0ca4be734c2749e716c3d","id":74370082,"location_subtype":"","month":"2019-05"},{"category":"criminal-damage-arson","location_type":"Force","location":{"latitude":"51.548245","street":{"id":967825,"name":"On or near Athlone Street"},"longitude":"-0.148346"},"context":"","outcome_status":{"category":"Status update unavailable","date":"2019-09"},"persistent_id":"63dc50ebfedc5de539ae7374ceae4e5d38d2eb4050b520c337dbf18f66635187","id":74311356,"location_subtype":"","month":"2019-05"},{"category":"criminal-damage-arson","location_type":"Force","location":{"latitude":"51.549222","street":{"id":967828,"name":"On or near Allcroft Road"},"longitude":"-0.150989"},"context":"","outcome_status":{"category":"Status update unavailable","date":"2019-09"},"persistent_id":"616098ecc776a41e943247ae912182b0b3b258d4c3169caef8a2f5c2126b3bba","id":74341003,"location_subtype":"","month":"2019-05"},{"category":"criminal-damage-arson","location_type":"Force","location":{"latitude":"51.550996","street":{"id":967894,"name":"On or near Southampton Road"},"longitude":"-0.156817"},"context":"","outcome_status":{"category":"Status update unavailable","date":"2019-09"},"persistent_id":"13ec116184c76a00786f17f96f4c93195212adb84a13bdb51ac51323b3d8f0c2","id":74305739,"location_subtype":"","month":"2019-05"},{"category":"criminal-damage-arson","location_type":"Force","location":{"latitude":"51.544885","street":{"id":965106,"name":"On or near Crogsland Road"},"longitude":"-0.151958"},"context":"","outcome_status":{"category":"Status update unavailable","date":"2019-09"},"persistent_id":"6514702f02ef90a2f533009a6e20a8e5b214895ab4da53e1ee93e2daccb9dc47","id":74319651,"location_subtype":"","month":"2019-05"},{"category":"criminal-damage-arson","location_type":"BTP","location":{"latitude":"51.547500","street":{"id":1488646,"name":"Finchley Road (lu Station)"},"longitude":"-0.180377"},"context":"","outcome_status":{"category":"Status update unavailable","date":"2019-09"},"persistent_id":"","id":88719630,"location_subtype":"LU STATION","month":"2019-05"},{"category":"criminal-damage-arson","location_type":"BTP","location":{"latitude":"51.547500","street":{"id":1488646,"name":"Finchley Road (lu Station)"},"longitude":"-0.180377"},"context":"","outcome_status":{"category":"Status update unavailable","date":"2019-09"},"persistent_id":"","id":88719629,"location_subtype":"LU STATION","month":"2019-05"},{"category":"criminal-damage-arson","location_type":"Force","location":{"latitude":"51.543902","street":{"id":965028,"name":"On or near Primrose Hill Road"},"longitude":"-0.162627"},"context":"","outcome_status":{"category":"Status update unavailable","date":"2019-09"},"persistent_id":"4bb46f6c318ebb2f60cb28da9d50a9fc542ae4c27bf210be220d35282da30913","id":74366943,"location_subtype":"","month":"2019-05"},{"category":"criminal-damage-arson","location_type":"Force","location":{"latitude":"51.553488","street":{"id":967913,"name":"On or near Fleet Road"},"longitude":"-0.161519"},"context":"","outcome_status":{"category":"Local resolution","date":"2019-05"},"persistent_id":"d8ffbce44a246b937c93bda5af6eac5d6f31595ae1cbadc34d45f65e04273203","id":74331757,"location_subtype":"","month":"2019-05"},{"category":"criminal-damage-arson","location_type":"Force","location":{"latitude":"51.558160","street":{"id":968070,"name":"On or near Chetwynd Road"},"longitude":"-0.143543"},"context":"","outcome_status":{"category":"Local resolution","date":"2019-05"},"persistent_id":"54632407b31aaccdb6566e566aa24978c9570c83969c314cf5f495184fe470d5","id":74359303,"location_subtype":"","month":"2019-05"},{"category":"criminal-damage-arson","location_type":"Force","location":{"latitude":"51.545385","street":{"id":965040,"name":"On or near Eton Villas"},"longitude":"-0.158024"},"context":"","outcome_status":{"category":"Status update unavailable","date":"2019-09"},"persistent_id":"ce8952d5596f47a3db08155248ff3c860bff29a522e235d9cd6a1df165f829d7","id":74310711,"location_subtype":"","month":"2019-05"},{"category":"criminal-damage-arson","location_type":"Force","location":{"latitude":"51.550575","street":{"id":967879,"name":"On or near Haverstock Hill"},"longitude":"-0.164421"},"context":"","outcome_status":{"category":"Status update unavailable","date":"2019-09"},"persistent_id":"8fdbb58adef9b92163c15498f42998e3d82e538a1839300b17a0bfd955431f16","id":74331742,"location_subtype":"","month":"2019-05"},{"category":"criminal-damage-arson","location_type":"Force","location":{"latitude":"51.544871","street":{"id":965228,"name":"On or near College Crescent"},"longitude":"-0.175149"},"context":"","outcome_status":{"category":"Status update unavailable","date":"2019-09"},"persistent_id":"aa5268ae5934d2573c2809dc35508adfee5af75147d3adc6c6ffc989ab122fc2","id":74293070,"location_subtype":"","month":"2019-05"},{"category":"criminal-damage-arson","location_type":"Force","location":{"latitude":"51.553224","street":{"id":967925,"name":"On or near Hospital"},"longitude":"-0.165324"},"context":"","outcome_status":{"category":"Status update unavailable","date":"2019-09"},"persistent_id":"fc855dd4a719455aa83339c6fa43ee6e9d0278d183b4c768dbc2bcf92c03a489","id":74295651,"location_subtype":"","month":"2019-05"},{"category":"drugs","location_type":"Force","location":{"latitude":"51.549222","street":{"id":967828,"name":"On or near Allcroft Road"},"longitude":"-0.150989"},"context":"","outcome_status":{"category":"Status update unavailable","date":"2019-09"},"persistent_id":"12942b1158c0dfb402bb7ba8c20fc40ce61a7785dd4cee7be0317a28ba7d8b89","id":74304960,"location_subtype":"","month":"2019-05"},{"category":"drugs","location_type":"Force","location":{"latitude":"51.548190","street":{"id":967882,"name":"On or near Fountain Mews"},"longitude":"-0.160233"},"context":"","outcome_status":{"category":"Local resolution","date":"2019-05"},"persistent_id":"adba92943f436b7c338f03e217fdb7eb9afc6d00e0d50437362847fe7cd1a17e","id":74306108,"location_subtype":"","month":"2019-05"},{"category":"drugs","location_type":"Force","location":{"latitude":"51.544526","street":{"id":965031,"name":"On or near Merton Rise"},"longitude":"-0.166885"},"context":"","outcome_status":{"category":"Offender given a drugs possession warning","date":"2019-05"},"persistent_id":"49b00bcc6a0eee7a5bab72c63ff1f71dd6021ddbee40f73ef002a415b85b654b","id":74290970,"location_subtype":"","month":"2019-05"},{"category":"drugs","location_type":"Force","location":{"latitude":"51.543171","street":{"id":965198,"name":"On or near Winchester Road"},"longitude":"-0.172232"},"context":"","outcome_status":{"category":"Local resolution","date":"2019-05"},"persistent_id":"14267f6be18421c11968bb55251f866f5f2e30adf849a56b49707d1a96135449","id":74311821,"location_subtype":"","month":"2019-05"},{"category":"drugs","location_type":"Force","location":{"latitude":"51.559988","street":{"id":972335,"name":"On or near East Heath Road"},"longitude":"-0.172308"},"context":"","outcome_status":{"category":"Court result unavailable","date":"2019-11"},"persistent_id":"186954d7f98ac02dea56d8e8a90646eca2d657e337bf51b4ec7fbe15192ca789","id":74301830,"location_subtype":"","month":"2019-05"},{"category":"drugs","location_type":"Force","location":{"latitude":"51.553224","street":{"id":967925,"name":"On or near Hospital"},"longitude":"-0.165324"},"context":"","outcome_status":{"category":"Local resolution","date":"2019-06"},"persistent_id":"c0cdc576f9204d05a60eb0a86b233466f311abaf419b8f6dab4d8c2e7824bc5b","id":74301381,"location_subtype":"","month":"2019-05"},{"category":"drugs","location_type":"Force","location":{"latitude":"51.551998","street":{"id":967834,"name":"On or near Wellesley Road"},"longitude":"-0.153660"},"context":"","outcome_status":{"category":"Local resolution","date":"2019-06"},"persistent_id":"ae530faa83d08f0d0c63495debd19e04bc3e41b940f4a2526f82432a10a2368b","id":74340831,"location_subtype":"","month":"2019-05"},{"category":"drugs","location_type":"Force","location":{"latitude":"51.543062","street":{"id":965215,"name":"On or near Hornby Close"},"longitude":"-0.170448"},"context":"","outcome_status":{"category":"Local resolution","date":"2019-05"},"persistent_id":"9e28fbd354789b711edd585f8a0c07fee60045e99a4d5dd8929fda2d02f765c7","id":74317693,"location_subtype":"","month":"2019-05"},{"category":"drugs","location_type":"BTP","location":{"latitude":"51.547500","street":{"id":1488646,"name":"Finchley Road (lu Station)"},"longitude":"-0.180377"},"context":"","outcome_status":{"category":"Status update unavailable","date":"2019-09"},"persistent_id":"","id":88719632,"location_subtype":"LU STATION","month":"2019-05"},{"category":"drugs","location_type":"Force","location":{"latitude":"51.557334","street":{"id":968062,"name":"On or near Twisden Road"},"longitude":"-0.144183"},"context":"","outcome_status":{"category":"Investigation complete; no suspect identified","date":"2020-05"},"persistent_id":"e7d7dfef12833b5b0251a1e111dc25008142f6740c4fd725754f6315953ce60a","id":74326443,"location_subtype":"","month":"2019-05"},{"category":"drugs","location_type":"Force","location":{"latitude":"51.550499","street":{"id":967814,"name":"On or near Malden Road"},"longitude":"-0.154428"},"context":"","outcome_status":{"category":"Local resolution","date":"2019-08"},"persistent_id":"d0804387d1e690a11fbaecdd0b8b6af01c2f2be4643ff28ae95d8afa9188d802","id":74341040,"location_subtype":"","month":"2019-05"},{"category":"other-theft","location_type":"Force","location":{"latitude":"51.549452","street":{"id":967642,"name":"On or near Belsize Mews"},"longitude":"-0.170826"},"context":"","outcome_status":{"category":"Status update unavailable","date":"2019-09"},"persistent_id":"84ae767d5a915b3d3a4d88493b960d97aeece700695e04dc139255512cc4b100","id":74348289,"location_subtype":"","month":"2019-05"},{"category":"other-theft","location_type":"Force","location":{"latitude":"51.544080","street":{"id":965118,"name":"On or near Belmont Street"},"longitude":"-0.151082"},"context":"","outcome_status":{"category":"Status update unavailable","date":"2019-09"},"persistent_id":"ef3e733bde5a6ddca440fcc90d2804ef803e68f5a593d1e053be7c8e25b27855","id":74336326,"location_subtype":"","month":"2019-05"},{"category":"other-theft","location_type":"Force","location":{"latitude":"51.546739","street":{"id":967788,"name":"On or near Further\/higher Educational Building"},"longitude":"-0.179098"},"context":"","outcome_status":{"category":"Investigation complete; no suspect identified","date":"2020-03"},"persistent_id":"02b80f6bd3423379e0fb9d31e05ece07bac470721b6a1b585015effee410fa7d","id":74328681,"location_subtype":"","month":"2019-05"},{"category":"other-theft","location_type":"Force","location":{"latitude":"51.542741","street":{"id":965233,"name":"On or near Avenue Road"},"longitude":"-0.174124"},"context":"","outcome_status":{"category":"Status update unavailable","date":"2019-09"},"persistent_id":"c8e2e3b4537dc13d934cd19fa89a7a97fadfead69e53ddee10085847ef2dffd9","id":74290597,"location_subtype":"","month":"2019-05"},{"category":"other-theft","location_type":"Force","location":{"latitude":"51.555508","street":{"id":967756,"name":"On or near Heath Street"},"longitude":"-0.178561"},"context":"","outcome_status":{"category":"Status update unavailable","date":"2019-09"},"persistent_id":"130823f99d116e603bdbe4f48056fb8c118916da07ec77544f490029bf388753","id":74341002,"location_subtype":"","month":"2019-05"},{"category":"other-theft","location_type":"Force","location":{"latitude":"51.555456","street":{"id":967738,"name":"On or near Perrin's Lane"},"longitude":"-0.177539"},"context":"","outcome_status":{"category":"Status update unavailable","date":"2019-09"},"persistent_id":"6c764fb62ff63852e2742033240abecbf632af781f774d07a4ec9f6f0eb4f14b","id":74348288,"location_subtype":"","month":"2019-05"},{"category":"other-theft","location_type":"Force","location":{"latitude":"51.545717","street":{"id":965240,"name":"On or near Petrol Station"},"longitude":"-0.177538"},"context":"","outcome_status":{"category":"Status update unavailable","date":"2019-09"},"persistent_id":"e416071f48e6b0034cc5d3a5b32aeef10c581ec76d6a4d70dd8713c7714ce3a0","id":74337163,"location_subtype":"","month":"2019-05"},{"category":"other-theft","location_type":"Force","location":{"latitude":"51.564855","street":{"id":972280,"name":"On or near Hillway"},"longitude":"-0.149504"},"context":"","outcome_status":{"category":"Status update unavailable","date":"2019-09"},"persistent_id":"f93192a6d940f8b994d08c415c8d98bfd6c52d66496e77cd42b0a63d1a1da42e","id":74318388,"location_subtype":"","month":"2019-05"},{"category":"other-theft","location_type":"Force","location":{"latitude":"51.555319","street":{"id":967682,"name":"On or near Greenhill"},"longitude":"-0.175121"},"context":"","outcome_status":{"category":"Status update unavailable","date":"2019-09"},"persistent_id":"9bd47a17552c6d98a1e71ec363ff2872e8fcb55b3ae8044fc259ec828d2893bb","id":74324959,"location_subtype":"","month":"2019-05"},{"category":"other-theft","location_type":"Force","location":{"latitude":"51.544100","street":{"id":965242,"name":"On or near Shopping Area"},"longitude":"-0.175916"},"context":"","outcome_status":{"category":"Status update unavailable","date":"2019-09"},"persistent_id":"5a0e09bc9237c6899316c97a31046347e9a719a7a05a30ecdd109550f717752f","id":74340635,"location_subtype":"","month":"2019-05"},{"category":"other-theft","location_type":"Force","location":{"latitude":"51.553223","street":{"id":967710,"name":"On or near Hampstead Green"},"longitude":"-0.167531"},"context":"","outcome_status":{"category":"Status update unavailable","date":"2019-09"},"persistent_id":"13294169390c11925598876035d73fc65225debfad28b78e2f674293054d5f6a","id":74325043,"location_subtype":"","month":"2019-05"},{"category":"other-theft","location_type":"Force","location":{"latitude":"51.547815","street":{"id":968056,"name":"On or near Grafton Road"},"longitude":"-0.145551"},"context":"","outcome_status":{"category":"Status update unavailable","date":"2019-09"},"persistent_id":"288db5d2307f850236a3bfeb61d64e367033f05b96722fa0e3642e3918015f01","id":74325447,"location_subtype":"","month":"2019-05"},{"category":"other-theft","location_type":"Force","location":{"latitude":"51.545834","street":{"id":967793,"name":"On or near College Crescent"},"longitude":"-0.176957"},"context":"","outcome_status":{"category":"Status update unavailable","date":"2019-09"},"persistent_id":"1c3829b7b7afbba490be47c9b5e5547da422bdf3502377919b2a6b842843d563","id":74347887,"location_subtype":"","month":"2019-05"},{"category":"other-theft","location_type":"Force","location":{"latitude":"51.543171","street":{"id":965198,"name":"On or near Winchester Road"},"longitude":"-0.172232"},"context":"","outcome_status":{"category":"Status update unavailable","date":"2019-09"},"persistent_id":"c6e7bcc13258d201db63559a041cbddbb24bcca60c65c8594700e705e39d24e6","id":74334750,"location_subtype":"","month":"2019-05"},{"category":"other-theft","location_type":"Force","location":{"latitude":"51.550161","street":{"id":967629,"name":"On or near Belsize Avenue"},"longitude":"-0.168389"},"context":"","outcome_status":{"category":"Status update unavailable","date":"2019-09"},