[{"category":"anti-social-behaviour","location_type":"Force","location":{"latitude":"51.551593","street":{"id":967920,"name":"On or near Aspern Grove"},"longitude":"-0.164538"},"context":"","outcome_status":null,"persistent_id":"","id":74288926,"location_subtype":"","month":"2019-05"},{"category":"anti-social-behaviour","location_type":"Force","location":{"latitude":"51.546109","street":{"id":967935,"name":"On or near Lambolle Place"},"longitude":"-0.165177"},"context":"","outcome_status":null,"persistent_id":"","id":74288928,"location_subtype":"","month":"2019-05"},{"category":"anti-social-behaviour","location_type":"Force","location":{"latitude":"51.551593","street":{"id":967920,"name":"On or near Aspern Grove"},"longitude":"-0.164538"},"context":"","outcome_status":null,"persistent_id":"","id":74288929,"location_subtype":"","month":"2019-05"},{"category":"anti-social-behaviour","location_type":"Force","location":{"latitude":"51.551604","street":{"id":967711,"name":"On or near Petrol Station"},"longitude":"-0.166975"},"context":"","outcome_status":null,"persistent_id":"","id":74288932,"location_subtype":"","month":"2019-05"},{"category":"anti-social-behaviour","location_type":"Force","location":{"latitude":"51.551604","street":{"id":967711,"name":"On or near Petrol Station"},"longitude":"-0.166975"},"context":"","outcome_status":null,"persistent_id":"","id":74288933,"location_subtype":"","month":"2019-05"},{"category":"anti-social-behaviour","location_type":"Force","location":{"latitude":"51.549183","street":{"id":967715,"name":"On or near Rosemont Road"},"longitude":"-0.183011"},"context":"","outcome_status":null,"persistent_id":"","id":74288987,"location_subtype":"","month":"2019-05"},{"category":"anti-social-behaviour","location_type":"Force","location":{"latitude":"51.555514","street":{"id":967768,"name":"On or near Church Row"},"longitude":"-0.180739"},"context":"","outcome_status":null,"persistent_id":"","id":74288986,"location_subtype":"","month":"2019-05"},{"category":"anti-social-behaviour","location_type":"Force","location":{"latitude":"51.547945","street":{"id":967786,"name":"On or near Nightclub"},"longitude":"-0.181430"},"context":"","outcome_status":null,"persistent_id":"","id":74288985,"location_subtype":"","month":"2019-05"},{"category":"anti-social-behaviour","location_type":"Force","location":{"latitude":"51.547724","street":{"id":967617,"name":"On or near Rowntree Close"},"longitude":"-0.192775"},"context":"","outcome_status":null,"persistent_id":"","id":74289181,"location_subtype":"","month":"2019-05"},{"category":"anti-social-behaviour","location_type":"Force","location":{"latitude":"51.547945","street":{"id":967786,"name":"On or near Nightclub"},"longitude":"-0.181430"},"context":"","outcome_status":null,"persistent_id":"","id":74288984,"location_subtype":"","month":"2019-05"},{"category":"anti-social-behaviour","location_type":"Force","location":{"latitude":"51.549422","street":{"id":967720,"name":"On or near Lithos Road"},"longitude":"-0.183953"},"context":"","outcome_status":null,"persistent_id":"","id":74288998,"location_subtype":"","month":"2019-05"},{"category":"anti-social-behaviour","location_type":"Force","location":{"latitude":"51.548328","street":{"id":967886,"name":"On or near Antrim Grove"},"longitude":"-0.162203"},"context":"","outcome_status":null,"persistent_id":"","id":74288909,"location_subtype":"","month":"2019-05"},{"category":"anti-social-behaviour","location_type":"Force","location":{"latitude":"51.554515","street":{"id":967916,"name":"On or near Cressy Road"},"longitude":"-0.161060"},"context":"","outcome_status":null,"persistent_id":"","id":74288907,"location_subtype":"","month":"2019-05"},{"category":"anti-social-behaviour","location_type":"Force","location":{"latitude":"51.548328","street":{"id":967886,"name":"On or near Antrim Grove"},"longitude":"-0.162203"},"context":"","outcome_status":null,"persistent_id":"","id":74288908,"location_subtype":"","month":"2019-05"},{"category":"anti-social-behaviour","location_type":"Force","location":{"latitude":"51.548328","street":{"id":967886,"name":"On or near Antrim Grove"},"longitude":"-0.162203"},"context":"","outcome_status":null,"persistent_id":"","id":74288910,"location_subtype":"","month":"2019-05"},{"category":"anti-social-behaviour","location_type":"Force","location":{"latitude":"51.545807","street":{"id":967943,"name":"On or near Supermarket"},"longitude":"-0.162579"},"context":"","outcome_status":null,"persistent_id":"","id":74288915,"location_subtype":"","month":"2019-05"},{"category":"anti-social-behaviour","location_type":"Force","location":{"latitude":"51.547122","street":{"id":967932,"name":"On or near Primrose Gardens"},"longitude":"-0.163290"},"context":"","outcome_status":null,"persistent_id":"","id":74288917,"location_subtype":"","month":"2019-05"},{"category":"anti-social-behaviour","location_type":"Force","location":{"latitude":"51.547122","street":{"id":967932,"name":"On or near Primrose Gardens"},"longitude":"-0.163290"},"context":"","outcome_status":null,"persistent_id":"","id":74288918,"location_subtype":"","month":"2019-05"},{"category":"anti-social-behaviour","location_type":"Force","location":{"latitude":"51.551600","street":{"id":967898,"name":"On or near Russell Place"},"longitude":"-0.163846"},"context":"","outcome_status":null,"persistent_id":"","id":74288921,"location_subtype":"","month":"2019-05"},{"category":"anti-social-behaviour","location_type":"Force","location":{"latitude":"51.551600","street":{"id":967898,"name":"On or near Russell Place"},"longitude":"-0.163846"},"context":"","outcome_status":null,"persistent_id":"","id":74288922,"location_subtype":"","month":"2019-05"},{"category":"anti-social-behaviour","location_type":"Force","location":{"latitude":"51.551593","street":{"id":967920,"name":"On or near Aspern Grove"},"longitude":"-0.164538"},"context":"","outcome_status":null,"persistent_id":"","id":74288925,"location_subtype":"","month":"2019-05"},{"category":"anti-social-behaviour","location_type":"Force","location":{"latitude":"51.557378","street":{"id":967895,"name":"On or near South Hill Park"},"longitude":"-0.164147"},"context":"","outcome_status":null,"persistent_id":"","id":74288927,"location_subtype":"","month":"2019-05"},{"category":"anti-social-behaviour","location_type":"Force","location":{"latitude":"51.553223","street":{"id":967710,"name":"On or near Hampstead Green"},"longitude":"-0.167531"},"context":"","outcome_status":null,"persistent_id":"","id":74288941,"location_subtype":"","month":"2019-05"},{"category":"anti-social-behaviour","location_type":"Force","location":{"latitude":"51.546333","street":{"id":967781,"name":"On or near Goldhurst Terrace"},"longitude":"-0.179014"},"context":"","outcome_status":null,"persistent_id":"","id":74288982,"location_subtype":"","month":"2019-05"},{"category":"anti-social-behaviour","location_type":"Force","location":{"latitude":"51.542220","street":{"id":965178,"name":"On or near Supermarket"},"longitude":"-0.178760"},"context":"","outcome_status":null,"persistent_id":"","id":74288979,"location_subtype":"","month":"2019-05"},{"category":"anti-social-behaviour","location_type":"Force","location":{"latitude":"51.546739","street":{"id":967788,"name":"On or near Further\/higher Educational Building"},"longitude":"-0.179098"},"context":"","outcome_status":null,"persistent_id":"","id":74288976,"location_subtype":"","month":"2019-05"},{"category":"anti-social-behaviour","location_type":"Force","location":{"latitude":"51.557694","street":{"id":967757,"name":"On or near Golden Yard"},"longitude":"-0.178618"},"context":"","outcome_status":null,"persistent_id":"","id":74288978,"location_subtype":"","month":"2019-05"},{"category":"anti-social-behaviour","location_type":"Force","location":{"latitude":"51.555508","street":{"id":967756,"name":"On or near Heath Street"},"longitude":"-0.178561"},"context":"","outcome_status":null,"persistent_id":"","id":74288975,"location_subtype":"","month":"2019-05"},{"category":"anti-social-behaviour","location_type":"Force","location":{"latitude":"51.559805","street":{"id":972430,"name":"On or near Hollycroft Avenue"},"longitude":"-0.191878"},"context":"","outcome_status":null,"persistent_id":"","id":74289180,"location_subtype":"","month":"2019-05"},{"category":"anti-social-behaviour","location_type":"Force","location":{"latitude":"51.549414","street":{"id":967724,"name":"On or near Dresden Close"},"longitude":"-0.185742"},"context":"","outcome_status":null,"persistent_id":"","id":74288999,"location_subtype":"","month":"2019-05"},{"category":"anti-social-behaviour","location_type":"Force","location":{"latitude":"51.553250","street":{"id":967557,"name":"On or near Cannon Hill"},"longitude":"-0.191301"},"context":"","outcome_status":null,"persistent_id":"","id":74289161,"location_subtype":"","month":"2019-05"},{"category":"anti-social-behaviour","location_type":"Force","location":{"latitude":"51.553250","street":{"id":967557,"name":"On or near Cannon Hill"},"longitude":"-0.191301"},"context":"","outcome_status":null,"persistent_id":"","id":74289162,"location_subtype":"","month":"2019-05"},{"category":"anti-social-behaviour","location_type":"Force","location":{"latitude":"51.556057","street":{"id":967543,"name":"On or near Weech Road"},"longitude":"-0.195474"},"context":"","outcome_status":null,"persistent_id":"","id":74289191,"location_subtype":"","month":"2019-05"},{"category":"anti-social-behaviour","location_type":"Force","location":{"latitude":"51.543919","street":{"id":965218,"name":"On or near Harben Road"},"longitude":"-0.177596"},"context":"","outcome_status":null,"persistent_id":"","id":74288973,"location_subtype":"","month":"2019-05"},{"category":"anti-social-behaviour","location_type":"Force","location":{"latitude":"51.543919","street":{"id":965218,"name":"On or near Harben Road"},"longitude":"-0.177596"},"context":"","outcome_status":null,"persistent_id":"","id":74288974,"location_subtype":"","month":"2019-05"},{"category":"anti-social-behaviour","location_type":"Force","location":{"latitude":"51.562111","street":{"id":972324,"name":"On or near Vale Of Health"},"longitude":"-0.176421"},"context":"","outcome_status":null,"persistent_id":"","id":74288972,"location_subtype":"","month":"2019-05"},{"category":"anti-social-behaviour","location_type":"Force","location":{"latitude":"51.547131","street":{"id":967620,"name":"On or near Blackburn Road"},"longitude":"-0.189900"},"context":"","outcome_status":null,"persistent_id":"","id":74289169,"location_subtype":"","month":"2019-05"},{"category":"anti-social-behaviour","location_type":"Force","location":{"latitude":"51.546333","street":{"id":967781,"name":"On or near Goldhurst Terrace"},"longitude":"-0.179014"},"context":"","outcome_status":null,"persistent_id":"","id":74288980,"location_subtype":"","month":"2019-05"},{"category":"anti-social-behaviour","location_type":"Force","location":{"latitude":"51.546423","street":{"id":967619,"name":"On or near Broadhurst Gardens"},"longitude":"-0.190029"},"context":"","outcome_status":null,"persistent_id":"","id":74289170,"location_subtype":"","month":"2019-05"},{"category":"anti-social-behaviour","location_type":"Force","location":{"latitude":"51.546423","street":{"id":967619,"name":"On or near Broadhurst Gardens"},"longitude":"-0.190029"},"context":"","outcome_status":null,"persistent_id":"","id":74289166,"location_subtype":"","month":"2019-05"},{"category":"anti-social-behaviour","location_type":"Force","location":{"latitude":"51.548950","street":{"id":967525,"name":"On or near Crown Close"},"longitude":"-0.188284"},"context":"","outcome_status":null,"persistent_id":"","id":74289165,"location_subtype":"","month":"2019-05"},{"category":"anti-social-behaviour","location_type":"Force","location":{"latitude":"51.562111","street":{"id":972324,"name":"On or near Vale Of Health"},"longitude":"-0.176421"},"context":"","outcome_status":null,"persistent_id":"","id":74288971,"location_subtype":"","month":"2019-05"},{"category":"anti-social-behaviour","location_type":"Force","location":{"latitude":"51.551604","street":{"id":967711,"name":"On or near Petrol Station"},"longitude":"-0.166975"},"context":"","outcome_status":null,"persistent_id":"","id":74288935,"location_subtype":"","month":"2019-05"},{"category":"anti-social-behaviour","location_type":"Force","location":{"latitude":"51.551604","street":{"id":967711,"name":"On or near Petrol Station"},"longitude":"-0.166975"},"context":"","outcome_status":null,"persistent_id":"","id":74288936,"location_subtype":"","month":"2019-05"},{"category":"anti-social-behaviour","location_type":"Force","location":{"latitude":"51.551604","street":{"id":967711,"name":"On or near Petrol Station"},"longitude":"-0.166975"},"context":"","outcome_status":null,"persistent_id":"","id":74288937,"location_subtype":"","month":"2019-05"},{"category":"anti-social-behaviour","location_type":"Force","location":{"latitude":"51.555771","street":{"id":967703,"name":"On or near South End Road"},"longitude":"-0.166606"},"context":"","outcome_status":null,"persistent_id":"","id":74288938,"location_subtype":"","month":"2019-05"},{"category":"anti-social-behaviour","location_type":"Force","location":{"latitude":"51.555771","street":{"id":967703,"name":"On or near South End Road"},"longitude":"-0.166606"},"context":"","outcome_status":null,"persistent_id":"","id":74288939,"location_subtype":"","month":"2019-05"},{"category":"anti-social-behaviour","location_type":"Force","location":{"latitude":"51.553223","street":{"id":967710,"name":"On or near Hampstead Green"},"longitude":"-0.167531"},"context":"","outcome_status":null,"persistent_id":"","id":74288940,"location_subtype":"","month":"2019-05"},{"category":"anti-social-behaviour","location_type":"Force","location":{"latitude":"51.555801","street":{"id":967707,"name":"On or near Keats Grove"},"longitude":"-0.168495"},"context":"","outcome_status":null,"persistent_id":"","id":74288942,"location_subtype":"","month":"2019-05"},{"category":"anti-social-behaviour","location_type":"Force","location":{"latitude":"51.552697","street":{"id":967658,"name":"On or near Waterhouse Close"},"longitude":"-0.170119"},"context":"","outcome_status":null,"persistent_id":"","id":74288946,"location_subtype":"","month":"2019-05"},{"category":"anti-social-behaviour","location_type":"Force","location":{"latitude":"51.543062","street":{"id":965215,"name":"On or near Hornby Close"},"longitude":"-0.170448"},"context":"","outcome_status":null,"persistent_id":"","id":74288947,"location_subtype":"","month":"2019-05"},{"category":"anti-social-behaviour","location_type":"Force","location":{"latitude":"51.543062","street":{"id":965215,"name":"On or near Hornby Close"},"longitude":"-0.170448"},"context":"","outcome_status":null,"persistent_id":"","id":74288949,"location_subtype":"","month":"2019-05"},{"category":"anti-social-behaviour","location_type":"Force","location":{"latitude":"51.554468","street":{"id":967696,"name":"On or near Police Station"},"longitude":"-0.171246"},"context":"","outcome_status":null,"persistent_id":"","id":74288951,"location_subtype":"","month":"2019-05"},{"category":"anti-social-behaviour","location_type":"Force","location":{"latitude":"51.555985","street":{"id":967689,"name":"On or near Downshire Hill"},"longitude":"-0.169930"},"context":"","outcome_status":null,"persistent_id":"","id":74288950,"location_subtype":"","month":"2019-05"},{"category":"anti-social-behaviour","location_type":"Force","location":{"latitude":"51.557518","street":{"id":967653,"name":"On or near Willow Road"},"longitude":"-0.171368"},"context":"","outcome_status":null,"persistent_id":"","id":74288952,"location_subtype":"","month":"2019-05"},{"category":"anti-social-behaviour","location_type":"Force","location":{"latitude":"51.544802","street":{"id":965237,"name":"On or near Adamson Road"},"longitude":"-0.172498"},"context":"","outcome_status":null,"persistent_id":"","id":74288953,"location_subtype":"","month":"2019-05"},{"category":"anti-social-behaviour","location_type":"Force","location":{"latitude":"51.544802","street":{"id":965237,"name":"On or near Adamson Road"},"longitude":"-0.172498"},"context":"","outcome_status":null,"persistent_id":"","id":74288954,"location_subtype":"","month":"2019-05"},{"category":"anti-social-behaviour","location_type":"Force","location":{"latitude":"51.548609","street":{"id":967631,"name":"On or near Mccrone Mews"},"longitude":"-0.172663"},"context":"","outcome_status":null,"persistent_id":"","id":74288955,"location_subtype":"","month":"2019-05"},{"category":"anti-social-behaviour","location_type":"Force","location":{"latitude":"51.569708","street":{"id":972327,"name":"On or near Spaniards Road"},"longitude":"-0.174011"},"context":"","outcome_status":null,"persistent_id":"","id":74288961,"location_subtype":"","month":"2019-05"},{"category":"anti-social-behaviour","location_type":"Force","location":{"latitude":"51.544100","street":{"id":965242,"name":"On or near Shopping Area"},"longitude":"-0.175916"},"context":"","outcome_status":null,"persistent_id":"","id":74288965,"location_subtype":"","month":"2019-05"},{"category":"anti-social-behaviour","location_type":"Force","location":{"latitude":"51.544100","street":{"id":965242,"name":"On or near Shopping Area"},"longitude":"-0.175916"},"context":"","outcome_status":null,"persistent_id":"","id":74288966,"location_subtype":"","month":"2019-05"},{"category":"anti-social-behaviour","location_type":"Force","location":{"latitude":"51.544100","street":{"id":965242,"name":"On or near Shopping Area"},"longitude":"-0.175916"},"context":"","outcome_status":null,"persistent_id":"","id":74288968,"location_subtype":"","month":"2019-05"},{"category":"anti-social-behaviour","location_type":"Force","location":{"latitude":"51.544100","street":{"id":965242,"name":"On or near Shopping Area"},"longitude":"-0.175916"},"context":"","outcome_status":null,"persistent_id":"","id":74288969,"location_subtype":"","month":"2019-05"},{"category":"anti-social-behaviour","location_type":"Force","location":{"latitude":"51.559061","street":{"id":972333,"name":"On or near Grove Place"},"longitude":"-0.175779"},"context":"","outcome_status":null,"persistent_id":"","id":74288970,"location_subtype":"","month":"2019-05"},{"category":"anti-social-behaviour","location_type":"Force","location":{"latitude":"51.553250","street":{"id":967557,"name":"On or near Cannon Hill"},"longitude":"-0.191301"},"context":"","outcome_status":null,"persistent_id":"","id":74289164,"location_subtype":"","month":"2019-05"},{"category":"anti-social-behaviour","location_type":"Force","location":{"latitude":"51.553250","street":{"id":967557,"name":"On or near Cannon Hill"},"longitude":"-0.191301"},"context":"","outcome_status":null,"persistent_id":"","id":74289163,"location_subtype":"","month":"2019-05"},{"category":"anti-social-behaviour","location_type":"Force","location":{"latitude":"51.543062","street":{"id":965215,"name":"On or near Hornby Close"},"longitude":"-0.170448"},"context":"","outcome_status":null,"persistent_id":"","id":74288948,"location_subtype":"","month":"2019-05"},{"category":"anti-social-behaviour","location_type":"Force","location":{"latitude":"51.554877","street":{"id":967906,"name":"On or near Mackeson Road"},"longitude":"-0.160021"},"context":"","outcome_status":null,"persistent_id":"","id":74288898,"location_subtype":"","month":"2019-05"},{"category":"anti-social-behaviour","location_type":"Force","location":{"latitude":"51.557178","street":{"id":967551,"name":"On or near Kidderpore Avenue"},"longitude":"-0.192978"},"context":"","outcome_status":null,"persistent_id":"","id":74289185,"location_subtype":"","month":"2019-05"},{"category":"anti-social-behaviour","location_type":"Force","location":{"latitude":"51.546333","street":{"id":967781,"name":"On or near Goldhurst Terrace"},"longitude":"-0.179014"},"context":"","outcome_status":null,"persistent_id":"","id":74288983,"location_subtype":"","month":"2019-05"},{"category":"anti-social-behaviour","location_type":"Force","location":{"latitude":"51.553510","street":{"id":967536,"name":"On or near Achilles Road"},"longitude":"-0.197681"},"context":"","outcome_status":null,"persistent_id":"","id":74289208,"location_subtype":"","month":"2019-05"},{"category":"anti-social-behaviour","location_type":"Force","location":{"latitude":"51.560451","street":{"id":972426,"name":"On or near Briardale Gardens"},"longitude":"-0.197003"},"context":"","outcome_status":null,"persistent_id":"","id":74289207,"location_subtype":"","month":"2019-05"},{"category":"anti-social-behaviour","location_type":"Force","location":{"latitude":"51.560451","street":{"id":972426,"name":"On or near Briardale Gardens"},"longitude":"-0.197003"},"context":"","outcome_status":null,"persistent_id":"","id":74289206,"location_subtype":"","month":"2019-05"},{"category":"anti-social-behaviour","location_type":"Force","location":{"latitude":"51.560451","street":{"id":972426,"name":"On or near Briardale Gardens"},"longitude":"-0.197003"},"context":"","outcome_status":null,"persistent_id":"","id":74289205,"location_subtype":"","month":"2019-05"},{"category":"anti-social-behaviour","location_type":"Force","location":{"latitude":"51.553692","street":{"id":967563,"name":"On or near Police Station"},"longitude":"-0.196044"},"context":"","outcome_status":null,"persistent_id":"","id":74289203,"location_subtype":"","month":"2019-05"},{"category":"anti-social-behaviour","location_type":"Force","location":{"latitude":"51.542741","street":{"id":965233,"name":"On or near Avenue Road"},"longitude":"-0.174124"},"context":"","outcome_status":null,"persistent_id":"","id":74288960,"location_subtype":"","month":"2019-05"},{"category":"anti-social-behaviour","location_type":"Force","location":{"latitude":"51.544871","street":{"id":965228,"name":"On or near College Crescent"},"longitude":"-0.175149"},"context":"","outcome_status":null,"persistent_id":"","id":74288963,"location_subtype":"","month":"2019-05"},{"category":"anti-social-behaviour","location_type":"Force","location":{"latitude":"51.545929","street":{"id":965360,"name":"On or near Sherriff Road"},"longitude":"-0.193582"},"context":"","outcome_status":null,"persistent_id":"","id":74289184,"location_subtype":"","month":"2019-05"},{"category":"anti-social-behaviour","location_type":"Force","location":{"latitude":"51.549120","street":{"id":967515,"name":"On or near Sumatra Road"},"longitude":"-0.195230"},"context":"","outcome_status":null,"persistent_id":"","id":74289193,"location_subtype":"","month":"2019-05"},{"category":"anti-social-behaviour","location_type":"Force","location":{"latitude":"51.549422","street":{"id":967720,"name":"On or near Lithos Road"},"longitude":"-0.183953"},"context":"","outcome_status":null,"persistent_id":"","id":74288994,"location_subtype":"","month":"2019-05"},{"category":"anti-social-behaviour","location_type":"Force","location":{"latitude":"51.553250","street":{"id":967557,"name":"On or near Cannon Hill"},"longitude":"-0.191301"},"context":"","outcome_status":null,"persistent_id":"","id":74289160,"location_subtype":"","month":"2019-05"},{"category":"anti-social-behaviour","location_type":"Force","location":{"latitude":"51.549422","street":{"id":967720,"name":"On or near Lithos Road"},"longitude":"-0.183953"},"context":"","outcome_status":null,"persistent_id":"","id":74288995,"location_subtype":"","month":"2019-05"},{"category":"anti-social-behaviour","location_type":"Force","location":{"latitude":"51.549183","street":{"id":967715,"name":"On or near Rosemont Road"},"longitude":"-0.183011"},"context":"","outcome_status":null,"persistent_id":"","id":74288993,"location_subtype":"","month":"2019-05"},{"category":"anti-social-behaviour","location_type":"Force","location":{"latitude":"51.547290","street":{"id":967618,"name":"On or near Medley Road"},"longitude":"-0.194927"},"context":"","outcome_status":null,"persistent_id":"","id":74289190,"location_subtype":"","month":"2019-05"},{"category":"anti-social-behaviour","location_type":"Force","location":{"latitude":"51.549422","street":{"id":967720,"name":"On or near Lithos Road"},"longitude":"-0.183953"},"context":"","outcome_status":null,"persistent_id":"","id":74288996,"location_subtype":"","month":"2019-05"},{"category":"anti-social-behaviour","location_type":"Force","location":{"latitude":"51.556503","street":{"id":967753,"name":"On or near Holly Bush Vale"},"longitude":"-0.178968"},"context":"","outcome_status":null,"persistent_id":"","id":74288977,"location_subtype":"","month":"2019-05"},{"category":"anti-social-behaviour","location_type":"Force","location":{"latitude":"51.549422","street":{"id":967720,"name":"On or near Lithos Road"},"longitude":"-0.183953"},"context":"","outcome_status":null,"persistent_id":"","id":74288997,"location_subtype":"","month":"2019-05"},{"category":"anti-social-behaviour","location_type":"Force","location":{"latitude":"51.551604","street":{"id":967711,"name":"On or near Petrol Station"},"longitude":"-0.166975"},"context":"","outcome_status":null,"persistent_id":"","id":74288934,"location_subtype":"","month":"2019-05"},{"category":"anti-social-behaviour","location_type":"Force","location":{"latitude":"51.544871","street":{"id":965228,"name":"On or near College Crescent"},"longitude":"-0.175149"},"context":"","outcome_status":null,"persistent_id":"","id":74288962,"location_subtype":"","month":"2019-05"},{"category":"anti-social-behaviour","location_type":"Force","location":{"latitude":"51.562111","street":{"id":972324,"name":"On or near Vale Of Health"},"longitude":"-0.176421"},"context":"","outcome_status":null,"persistent_id":"","id":74288964,"location_subtype":"","month":"2019-05"},{"category":"anti-social-behaviour","location_type":"Force","location":{"latitude":"51.546333","street":{"id":967781,"name":"On or near Goldhurst Terrace"},"longitude":"-0.179014"},"context":"","outcome_status":null,"persistent_id":"","id":74288981,"location_subtype":"","month":"2019-05"},{"category":"anti-social-behaviour","location_type":"Force","location":{"latitude":"51.568866","street":{"id":972321,"name":"On or near Mountview Close"},"longitude":"-0.183525"},"context":"","outcome_status":null,"persistent_id":"","id":74271844,"location_subtype":"","month":"2019-05"},{"category":"anti-social-behaviour","location_type":"Force","location":{"latitude":"51.567029","street":{"id":972403,"name":"On or near Carlton Close"},"longitude":"-0.193236"},"context":"","outcome_status":null,"persistent_id":"","id":74272348,"location_subtype":"","month":"2019-05"},{"category":"anti-social-behaviour","location_type":"Force","location":{"latitude":"51.562011","street":{"id":972396,"name":"On or near Hermitage Lane"},"longitude":"-0.194950"},"context":"","outcome_status":null,"persistent_id":"","id":74272352,"location_subtype":"","month":"2019-05"},{"category":"anti-social-behaviour","location_type":"Force","location":{"latitude":"51.560451","street":{"id":972426,"name":"On or near Briardale Gardens"},"longitude":"-0.197003"},"context":"","outcome_status":null,"persistent_id":"","id":74272362,"location_subtype":"","month":"2019-05"},{"category":"anti-social-behaviour","location_type":"Force","location":{"latitude":"51.560451","street":{"id":972426,"name":"On or near Briardale Gardens"},"longitude":"-0.197003"},"context":"","outcome_status":null,"persistent_id":"","id":74272369,"location_subtype":"","month":"2019-05"},{"category":"anti-social-behaviour","location_type":"Force","location":{"latitude":"51.550996","street":{"id":967894,"name":"On or near Southampton Road"},"longitude":"-0.156817"},"context":"","outcome_status":null,"persistent_id":"","id":74288881,"location_subtype":"","month":"2019-05"},{"category":"anti-social-behaviour","location_type":"Force","location":{"latitude":"51.550622","street":{"id":967875,"name":"On or near Park Hill Walk"},"longitude":"-0.158202"},"context":"","outcome_status":null,"persistent_id":"","id":74288885,"location_subtype":"","month":"2019-05"},{"category":"anti-social-behaviour","location_type":"Force","location":{"latitude":"51.553522","street":{"id":967910,"name":"On or near Heathgate Place"},"longitude":"-0.158474"},"context":"","outcome_status":null,"persistent_id":"","id":74288886,"location_subtype":"","month":"2019-05"},{"category":"anti-social-behaviour","location_type":"Force","location":{"latitude":"51.553522","street":{"id":967910,"name":"On or near Heathgate Place"},"longitude":"-0.158474"},"context":"","outcome_status":null,"persistent_id":"","id":74288887,"location_subtype":"","month":"2019-05"},{"category":"anti-social-behaviour","location_type":"Force","location":{"latitude":"51.553522","street":{"id":967910,"name":"On or near Heathgate Place"},"longitude":"-0.158474"},"context":"","outcome_status":null,"persistent_id":"","id":74288888,"location_subtype":"","month":"2019-05"},{"category":"anti-social-behaviour","location_type":"Force","location":{"latitude":"51.552251","street":{"id":967915,"name":"On or near Dunboyne Road"},"longitude":"-0.158857"},"context":"","outcome_status":null,"persistent_id":"","id":74288891,"location_subtype":"","month":"2019-05"},{"category":"anti-social-behaviour","location_type":"Force","location":{"latitude":"51.553522","street":{"id":967910,"name":"On or near Heathgate Place"},"longitude":"-0.158474"},"context":"","outcome_status":null,"persistent_id":"","id":74288889,"location_subtype":"","month":"2019-05"},{"category":"anti-social-behaviour","location_type":"Force","location":{"latitude":"51.551801","street":{"id":967901,"name":"On or near Parkhill Road"},"longitude":"-0.159424"},"context":"","outcome_status":null,"persistent_id":"","id":74288894,"location_subtype":"","month":"2019-05"},{"category":"anti-social-behaviour","location_type":"Force","location":{"latitude":"51.554877","street":{"id":967906,"name":"On or near Mackeson Road"},"longitude":"-0.160021"},"context":"","outcome_status":null,"persistent_id":"","id":74288896,"location_subtype":"","month":"2019-05"},{"category":"anti-social-behaviour","location_type":"Force","location":{"latitude":"51.554877","street":{"id":967906,"name":"On or near Mackeson Road"},"longitude":"-0.160021"},"context":"","outcome_status":null,"persistent_id":"","id":74288897,"location_subtype":"","month":"2019-05"},{"category":"anti-social-behaviour","location_type":"Force","location":{"latitude":"51.554144","street":{"id":967921,"name":"On or near Agincourt Road"},"longitude":"-0.160339"},"context":"","outcome_status":null,"persistent_id":"","id":74288899,"location_subtype":"","month":"2019-05"},{"category":"anti-social-behaviour","location_type":"Force","location":{"latitude":"51.551114","street":{"id":967890,"name":"On or near Upper Park Road"},"longitude":"-0.160375"},"context":"","outcome_status":null,"persistent_id":"","id":74288900,"location_subtype":"","month":"2019-05"},{"category":"anti-social-behaviour","location_type":"Force","location":{"latitude":"51.551114","street":{"id":967890,"name":"On or near Upper Park Road"},"longitude":"-0.160375"},"context":"","outcome_status":null,"persistent_id":"","id":74288901,"location_subtype":"","month":"2019-05"},{"category":"anti-social-behaviour","location_type":"Force","location":{"latitude":"51.551114","street":{"id":967890,"name":"On or near Upper Park Road"},"longitude":"-0.160375"},"context":"","outcome_status":null,"persistent_id":"","id":74288902,"location_subtype":"","month":"2019-05"},{"category":"anti-social-behaviour","location_type":"Force","location":{"latitude":"51.551114","street":{"id":967890,"name":"On or near Upper Park Road"},"longitude":"-0.160375"},"context":"","outcome_status":null,"persistent_id":"","id":74288903,"location_subtype":"","month":"2019-05"},{"category":"bicycle-theft","location_type":"Force","location":{"latitude":"51.546319","street":{"id":967622,"name":"On or near Nightclub"},"longitude":"-0.191432"},"context":"","outcome_status":{"category":"Status update unavailable","date":"2019-09"},"persistent_id":"f1cca174893b4bd8cb9ef6a0c1e57ecd10a23931658ff5ddfed5bf1c4206e871","id":74310190,"location_subtype":"","month":"2019-05"},{"category":"bicycle-theft","location_type":"Force","location":{"latitude":"51.551604","street":{"id":967711,"name":"On or near Petrol Station"},"longitude":"-0.166975"},"context":"","outcome_status":{"category":"Status update unavailable","date":"2019-09"},"persistent_id":"84818fbbb458dd854c869032484c238ee6e6e3c5ff412380c6a9e7f11ee7cffd","id":74361939,"location_subtype":"","month":"2019-05"},{"category":"bicycle-theft","location_type":"Force","location":{"latitude":"51.553224","street":{"id":967925,"name":"On or near Hospital"},"longitude":"-0.165324"},"context":"","outcome_status":{"category":"Status update unavailable","date":"2019-09"},"persistent_id":"d1948fa8b11f4f461b8fe616c86cc459e313ee097ae78b975d92738c1c88b4c8","id":74361937,"location_subtype":"","month":"2019-05"},{"category":"bicycle-theft","location_type":"Force","location":{"latitude":"51.562640","street":{"id":972352,"name":"On or near Sunnyside"},"longitude":"-0.198460"},"context":"","outcome_status":{"category":"Status update unavailable","date":"2019-09"},"persistent_id":"16cd178b21309b4c2dcd24606ea65f4d03e1929fed137b4541859dc95d15686b","id":74330776,"location_subtype":"","month":"2019-05"},{"category":"bicycle-theft","location_type":"Force","location":{"latitude":"51.543189","street":{"id":965197,"name":"On or near Winchester Road"},"longitude":"-0.172246"},"context":"","outcome_status":{"category":"Status update unavailable","date":"2019-09"},"persistent_id":"d033afc330a45c40959628d3fe97c494833eba13b014188f8518caa7f65cde41","id":74294487,"location_subtype":"","month":"2019-05"},{"category":"bicycle-theft","location_type":"Force","location":{"latitude":"51.547945","street":{"id":967786,"name":"On or near Nightclub"},"longitude":"-0.181430"},"context":"","outcome_status":{"category":"Status update unavailable","date":"2019-09"},"persistent_id":"7d7fe2bf484b344a354848951c9bfbd9416ca94b230dd98a63aef0ac8eada4e0","id":74318812,"location_subtype":"","month":"2019-05"},{"category":"bicycle-theft","location_type":"Force","location":{"latitude":"51.546319","street":{"id":967622,"name":"On or near Nightclub"},"longitude":"-0.191432"},"context":"","outcome_status":{"category":"Status update unavailable","date":"2019-09"},"persistent_id":"1d0aaeeb5601b4567257411d74c2c9e98eb78926844a9d9106b5b18951d8a6fa","id":74345119,"location_subtype":"","month":"2019-05"},{"category":"bicycle-theft","location_type":"Force","location":{"latitude":"51.542741","street":{"id":965233,"name":"On or near Avenue Road"},"longitude":"-0.174124"},"context":"","outcome_status":{"category":"Status update unavailable","date":"2019-09"},"persistent_id":"e5b68cda8b8adb9fd6c5d2b5caccc3bbc8d2fcd2d3d8d31af148689bd5d57a17","id":74308720,"location_subtype":"","month":"2019-05"},{"category":"bicycle-theft","location_type":"Force","location":{"latitude":"51.550575","street":{"id":967879,"name":"On or near Haverstock Hill"},"longitude":"-0.164421"},"context":"","outcome_status":{"category":"Status update unavailable","date":"2019-09"},"persistent_id":"10b4488c3b0b9e75490a7b856338bcb2e91c9f988a89a846515fa91dcfddcdf5","id":74344169,"location_subtype":"","month":"2019-05"},{"category":"bicycle-theft","location_type":"Force","location":{"latitude":"51.550764","street":{"id":967520,"name":"On or near Inglewood Road"},"longitude":"-0.192813"},"context":"","outcome_status":{"category":"Status update unavailable","date":"2019-09"},"persistent_id":"f38606dc4d9678e0f367747a29aa0bf619ba2c9a7b38c07381c0661ffca05ccf","id":74336194,"location_subtype":"","month":"2019-05"},{"category":"bicycle-theft","location_type":"Force","location":{"latitude":"51.551621","street":{"id":967705,"name":"On or near Perceval Avenue"},"longitude":"-0.168590"},"context":"","outcome_status":{"category":"Status update unavailable","date":"2019-09"},"persistent_id":"49ad34eefd06b7958fe071ed6895c96dae655e7d6cd00023aeab450abc8aa8fe","id":74310157,"location_subtype":"","month":"2019-05"},{"category":"burglary","location_type":"Force","location":{"latitude":"51.550413","street":{"id":967633,"name":"On or near Fitzjohn's Avenue"},"longitude":"-0.175908"},"context":"","outcome_status":{"category":"Status update unavailable","date":"2019-09"},"persistent_id":"36f3aa583b82f291cb810710cbf41743f412f5c4b4f63b3bd2b5900e74c8be8c","id":74314864,"location_subtype":"","month":"2019-05"},{"category":"burglary","location_type":"Force","location":{"latitude":"51.554144","street":{"id":967921,"name":"On or near Agincourt Road"},"longitude":"-0.160339"},"context":"","outcome_status":{"category":"Status update unavailable","date":"2019-09"},"persistent_id":"6901aa604f9fd7ad5bde5847b37e931c111b81747db0394da82b946b80e696b8","id":74292388,"location_subtype":"","month":"2019-05"},{"category":"burglary","location_type":"Force","location":{"latitude":"51.555852","street":{"id":967755,"name":"On or near Heath Street"},"longitude":"-0.178706"},"context":"","outcome_status":{"category":"Status update unavailable","date":"2019-09"},"persistent_id":"ed51d32bdf741da50a53ef76c5c9e0f6d74b6f4b732f21e859e270c73765dad8","id":74292456,"location_subtype":"","month":"2019-05"},{"category":"burglary","location_type":"Force","location":{"latitude":"51.549056","street":{"id":967632,"name":"On or near Maresfield Gardens"},"longitude":"-0.177722"},"context":"","outcome_status":{"category":"Status update unavailable","date":"2019-09"},"persistent_id":"df8d7be9fa645337d7a7dad26083bdb2d8f91fa31227a97588d38e80c2ae8a70","id":74311906,"location_subtype":"","month":"2019-05"},{"category":"burglary","location_type":"Force","location":{"latitude":"51.551593","street":{"id":967920,"name":"On or near Aspern Grove"},"longitude":"-0.164538"},"context":"","outcome_status":{"category":"Court result unavailable","date":"2020-07"},"persistent_id":"b97cd0c34dad42a84888836854dfad1a1ff17076b56d592d6e9ca8374a2656fc","id":74334508,"location_subtype":"","month":"2019-05"},{"category":"burglary","location_type":"Force","location":{"latitude":"51.549446","street":{"id":967519,"name":"On or near Kingdon Road"},"longitude":"-0.193068"},"context":"","outcome_status":{"category":"Court result unavailable","date":"2020-02"},"persistent_id":"fe4056c577d3bd386fa87bdc6928d727c317eb2684718d84ea40953a23240d25","id":74353004,"location_subtype":"","month":"2019-05"},{"category":"burglary","location_type":"Force","location":{"latitude":"51.551652","street":{"id":967676,"name":"On or near Lyndhurst Road"},"longitude":"-0.175787"},"context":"","outcome_status":{"category":"Status update unavailable","date":"2019-09"},"persistent_id":"169e6082102a1124c5996617f0f9c241dbc7ca66707a2e09d4f1fb33b55ab1d7","id":74309910,"location_subtype":"","month":"2019-05"},{"category":"burglary","location_type":"Force","location":{"latitude":"51.550764","street":{"id":967520,"name":"On or near Inglewood Road"},"longitude":"-0.192813"},"context":"","outcome_status":{"category":"Status update unavailable","date":"2019-09"},"persistent_id":"6596729bad7a3447198416e470a6842babad41a19894e387d0bfe4c92b86e1a9","id":74325273,"location_subtype":"","month":"2019-05"},{"category":"burglary","location_type":"Force","location":{"latitude":"51.546739","street":{"id":967788,"name":"On or near Further\/higher Educational Building"},"longitude":"-0.179098"},"context":"","outcome_status":{"category":"Status update unavailable","date":"2019-09"},"persistent_id":"437d12c490ff2e1a8f7c24c63d51b7d6e36969a3e408ad58769c0520918ffe8a","id":74323189,"location_subtype":"","month":"2019-05"},{"category":"burglary","location_type":"Force","location":{"latitude":"51.557394","street":{"id":967686,"name":"On or near Flask Walk"},"longitude":"-0.176134"},"context":"","outcome_status":{"category":"Status update unavailable","date":"2019-09"},"persistent_id":"b319a7da3a0ad4b8089a8755a0c7d86d2fa7477143464f9c2713ac277a8da50e","id":74323146,"location_subtype":"","month":"2019-05"},{"category":"burglary","location_type":"Force","location":{"latitude":"51.548147","street":{"id":967616,"name":"On or near West End Lane"},"longitude":"-0.191042"},"context":"","outcome_status":{"category":"Status update unavailable","date":"2019-09"},"persistent_id":"60eb7a3fac8126d36f7756bbe537a2a160e784db8647665f954b1b2d34c5c0f9","id":74320238,"location_subtype":"","month":"2019-05"},{"category":"burglary","location_type":"Force","location":{"latitude":"51.550633","street":{"id":967887,"name":"On or near Supermarket"},"longitude":"-0.165789"},"context":"","outcome_status":{"category":"Status update unavailable","date":"2019-09"},"persistent_id":"73f16973ac0476062b0a3a8da7db1b5d60d3e9ccf2f40f75e5d2375d9411b490","id":74295256,"location_subtype":"","month":"2019-05"},{"category":"burglary","location_type":"Force","location":{"latitude":"51.553900","street":{"id":967666,"name":"On or near Rosslyn Hill"},"longitude":"-0.170619"},"context":"","outcome_status":{"category":"Status update unavailable","date":"2019-09"},"persistent_id":"dd66336fb869d49a54ac30c0c74751e1b33906423b88c88ea4c97d98a1274fa9","id":74295274,"location_subtype":"","month":"2019-05"},{"category":"burglary","location_type":"Force","location":{"latitude":"51.546376","street":{"id":967939,"name":"On or near Elizabeth Mews"},"longitude":"-0.162109"},"context":"","outcome_status":{"category":"Status update unavailable","date":"2019-09"},"persistent_id":"b46571c58f5123f1fd62e506f802d3dbb9f8407f2facc9b94fd59cc65c0c1089","id":74307105,"location_subtype":"","month":"2019-05"},{"category":"burglary","location_type":"Force","location":{"latitude":"51.552150","street":{"id":967541,"name":"On or near West End Lane"},"longitude":"-0.192903"},"context":"","outcome_status":{"category":"Court result unavailable","date":"2020-05"},"persistent_id":"c3d96b28f10db2f80ddcaaf3a5589840e2a6e6afcdffdcf916453242184a52cd","id":74320133,"location_subtype":"","month":"2019-05"},{"category":"burglary","location_type":"Force","location":{"latitude":"51.551652","street":{"id":967676,"name":"On or near Lyndhurst Road"},"longitude":"-0.175787"},"context":"","outcome_status":{"category":"Court result unavailable","date":"2019-11"},"persistent_id":"ed302d7ed9adf8096fc08a05245f7e301856bdbc3185106d01d918411a16680c","id":74322015,"location_subtype":"","month":"2019-05"},{"category":"burglary","location_type":"Force","location":{"latitude":"51.544802","street":{"id":965237,"name":"On or near Adamson Road"},"longitude":"-0.172498"},"context":"","outcome_status":{"category":"Status update unavailable","date":"2019-09"},"persistent_id":"e1b7dd8abb392f6f5bb4105b615e77177cebc9bb99dd2be3d44b782ee9c6451a","id":74305134,"location_subtype":"","month":"2019-05"},{"category":"burglary","location_type":"Force","location":{"latitude":"51.547122","street":{"id":967932,"name":"On or near Primrose Gardens"},"longitude":"-0.163290"},"context":"","outcome_status":{"category":"Status update unavailable","date":"2019-09"},"persistent_id":"cb6c358f2b43fc759cf9a0aba14951926aeabf5ed2ff1026a3194745376f05a5","id":74368114,"location_subtype":"","month":"2019-05"},{"category":"burglary","location_type":"Force","location":{"latitude":"51.560963","street":{"id":972429,"name":"On or near Pattison Road"},"longitude":"-0.195266"},"context":"","outcome_status":{"category":"Status update unavailable","date":"2019-09"},"persistent_id":"ec6c30311a80e1ce39a739260972211fcb3540b73205dece4882e7af304d751c","id":74365877,"location_subtype":"","month":"2019-05"},{"category":"burglary","location_type":"Force","location":{"latitude":"51.544526","street":{"id":965031,"name":"On or near Merton Rise"},"longitude":"-0.166885"},"context":"","outcome_status":{"category":"Status update unavailable","date":"2019-09"},"persistent_id":"5bddcfae1decd2e6a6a933bd528fdfcf0fbbe00e01d87b8229d61c81b1a7bf71","id":74310335,"location_subtype":"","month":"2019-05"},{"category":"burglary","location_type":"Force","location":{"latitude":"51.550413","street":{"id":967633,"name":"On or near Fitzjohn's Avenue"},"longitude":"-0.175908"},"context":"","outcome_status":{"category":"Status update unavailable","date":"2019-09"},"persistent_id":"2713d09aabf2313a4cd514ecc994ba5fa712b7ec96d0a6b866506fcdf6920844","id":74357473,"location_subtype":"","month":"2019-05"},{"category":"burglary","location_type":"Force","location":{"latitude":"51.547945","street":{"id":967786,"name":"On or near Nightclub"},"longitude":"-0.181430"},"context":"","outcome_status":{"category":"Status update unavailable","date":"2019-09"},"persistent_id":"dda3b5d450b3c5fda0d4307316f5657e370737e27128e321d0de434d8442d0f5","id":74357423,"location_subtype":"","month":"2019-05"},{"category":"burglary","location_type":"Force","location":{"latitude":"51.551604","street":{"id":967711,"name":"On or near Petrol Station"},"longitude":"-0.166975"},"context":"","outcome_status":{"category":"Status update unavailable","date":"2019-09"},"persistent_id":"6b7d443784d59edb336cefc17214c5d24d33004af648514d31816e4d6ee7ce36","id":74361468,"location_subtype":"","month":"2019-05"},{"category":"burglary","location_type":"Force","location":{"latitude":"51.544152","street":{"id":965398,"name":"On or near Cleve Road"},"longitude":"-0.189730"},"context":"","outcome_status":{"category":"Status update unavailable","date":"2019-09"},"persistent_id":"3028be1eeea213feb28b68cd78722adb09f1d5e15d375beb92c466db05dd7dd6","id":74318523,"location_subtype":"","month":"2019-05"},{"category":"burglary","location_type":"Force","location":{"latitude":"51.546662","street":{"id":967784,"name":"On or near Broadhurst Gardens"},"longitude":"-0.184539"},"context":"","outcome_status":{"category":"Status update unavailable","date":"2019-09"},"persistent_id":"3b861afdc17d1cf189d334bed1c150976119c7f3b25b5d1fd0753f5612581ccd","id":74360956,"location_subtype":"","month":"2019-05"},{"category":"burglary","location_type":"Force","location":{"latitude":"51.549395","street":{"id":967516,"name":"On or near Sandwell Crescent"},"longitude":"-0.192089"},"context":"","outcome_status":{"category":"Status update unavailable","date":"2019-09"},"persistent_id":"2e3b1755aad01173f8825caee9b8aa306668447247d5836151ff003887139307","id":74340277,"location_subtype":"","month":"2019-05"},{"category":"burglary","location_type":"Force","location":{"latitude":"51.550633","street":{"id":967887,"name":"On or near Supermarket"},"longitude":"-0.165789"},"context":"","outcome_status":{"category":"Status update unavailable","date":"2019-09"},"persistent_id":"e2c3480e300310f39980eac5d85c50c740aaf45a20e7f7bf361af1a13fd3d04d","id":74351610,"location_subtype":"","month":"2019-05"},{"category":"burglary","location_type":"Force","location":{"latitude":"51.547945","street":{"id":967786,"name":"On or near Nightclub"},"longitude":"-0.181430"},"context":"","outcome_status":{"category":"Status update unavailable","date":"2019-09"},"persistent_id":"4c4d95c6a0c15452a727ca8bb681158473ee699cdc79270b0538723da8e03120","id":74351236,"location_subtype":"","month":"2019-05"},{"category":"burglary","location_type":"Force","location":{"latitude":"51.554441","street":{"id":967899,"name":"On or near Roderick Road"},"longitude":"-0.158048"},"context":"","outcome_status":{"category":"Status update unavailable","date":"2019-09"},"persistent_id":"5485bc9f7d7e41c7e75998998dba1feca74eecdfa1eb8fb5b494e8f261c45b62","id":74352771,"location_subtype":"","month":"2019-05"},{"category":"burglary","location_type":"Force","location":{"latitude":"51.547945","street":{"id":967786,"name":"On or near Nightclub"},"longitude":"-0.181430"},"context":"","outcome_status":{"category":"Status update unavailable","date":"2019-09"},"persistent_id":"351b5f38a2dc175c7647a4fcb6cc3a90c5a65256c71fb8f9d73ece1e43042e81","id":74351057,"location_subtype":"","month":"2019-05"},{"category":"burglary","location_type":"Force","location":{"latitude":"51.549924","street":{"id":967730,"name":"On or near Nightclub"},"longitude":"-0.182649"},"context":"","outcome_status":{"category":"Status update unavailable","date":"2019-09"},"persistent_id":"9033bb5b03a234a122a15de5cb713d04a2c1f06469d8fbd538c0ce7101a632cf","id":74353401,"location_subtype":"","month":"2019-05"},{"category":"burglary","location_type":"Force","location":{"latitude":"51.545834","street":{"id":967793,"name":"On or near College Crescent"},"longitude":"-0.176957"},"context":"","outcome_status":{"category":"Status update unavailable","date":"2019-09"},"persistent_id":"360c7ff4b175b1c758aa6f04859c13578687d5c18a7042fa7763ade59f8a5cb7","id":74345772,"location_subtype":"","month":"2019-05"},{"category":"burglary","location_type":"Force","location":{"latitude":"51.549962","street":{"id":967721,"name":"On or near Hampstead Gate"},"longitude":"-0.181624"},"context":"","outcome_status":{"category":"Status update unavailable","date":"2019-09"},"persistent_id":"dc45df90a7142bcd818902ebc6ab318696b677911a3709f0a3407a3ddbc9c131","id":74346389,"location_subtype":"","month":"2019-05"},{"category":"burglary","location_type":"Force","location":{"latitude":"51.546662","street":{"id":967784,"name":"On or near Broadhurst Gardens"},"longitude":"-0.184539"},"context":"","outcome_status":{"category":"Status update unavailable","date":"2019-09"},"persistent_id":"a1c741b3f16c4c42d7a24c6eee82374d8e10f876b10f1076017dd396bd42800d","id":74350377,"location_subtype":"","month":"2019-05"},{"category":"burglary","location_type":"Force","location":{"latitude":"51.555325","street":{"id":967559,"name":"On or near Bracknell Way"},"longitude":"-0.190007"},"context":"","outcome_status":{"category":"Status update unavailable","date":"2019-09"},"persistent_id":"56a6eeafad659b4a77f994ad26c5ee4a9164e8c5d7d709c17238b60cf265cb7e","id":74349343,"location_subtype":"","month":"2019-05"},{"category":"burglary","location_type":"Force","location":{"latitude":"51.558911","street":{"id":967656,"name":"On or near Well Walk"},"longitude":"-0.173635"},"context":"","outcome_status":{"category":"Status update unavailable","date":"2019-09"},"persistent_id":"47e4677b12a304f4103f1b95dab1d79ba8362b45f2f6f38ea49c954d80755d92","id":74356885,"location_subtype":"","month":"2019-05"},{"category":"burglary","location_type":"Force","location":{"latitude":"51.545164","street":{"id":965162,"name":"On or near Compayne Gardens"},"longitude":"-0.185348"},"context":"","outcome_status":{"category":"Status update unavailable","date":"2019-09"},"persistent_id":"5ba724522c41c4fafc57e60135fc146b9b0d2201eb4aa3da7f566a4d0bb73933","id":74357095,"location_subtype":"","month":"2019-05"},{"category":"burglary","location_type":"Force","location":{"latitude":"51.553522","street":{"id":967910,"name":"On or near Heathgate Place"},"longitude":"-0.158474"},"context":"","outcome_status":{"category":"Status update unavailable","date":"2019-09"},"persistent_id":"76f2e2d6892929fa976517392e905b794d335e7165fcaebbbc3d4586a1a4e4b0","id":74349318,"location_subtype":"","month":"2019-05"},{"category":"burglary","location_type":"Force","location":{"latitude":"51.549962","street":{"id":967721,"name":"On or near Hampstead Gate"},"longitude":"-0.181624"},"context":"","outcome_status":{"category":"Status update unavailable","date":"2019-09"},"persistent_id":"f4ec51940443d7b1c0296ff4efa3bba3a7c43f8eb1bf02fe3c3e4fc9cdd26ecd","id":74349095,"location_subtype":"","month":"2019-05"},{"category":"burglary","location_type":"Force","location":{"latitude":"51.552261","street":{"id":923812,"name":"On or near Hillfield Road"},"longitude":"-0.198322"},"context":"","outcome_status":{"category":"Court result unavailable","date":"2020-08"},"persistent_id":"cd73ed528e5712a58fad4eba48da01c8380531b70ee87555585f12ba8a02a69e","id":74342722,"location_subtype":"","month":"2019-05"},{"category":"burglary","location_type":"Force","location":{"latitude":"51.542741","street":{"id":965233,"name":"On or near Avenue Road"},"longitude":"-0.174124"},"context":"","outcome_status":{"category":"Status update unavailable","date":"2019-09"},"persistent_id":"c0421649a38cdf48ce3abfa5e66fd02cfba45930b3a06cb48353e6a84893b45f","id":74348731,"location_subtype":"","month":"2019-05"},{"category":"burglary","location_type":"Force","location":{"latitude":"51.551593","street":{"id":967920,"name":"On or near Aspern Grove"},"longitude":"-0.164538"},"context":"","outcome_status":{"category":"Status update unavailable","date":"2019-09"},"persistent_id":"231b5c371f8a1fbcebc5f5be6e8dd4b6b387ec21eaa1c990441f20e6a0e30f2c","id":74354993,"location_subtype":"","month":"2019-05"},{"category":"burglary","location_type":"Force","location":{"latitude":"51.553224","street":{"id":967925,"name":"On or near Hospital"},"longitude":"-0.165324"},"context":"","outcome_status":{"category":"Status update unavailable","date":"2019-09"},"persistent_id":"fdc63fe6e2743e3134b51d7e779560a94fb3409d13b662c06bd5b6ed889cb9e7","id":74354281,"location_subtype":"","month":"2019-05"},{"category":"burglary","location_type":"Force","location":{"latitude":"51.556438","street":{"id":967654,"name":"On or near Willoughby Road"},"longitude":"-0.173590"},"context":"","outcome_status":{"category":"Status update unavailable","date":"2019-09"},"persistent_id":"d37a2171b9642522e65e145f2c14a7d193055859f200faa54326f4688d7fa72b","id":74296087,"location_subtype":"","month":"2019-05"},{"category":"burglary","location_type":"Force","location":{"latitude":"51.555699","street":{"id":967681,"name":"On or near Hampstead High Street"},"longitude":"-0.176404"},"context":"","outcome_status":{"category":"Status update unavailable","date":"2019-09"},"persistent_id":"0bbe760c8454bd3a878f746d98e1afbef05c80e8c42e9c63cca8763a68229dd2","id":74345773,"location_subtype":"","month":"2019-05"},{"category":"burglary","location_type":"Force","location":{"latitude":"51.547051","street":{"id":967782,"name":"On or near Canfield Place"},"longitude":"-0.181192"},"context":"","outcome_status":{"category":"Status update unavailable","date":"2019-09"},"persistent_id":"60341d8b2af7421186efa7b076ec3936c752a8f1062d4e7643806da756fb2112","id":74340284,"location_subtype":"","month":"2019-05"},{"category":"burglary","location_type":"Force","location":{"latitude":"51.548147","street":{"id":967616,"name":"On or near West End Lane"},"longitude":"-0.191042"},"context":"","outcome_status":{"category":"Status update unavailable","date":"2019-09"},"persistent_id":"76584178d426dcbadc2af117651535bf03870d9c46f272a7957b5b13cd8d6f17","id":74339101,"location_subtype":"","month":"2019-05"},{"category":"burglary","location_type":"Force","location":{"latitude":"51.548830","street":{"id":967635,"name":"On or near Daleham Gardens"},"longitude":"-0.174140"},"context":"","outcome_status":{"category":"Status update unavailable","date":"2019-09"},"persistent_id":"955f8b6b021692149a653a8df852780d53468a523b37f24e61de9dde9b98f422","id":74339065,"location_subtype":"","month":"2019-05"},{"category":"burglary","location_type":"Force","location":{"latitude":"51.551565","street":{"id":967678,"name":"On or near Lyndhurst Gardens"},"longitude":"-0.171376"},"context":"","outcome_status":{"category":"Status update unavailable","date":"2019-09"},"persistent_id":"c3082f2d46b1bd9ed9b96077a471b726dc139f71497256d017792b08b075d330","id":74338082,"location_subtype":"","month":"2019-05"},{"category":"burglary","location_type":"Force","location":{"latitude":"51.556461","street":{"id":967553,"name":"On or near Heath Drive"},"longitude":"-0.190164"},"context":"","outcome_status":{"category":"Status update unavailable","date":"2019-09"},"persistent_id":"ec8d1e5100c81031b155c1b83a806bcb0eb50b08ed5f66731015bead69550aed","id":74337827,"location_subtype":"","month":"2019-05"},{"category":"burglary","location_type":"Force","location":{"latitude":"51.546333","street":{"id":967781,"name":"On or near Goldhurst Terrace"},"longitude":"-0.179014"},"context":"","outcome_status":{"category":"Status update unavailable","date":"2019-09"},"persistent_id":"192e49f0ad225402b10dd5c2abc47e3a86e8225b58e5c7b456e3af0e8a2be4a4","id":74297494,"location_subtype":"","month":"2019-05"},{"category":"burglary","location_type":"Force","location":{"latitude":"51.559988","street":{"id":972335,"name":"On or near East Heath Road"},"longitude":"-0.172308"},"context":"","outcome_status":{"category":"Status update unavailable","date":"2019-09"},"persistent_id":"e07956908e9e91fc2d0659f9fd3d1ee469eb3ee68c47ee8ec2855283ad5db114","id":74337675,"location_subtype":"","month":"2019-05"},{"category":"burglary","location_type":"Force","location":{"latitude":"51.544100","street":{"id":965242,"name":"On or near Shopping Area"},"longitude":"-0.175916"},"context":"","outcome_status":{"category":"Status update unavailable","date":"2019-09"},"persistent_id":"e61bc523cac5a165fa4332ddf7eb2830e2feff787d1857d72e2e8569b0518fa2","id":74344207,"location_subtype":"","month":"2019-05"},{"category":"burglary","location_type":"Force","location":{"latitude":"51.549962","street":{"id":967721,"name":"On or near Hampstead Gate"},"longitude":"-0.181624"},"context":"","outcome_status":{"category":"Status update unavailable","date":"2019-09"},"persistent_id":"cf649e9f97625f7f548ce0974eb45c2ca11a139374babea993c3172e4cce6896","id":74342751,"location_subtype":"","month":"2019-05"},{"category":"burglary","location_type":"Force","location":{"latitude":"51.556169","street":{"id":967669,"name":"On or near Pilgrim's Lane"},"longitude":"-0.171350"},"context":"","outcome_status":{"category":"Status update unavailable","date":"2019-09"},"persistent_id":"b144bb9fe772f7208d30f1a4f1ab66c4288c5acf9bf57331b8485604c4eff75d","id":74342389,"location_subtype":"","month":"2019-05"},{"category":"burglary","location_type":"Force","location":{"latitude":"51.554468","street":{"id":967696,"name":"On or near Police Station"},"longitude":"-0.171246"},"context":"","outcome_status":{"category":"Status update unavailable","date":"2019-09"},"persistent_id":"99d525febff3372eda9d73c01e2c0e5968399ee40a05d8c48606e2f0f69de104","id":74341631,"location_subtype":"","month":"2019-05"},{"category":"burglary","location_type":"Force","location":{"latitude":"51.558230","street":{"id":967562,"name":"On or near Theatre\/concert Hall"},"longitude":"-0.194725"},"context":"","outcome_status":{"category":"Status update unavailable","date":"2019-09"},"persistent_id":"efece8fc610b9bd2c87cf46e4cb3a04ad0da7eecde0d91a2c17e7078938dbb61","id":74340899,"location_subtype":"","month":"2019-05"},{"category":"burglary","location_type":"Force","location":{"latitude":"51.555699","street":{"id":967681,"name":"On or near Hampstead High Street"},"longitude":"-0.176404"},"context":"","outcome_status":{"category":"Status update unavailable","date":"2019-09"},"persistent_id":"8bfd1766381f11f56c4db90cba0d086082790a6207b06f1a26a563031d9e714a","id":74335064,"location_subtype":"","month":"2019-05"},{"category":"burglary","location_type":"Force","location":{"latitude":"51.544152","street":{"id":965398,"name":"On or near Cleve Road"},"longitude":"-0.189730"},"context":"","outcome_status":{"category":"Status update unavailable","date":"2019-09"},"persistent_id":"7d47f7523a1159edfd58c70e53fa5dee4964dceb0fa71e55e86af59cee2d6368","id":74334505,"location_subtype":"","month":"2019-05"},{"category":"burglary","location_type":"Force","location":{"latitude":"51.546376","street":{"id":967939,"name":"On or near Elizabeth Mews"},"longitude":"-0.162109"},"context":"","outcome_status":{"category":"Status update unavailable","date":"2019-09"},"persistent_id":"056ffef8a6adee56c3203e5fb51bab7c849a6f59c705424f0debae3e732283f6","id":74300018,"location_subtype":"","month":"2019-05"},{"category":"burglary","location_type":"Force","location":{"latitude":"51.543660","street":{"id":965141,"name":"On or near Greencroft Gardens"},"longitude":"-0.183490"},"context":"","outcome_status":{"category":"Status update unavailable","date":"2019-09"},"persistent_id":"1c58287999683f6b5e241a722ff243b51d995fd819634810cd4a59e5a587b687","id":74343124,"location_subtype":"","month":"2019-05"},{"category":"burglary","location_type":"Force","location":{"latitude":"51.544152","street":{"id":965398,"name":"On or near Cleve Road"},"longitude":"-0.189730"},"context":"","outcome_status":{"category":"Status update unavailable","date":"2019-09"},"persistent_id":"be401efba10784916dcda2a00b5d0530d1f86d68b469484f4d6743f9c6b6e1bb","id":74330685,"location_subtype":"","month":"2019-05"},{"category":"burglary","location_type":"Force","location":{"latitude":"51.550123","street":{"id":967728,"name":"On or near Sports\/recreation Area"},"longitude":"-0.187416"},"context":"","outcome_status":{"category":"Status update unavailable","date":"2019-09"},"persistent_id":"d946b635a3381e82ce0e9f2474d1dc1f5c9f0a7d96aa627d5a994bfdd6127296","id":74302493,"location_subtype":"","month":"2019-05"},{"category":"burglary","location_type":"Force","location":{"latitude":"51.555790","street":{"id":967837,"name":"On or near Savernake Road"},"longitude":"-0.155743"},"context":"","outcome_status":{"category":"Status update unavailable","date":"2019-09"},"persistent_id":"bbb68cfe466ad49bb7fdd3cd2e6ceee7353f604c422708079a109dfff5ed7896","id":74336891,"location_subtype":"","month":"2019-05"},{"category":"burglary","location_type":"Force","location":{"latitude":"51.545834","street":{"id":967793,"name":"On or near College Crescent"},"longitude":"-0.176957"},"context":"","outcome_status":{"category":"Status update unavailable","date":"2019-09"},"persistent_id":"a01fce09e86d4f0baab6faaa9e1daeef995ebc3c50a8da578e95331a7a0ef764","id":74303137,"location_subtype":"","month":"2019-05"},{"category":"burglary","location_type":"Force","location":{"latitude":"51.553484","street":{"id":967549,"name":"On or near Lyncroft Gardens"},"longitude":"-0.192475"},"context":"","outcome_status":{"category":"Status update unavailable","date":"2019-09"},"persistent_id":"9d4ac451053905caf42db559e475c09407f9c77fe81c60683d34f60cde7369a8","id":74336106,"location_subtype":"","month":"2019-05"},{"category":"burglary","location_type":"Force","location":{"latitude":"51.547945","street":{"id":967786,"name":"On or near Nightclub"},"longitude":"-0.181430"},"context":"","outcome_status":{"category":"Status update unavailable","date":"2019-09"},"persistent_id":"2ecb7eeb883f900d791bde1db00124d46e6b697b2be8b9cb7b80ec3bcf244561","id":74327740,"location_subtype":"","month":"2019-05"},{"category":"burglary","location_type":"Force","location":{"latitude":"51.548147","street":{"id":967616,"name":"On or near West End Lane"},"longitude":"-0.191042"},"context":"","outcome_status":{"category":"Status update unavailable","date":"2019-09"},"persistent_id":"75feaae0c1deb87c72ab7801a35b3a4b4082539c3469b76407829a57cc3643b5","id":74327652,"location_subtype":"","month":"2019-05"},{"category":"burglary","location_type":"Force","location":{"latitude":"51.557178","street":{"id":967551,"name":"On or near Kidderpore Avenue"},"longitude":"-0.192978"},"context":"","outcome_status":{"category":"Status update unavailable","date":"2019-09"},"persistent_id":"9bf8ac118eae0cd8bf64f8761135d3cc68fc17ba0d70d8cfff7ba4f0ec44e310","id":74316684,"location_subtype":"","month":"2019-05"},{"category":"burglary","location_type":"Force","location":{"latitude":"51.543189","street":{"id":965197,"name":"On or near Winchester Road"},"longitude":"-0.172246"},"context":"","outcome_status":{"category":"Status update unavailable","date":"2019-09"},"persistent_id":"268a4948f225dd889e92f768c096b2db2920ce9274821ee5cf33f503d4059fd1","id":74316494,"location_subtype":"","month":"2019-05"},{"category":"burglary","location_type":"Force","location":{"latitude":"51.548688","street":{"id":967628,"name":"On or near Glenilla Road"},"longitude":"-0.167929"},"context":"","outcome_status":{"category":"Status update unavailable","date":"2019-09"},"persistent_id":"eacb5c11baf51a740e86946d77fe6dc8223b3d81d6a3a73eecf16a6494e5258d","id":74315982,"location_subtype":"","month":"2019-05"},{"category":"burglary","location_type":"Force","location":{"latitude":"51.548956","street":{"id":967874,"name":"On or near Parkhill Road"},"longitude":"-0.158644"},"context":"","outcome_status":{"category":"Status update unavailable","date":"2019-09"},"persistent_id":"4bee1a7c32be12c6fa905a3ef8a6a610aa5d6d270e6a75a9c5da609c07ed6308","id":74291668,"location_subtype":"","month":"2019-05"},{"category":"burglary","location_type":"Force","location":{"latitude":"51.550587","street":{"id":967883,"name":"On or near Downside Crescent"},"longitude":"-0.162891"},"context":"","outcome_status":{"category":"Status update unavailable","date":"2019-09"},"persistent_id":"a2a27cc9d05ee9abe83fcec4d9f105e3cf78d0b8a362546fbcbb5af3a9a7da92","id":74291669,"location_subtype":"","month":"2019-05"},{"category":"burglary","location_type":"Force","location":{"latitude":"51.545834","street":{"id":967793,"name":"On or near College Crescent"},"longitude":"-0.176957"},"context":"","outcome_status":{"category":"Offender given a caution","date":"2019-12"},"persistent_id":"9bfdabdc1b14d646e6452fd42f66210f88613d04d2fc7dfede9d619f8712182b","id":74292530,"location_subtype":"","month":"2019-05"},{"category":"burglary","location_type":"Force","location":{"latitude":"51.554877","street":{"id":967906,"name":"On or near Mackeson Road"},"longitude":"-0.160021"},"context":"","outcome_status":{"category":"Status update unavailable","date":"2019-09"},"persistent_id":"77727e1c9cd0e207748001d426b3b66f7e5884bc36f7ebd5eeb4808ae8ba0d33","id":74315568,"location_subtype":"","month":"2019-05"},{"category":"criminal-damage-arson","location_type":"Force","location":{"latitude":"51.552150","street":{"id":967541,"name":"On or near West End Lane"},"longitude":"-0.192903"},"context":"","outcome_status":{"category":"Status update unavailable","date":"2019-09"},"persistent_id":"be51134e0d911a8773f334f3f280f57e43f85750eee7687df9eb803e7d87275a","id":74315521,"location_subtype":"","month":"2019-05"},{"category":"criminal-damage-arson","location_type":"Force","location":{"latitude":"51.554144","street":{"id":967921,"name":"On or near Agincourt Road"},"longitude":"-0.160339"},"context":"","outcome_status":{"category":"Local resolution","date":"2019-12"},"persistent_id":"e6b4cd5a0dac9f85962dab0c4308ce964884e677597bec5f85a50aaf85024db1","id":74331372,"location_subtype":"","month":"2019-05"},{"category":"criminal-damage-arson","location_type":"Force","location":{"latitude":"51.554632","street":{"id":967897,"name":"On or near Shirlock Road"},"longitude":"-0.157030"},"context":"","outcome_status":{"category":"Status update unavailable","date":"2019-09"},"persistent_id":"20f2d82618236bab32a638d3ce12813a1857b5bb23edbe05fc449ad28439afda","id":74342044,"location_subtype":"","month":"2019-05"},{"category":"criminal-damage-arson","location_type":"Force","location":{"latitude":"51.555337","street":{"id":967918,"name":"On or near Constantine Road"},"longitude":"-0.161257"},"context":"","outcome_status":{"category":"Status update unavailable","date":"2019-09"},"persistent_id":"b71a85742191b254ab31733ea8aa6645918d0f0ad2b80a6275ae0cdca5d19b7c","id":74298966,"location_subtype":"","month":"2019-05"},{"category":"criminal-damage-arson","location_type":"Force","location":{"latitude":"51.545164","street":{"id":965162,"name":"On or near Compayne Gardens"},"longitude":"-0.185348"},"context":"","outcome_status":{"category":"Status update unavailable","date":"2019-09"},"persistent_id":"1d1e0d6472d9e4b3ca4fd784bf4cdf463957c9e1519c3192fb2c06476ac569ce","id":74297286,"location_subtype":"","month":"2019-05"},{"category":"criminal-damage-arson","location_type":"Force","location":{"latitude":"51.553488","street":{"id":967913,"name":"On or near Fleet Road"},"longitude":"-0.161519"},"context":"","outcome_status":{"category":"Local resolution","date":"2019-05"},"persistent_id":"d8ffbce44a246b937c93bda5af6eac5d6f31595ae1cbadc34d45f65e04273203","id":74331757,"location_subtype":"","month":"2019-05"},{"category":"criminal-damage-arson","location_type":"Force","location":{"latitude":"51.555801","street":{"id":967707,"name":"On or near Keats Grove"},"longitude":"-0.168495"},"context":"","outcome_status":{"category":"Status update unavailable","date":"2019-09"},"persistent_id":"0299297ddcc0eccedb3e2784e2485f93e698ab27a7f48f84843941cb380ca13d","id":74296586,"location_subtype":"","month":"2019-05"},{"category":"criminal-damage-arson","location_type":"Force","location":{"latitude":"51.561906","street":{"id":972388,"name":"On or near Devonshire Place"},"longitude":"-0.196339"},"context":"","outcome_status":{"category":"Status update unavailable","date":"2019-09"},"persistent_id":"4b3d7db2de5ec954fea7c18720213e50a576e1ff74c6ea7844809387d3329b81","id":74296514,"location_subtype":"","month":"2019-05"},{"category":"criminal-damage-arson","location_type":"Force","location":{"latitude":"51.543919","street":{"id":965218,"name":"On or near Harben Road"},"longitude":"-0.177596"},"context":"","outcome_status":{"category":"Status update unavailable","date":"2019-09"},"persistent_id":"5ef5f51519a899199286404f0f95cd92d8197fae4637b668990f2dfdd0c45f14","id":74296232,"location_subtype":"","month":"2019-05"},{"category":"criminal-damage-arson","location_type":"Force","location":{"latitude":"51.546182","street":{"id":967787,"name":"On or near Supermarket"},"longitude":"-0.179669"},"context":"","outcome_status":{"category":"Status update unavailable","date":"2019-09"},"persistent_id":"17829dc9cc6190584d1390b3ae68700829af18c4a5433fbbd435b142d499077d","id":74290316,"location_subtype":"","month":"2019-05"},{"category":"criminal-damage-arson","location_type":"Force","location":{"latitude":"51.561906","street":{"id":972388,"name":"On or near Devonshire Place"},"longitude":"-0.196339"},"context":"","outcome_status":{"category":"Status update unavailable","date":"2019-09"},"persistent_id":"d99b5c65a5789b40cad26c98a84b3df088faf1bbc4ec68354c53ccf58810432f","id":74308635,"location_subtype":"","month":"2019-05"},{"category":"criminal-damage-arson","location_type":"Force","location":{"latitude":"51.553224","street":{"id":967925,"name":"On or near Hospital"},"longitude":"-0.165324"},"context":"","outcome_status":{"category":"Status update unavailable","date":"2019-09"},"persistent_id":"fc855dd4a719455aa83339c6fa43ee6e9d0278d183b4c768dbc2bcf92c03a489","id":74295651,"location_subtype":"","month":"2019-05"},{"category":"criminal-damage-arson","location_type":"Force","location":{"latitude":"51.553224","street":{"id":967925,"name":"On or near Hospital"},"longitude":"-0.165324"},"context":"","outcome_status":{"category":"Status update unavailable","date":"2019-09"},"persistent_id":"10043a415afef2b91bfc03982211debeca91219618887c16ec1f1bd3dc13f522","id":74347837,"location_subtype":"","month":"2019-05"},{"category":"criminal-damage-arson","location_type":"Force","location":{"latitude":"51.554503","street":{"id":967652,"name":"On or near Parking Area"},"longitude":"-0.176423"},"context":"","outcome_status":{"category":"Status update unavailable","date":"2019-09"},"persistent_id":"9bc5b26b1f4afee3070b63286333824384533c0732cf24df92e676e3ba54b695","id":74343513,"location_subtype":"","month":"2019-05"},{"category":"criminal-damage-arson","location_type":"Force","location":{"latitude":"51.561808","street":{"id":972304,"name":"On or near Whitestone Walk"},"longitude":"-0.180084"},"context":"","outcome_status":{"category":"Status update unavailable","date":"2019-09"},"persistent_id":"6432302625031db5869b83b33e7042237e9b90d701c8f93e35ceb261cda42013","id":74314672,"location_subtype":"","month":"2019-05"},{"category":"criminal-damage-arson","location_type":"Force","location":{"latitude":"51.556682","street":{"id":967683,"name":"On or near Gayton Road"},"longitude":"-0.175412"},"context":"","outcome_status":{"category":"Status update unavailable","date":"2019-09"},"persistent_id":"8beff180ff56ff28ed0498cef5d54b15632c6caaa4f1ab1f22da98f806209295","id":74360605,"location_subtype":"","month":"2019-05"},{"category":"criminal-damage-arson","location_type":"BTP","location":{"latitude":"51.547500","street":{"id":1488646,"name":"Finchley Road (lu Station)"},"longitude":"-0.180377"},"context":"","outcome_status":{"category":"Status update unavailable","date":"2019-09"},"persistent_id":"","id":88719630,"location_subtype":"LU STATION","month":"2019-05"},{"category":"criminal-damage-arson","location_type":"Force","location":{"latitude":"51.551593","street":{"id":967920,"name":"On or near Aspern Grove"},"longitude":"-0.164538"},"context":"","outcome_status":{"category":"Status update unavailable","date":"2019-09"},"persistent_id":"20ef107dcb4531d5a311f7a4d67d9623e26ba6d00dd0ca4be734c2749e716c3d","id":74370082,"location_subtype":"","month":"2019-05"},{"category":"criminal-damage-arson","location_type":"BTP","location":{"latitude":"51.547500","street":{"id":1488646,"name":"Finchley Road (lu Station)"},"longitude":"-0.180377"},"context":"","outcome_status":{"category":"Status update unavailable","date":"2019-09"},"persistent_id":"","id":88719629,"location_subtype":"LU STATION","month":"2019-05"},{"category":"criminal-damage-arson","location_type":"Force","location":{"latitude":"51.550575","street":{"id":967879,"name":"On or near Haverstock Hill"},"longitude":"-0.164421"},"context":"","outcome_status":{"category":"Status update unavailable","date":"2019-09"},"persistent_id":"8fdbb58adef9b92163c15498f42998e3d82e538a1839300b17a0bfd955431f16","id":74331742,"location_subtype":"","month":"2019-05"},{"category":"criminal-damage-arson","location_type":"Force","location":{"latitude":"51.547945","street":{"id":967786,"name":"On or near Nightclub"},"longitude":"-0.181430"},"context":"","outcome_status":{"category":"Status update unavailable","date":"2019-09"},"persistent_id":"dd5a0b6f9ff61fec9dfafeab4f049b1937e250bc5776e1d4cc3462c44203d5b2","id":74324972,"location_subtype":"","month":"2019-05"},{"category":"criminal-damage-arson","location_type":"Force","location":{"latitude":"51.550522","street":{"id":967527,"name":"On or near Nightclub"},"longitude":"-0.191712"},"context":"","outcome_status":{"category":"Status update unavailable","date":"2019-09"},"persistent_id":"d767850e21222b2e78264095d2175c3317725eb0974017f9958add16ac0867a3","id":74314370,"location_subtype":"","month":"2019-05"},{"category":"criminal-damage-arson","location_type":"Force","location":{"latitude":"51.547290","street":{"id":967618,"name":"On or near Medley Road"},"longitude":"-0.194927"},"context":"","outcome_status":{"category":"Status update unavailable","date":"2019-09"},"persistent_id":"04976bf4a7e7fcb1f4803b237293ffb545f78b3e4ecfe383b516a9a340ee6b78","id":74311712,"location_subtype":"","month":"2019-05"},{"category":"criminal-damage-arson","location_type":"Force","location":{"latitude":"51.552150","street":{"id":967541,"name":"On or near West End Lane"},"longitude":"-0.192903"},"context":"","outcome_status":{"category":"Court result unavailable","date":"2019-11"},"persistent_id":"be51134e0d911a8773f334f3f280f57e43f85750eee7687df9eb803e7d87275a","id":74315522,"location_subtype":"","month":"2019-05"},{"category":"criminal-damage-arson","location_type":"Force","location":{"latitude":"51.544871","street":{"id":965228,"name":"On or near College Crescent"},"longitude":"-0.175149"},"context":"","outcome_status":{"category":"Status update unavailable","date":"2019-09"},"persistent_id":"aa5268ae5934d2573c2809dc35508adfee5af75147d3adc6c6ffc989ab122fc2","id":74293070,"location_subtype":"","month":"2019-05"},{"category":"criminal-damage-arson","location_type":"Force","location":{"latitude":"51.550996","street":{"id":967894,"name":"On or near Southampton Road"},"longitude":"-0.156817"},"context":"","outcome_status":{"category":"Status update unavailable","date":"2019-09"},"persistent_id":"13ec116184c76a00786f17f96f4c93195212adb84a13bdb51ac51323b3d8f0c2","id":74305739,"location_subtype":"","month":"2019-05"},{"category":"criminal-damage-arson","location_type":"Force","location":{"latitude":"51.556057","street":{"id":967543,"name":"On or near Weech Road"},"longitude":"-0.195474"},"context":"","outcome_status":{"category":"Status update unavailable","date":"2019-09"},"persistent_id":"20e9f566cc7393d2d760e76b7f21202bcc88b4373ca5372c055d6288ca197154","id":74353062,"location_subtype":"","month":"2019-05"},{"category":"drugs","location_type":"Force","location":{"latitude":"51.548147","street":{"id":967616,"name":"On or near West End Lane"},"longitude":"-0.191042"},"context":"","outcome_status":{"category":"Local resolution","date":"2019-05"},"persistent_id":"87c4d42e3912da453a61f38575b163f9d400df9588bb1532d59de0a342a51ff5","id":74312421,"location_subtype":"","month":"2019-05"},{"category":"drugs","location_type":"Force","location":{"latitude":"51.544526","street":{"id":965031,"name":"On or near Merton Rise"},"longitude":"-0.166885"},"context":"","outcome_status":{"category":"Offender given a drugs possession warning","date":"2019-05"},"persistent_id":"49b00bcc6a0eee7a5bab72c63ff1f71dd6021ddbee40f73ef002a415b85b654b","id":74290970,"location_subtype":"","month":"2019-05"},{"category":"drugs","location_type":"Force","location":{"latitude":"51.559988","street":{"id":972335,"name":"On or near East Heath Road"},"longitude":"-0.172308"},"context":"","outcome_status":{"category":"Court result unavailable","date":"2019-11"},"persistent_id":"186954d7f98ac02dea56d8e8a90646eca2d657e337bf51b4ec7fbe15192ca789","id":74301830,"location_subtype":"","month":"2019-05"},{"category":"drugs","location_type":"Force","location":{"latitude":"51.548190","street":{"id":967882,"name":"On or near Fountain Mews"},"longitude":"-0.160233"},"context":"","outcome_status":{"category":"Local resolution","date":"2019-05"},"persistent_id":"adba92943f436b7c338f03e217fdb7eb9afc6d00e0d50437362847fe7cd1a17e","id":74306108,"location_subtype":"","month":"2019-05"},{"category":"drugs","location_type":"Force","location":{"latitude":"51.543062","street":{"id":965215,"name":"On or near Hornby Close"},"longitude":"-0.170448"},"context":"","outcome_status":{"category":"Local resolution","date":"2019-05"},"persistent_id":"9e28fbd354789b711edd585f8a0c07fee60045e99a4d5dd8929fda2d02f765c7","id":74317693,"location_subtype":"","month":"2019-05"},{"category":"drugs","location_type":"Force","location":{"latitude":"51.545929","street":{"id":965360,"name":"On or near Sherriff Road"},"longitude":"-0.193582"},"context":"","outcome_status":{"category":"Local resolution","date":"2019-05"},"persistent_id":"08a3e20fd54222ced2764655cb74c97fb72658cf03fb9f5c9b7c8ef02a959c1e","id":74292005,"location_subtype":"","month":"2019-05"},{"category":"drugs","location_type":"BTP","location":{"latitude":"51.547500","street":{"id":1488646,"name":"Finchley Road (lu Station)"},"longitude":"-0.180377"},"context":"","outcome_status":{"category":"Status update unavailable","date":"2019-09"},"persistent_id":"","id":88719632,"location_subtype":"LU STATION","month":"2019-05"},{"category":"drugs","location_type":"Force","location":{"latitude":"51.553224","street":{"id":967925,"name":"On or near Hospital"},"longitude":"-0.165324"},"context":"","outcome_status":{"category":"Local resolution","date":"2019-06"},"persistent_id":"c0cdc576f9204d05a60eb0a86b233466f311abaf419b8f6dab4d8c2e7824bc5b","id":74301381,"location_subtype":"","month":"2019-05"},{"category":"drugs","location_type":"Force","location":{"latitude":"51.543171","street":{"id":965198,"name":"On or near Winchester Road"},"longitude":"-0.172232"},"context":"","outcome_status":{"category":"Local resolution","date":"2019-05"},"persistent_id":"14267f6be18421c11968bb55251f866f5f2e30adf849a56b49707d1a96135449","id":74311821,"location_subtype":"","month":"2019-05"},{"category":"drugs","location_type":"Force","location":{"latitude":"51.545929","street":{"id":965360,"name":"On or near Sherriff Road"},"longitude":"-0.193582"},"context":"","outcome_status":{"category":"Status update unavailable","date":"2019-09"},"persistent_id":"08a3e20fd54222ced2764655cb74c97fb72658cf03fb9f5c9b7c8ef02a959c1e","id":74292004,"location_subtype":"","month":"2019-05"},{"category":"drugs","location_type":"Force","location":{"latitude":"51.548147","street":{"id":967616,"name":"On or near West End Lane"},"longitude":"-0.191042"},"context":"","outcome_status":{"category":"Court result unavailable","date":"2019-12"},"persistent_id":"9e4ae74a7605bb145279259de031957b8b618e60726d6545b05b9a9e508942f2","id":74315622,"location_subtype":"","month":"2019-05"},{"category":"drugs","location_type":"Force","location":{"latitude":"51.552261","street":{"id":923812,"name":"On or near Hillfield Road"},"longitude":"-0.198322"},"context":"","outcome_status":{"category":"Local resolution","date":"2019-05"},"persistent_id":"30e7a223a967c6ef184107a769fb3280bdc53bddc30532a9ccd71bd414f52056","id":74297174,"location_subtype":"","month":"2019-05"},{"category":"drugs","location_type":"Force","location":{"latitude":"51.545164","street":{"id":965162,"name":"On or near Compayne Gardens"},"longitude":"-0.185348"},"context":"","outcome_status":{"category":"Local resolution","date":"2019-10"},"persistent_id":"5a5b483c50f2ae49f36e966af9148f5ba5e77c651af7b2e2a71d482e3652fc02","id":74346750,"location_subtype":"","month":"2019-05"},{"category":"drugs","location_type":"Force","location":{"latitude":"51.560451","street":{"id":972426,"name":"On or near Briardale Gardens"},"longitude":"-0.197003"},"context":"","outcome_status":{"category":"Local resolution","date":"2019-11"},"persistent_id":"33bf07411922b2580809aa1e9cf5d570db436e471d8fd8fef5d65268edaafae8","id":74353923,"location_subtype":"","month":"2019-05"},{"category":"drugs","location_type":"Force","location":{"latitude":"51.542734","street":{"id":965161,"name":"On or near Fairfax Place"},"longitude":"-0.180023"},"context":"","outcome_status":{"category":"Court result unavailable","date":"2019-11"},"persistent_id":"839c23f7cedeb16e25f5c493800c1e297143ae447b531d06f8c6f6032f4a49dd","id":74345698,"location_subtype":"","month":"2019-05"},{"category":"other-theft","location_type":"Force","location":{"latitude":"51.561906","street":{"id":972388,"name":"On or near Devonshire Place"},"longitude":"-0.196339"},"context":"","outcome_status":{"category":"Status update unavailable","date":"2019-09"},"persistent_id":"2dc51e4c13a0e8157a970b59f340d582613cc88515ff783dc390563acc42d3ab","id":74304325,"location_subtype":"","month":"2019-05"},{"category":"other-theft","location_type":"Force","location":{"latitude":"51.542741","street":{"id":965233,"name":"On or near Avenue Road"},"longitude":"-0.174124"},"context":"","outcome_status":{"category":"Status update unavailable","date":"2019-09"},"persistent_id":"c8e2e3b4537dc13d934cd19fa89a7a97fadfead69e53ddee10085847ef2dffd9","id":74290597,"location_subtype":"","month":"2019-05"},{"category":"other-theft","location_type":"Force","location":{"latitude":"51.561906","street":{"id":972388,"name":"On or near Devonshire Place"},"longitude":"-0.196339"},"context":"","outcome_status":{"category":"Status update unavailable","date":"2019-09"},"persistent_id":"74d9681db1d98cdcf58676708eefe63e2359a96edf9e42e37ef280a57f3ec9bd","id":74302810,"location_subtype":"","month":"2019-05"},{"category":"other-theft","location_type":"Force","location":{"latitude":"51.547945","street":{"id":967786,"name":"On or near Nightclub"},"longitude":"-0.181430"},"context":"","outcome_status":{"category":"Status update unavailable","date":"2019-09"},"persistent_id":"4a693546a42545430b7710b9d6b33c7d2ccb42142682ac851ff83e591d280069","id":74294346,"location_subtype":"","month":"2019-05"},{"category":"other-theft","location_type":"Force","location":{"latitude":"51.550633","street":{"id":967887,"name":"On or near Supermarket"},"longitude":"-0.165789"},"context":"","outcome_status":{"category":"Status update unavailable","date":"2019-09"},"persistent_id":"9d4269ddd58b0e5d6ec5885492806388746bfc46efb119ca1657c78d2e3065d4","id":74307731,"location_subtype":"","month":"2019-05"},{"category":"other-theft","location_type":"Force","location":{"latitude":"51.550838","street":{"id":967578,"name":"On or near Broomsleigh Street"},"longitude":"-0.198753"},"context":"","outcome_status":{"category":"Status update unavailable","date":"2019-09"},"persistent_id":"7170dcb9e5b0f7c2bb990688ca3120dc960415acd148780923b91289ae972b57","id":74306622,"location_subtype":"","month":"2019-05"},{"category":"other-theft","location_type":"Force","location":{"latitude":"51.546454","street":{"id":967938,"name":"On or near England's Lane"},"longitude":"-0.161356"},"context":"","outcome_status":{"category":"Status update unavailable","date":"2019-09"},"persistent_id":"74e570ce6f6348be7653b6b05915827b4ac07c72af0d45593c9cda177ee4ffc7","id":74311010,"location_subtype":"","month":"2019-05"},{"category":"other-theft","location_type":"Force","location":{"latitude":"51.555985","street":{"id":967689,"name":"On or near Downshire Hill"},"longitude":"-0.169930"},"context":"","outcome_status":{"category":"Status update unavailable","date":"2019-09"},"persistent_id":"ae6b4f7f5ad4f945a93baa3b94e327fc412736ca539d6d9d2f6de0c96ae28a0e","id":74337439,"location_subtype":"","month":"2019-05"},{"category":"other-theft","location_type":"Force","location":{"latitude":"51.545834","street":{"id":967793,"name":"On or near College Crescent"},"longitude":"-0.176957"},"context":"","outcome_status":{"category":"Status update unavailable","date":"2019-09"},"persistent_id":"6ba58962190eb98d16ca781439b3f8f80149f17ac4a04d786748fbcf87a522e0","id":74345817,"location_subtype":"","month":"2019-05"},{"category":"other-theft","location_type":"Force","location":{"latitude":"51.546345","street":{"id":967779,"name":"On or near Parking Area"},"longitude":"-0.179778"},"context":"","outcome_status":{"category":"Status update unavailable","date":"2019-09"},"persistent_id":"06389a6f914317b49d5d701bef0eb094d0498f15f4b67e03d87f9b91ba59e357","id":74308260,"location_subtype":"","month":"2019-05"},{"category":"other-theft","location_type":"Force","location":{"latitude":"51.543432","street":{"id":965220,"name":"On or near Finchley Road"},"longitude":"-0.175164"},"context":"","outcome_status":{"category":"Status update unavailable","date":"2019-09"},"persistent_id":"0a5f68555e7182d18dd577765a66618152df8ac1c51ac5ab2df01e3c877ae032","id":74323606,"location_subtype":"","month":"2019-05"},{"category":"other-theft","location_type":"Force","location":{"latitude":"51.546454","street":{"id":967938,"name":"On or near England's Lane"},"longitude":"-0.161356"},"context":"","outcome_status":{"category":"Status update unavailable","date":"2019-09"},"persistent_id":"ca44003872c1aedcda101bd4d406cfd135e297f88698b8ab1bb63b81516c0ced","id":74290445,"location_subtype":"","month":"2019-05"},{"category":"other-theft","location_type":"Force","location":{"latitude":"51.545174","street":{"id":965396,"name":"On or near Compayne Gardens"},"longitude":"-0.190655"},"context":"","outcome_status":{"category":"Status update unavailable","date":"2019-09"},"persistent_id":"52d418f063e48e95b583e177c1fc04a46d28d6f8133736a6320c7762d080229d","id":74290534,"location_subtype":"","month":"2019-05"},{"category":"other-theft","location_type":"Force","location":{"latitude":"51.551370","street":{"id":967908,"name":"On or near Lawn Road"},"longitude":"-0.161749"},"context":"","outcome_status":{"category":"Status update unavailable","date":"2019-09"},"persistent_id":"d53629500cf45766864bb2a31667625c401ac9a7f6a22ae7ed92a244e3f7af36","id":74296266,"location_subtype":"","month":"2019-05"},{"category":"other-theft","location_type":"Force","location":{"latitude":"51.546109","street":{"id":967935,"name":"On or near Lambolle Place"},"longitude":"-0.165177"},"context":"","outcome_status":{"category":"Status update unavailable","date":"2019-09"},"persistent_id":"c42a66a6161c41f551c9819b237d184165a06fd9af7dfd4ecc53a39395a65571","id":74297428,"location_subtype":"","month":"2019-05"},{"category":"other-theft","location_type":"Force","location":{"latitude":"51.542741","street":{"id":965233,"name":"On or near Avenue Road"},"longitude":"-0.174124"},"context":"","outcome_status":{"category":"Status update unavailable","date":"2019-09"},"persistent_id":"8c6673cd411ebce0c55ebd629764b3543f77d8ba3fd61ec0bf408c8aeb0a0ea6","id":74297676,"location_subtype":"","month":"2019-05"},{"category":"other-theft","location_type":"Force","location":{"latitude":"51.550522","street":{"id":967527,"name":"On or near Nightclub"},"longitude":"-0.191712"},"context":"","outcome_status":{"category":"Status update unavailable","date":"2019-09"},"persistent_id":"989460206c337fcd68808290525d29bdf6ca29635fae495f2089b33db3793ca1","id":74298253,"location_subtype":"","month":"2019-05"},{"category":"other-theft","location_type":"Force","location":{"latitude":"51.555508","street":{"id":967756,"name":"On or near Heath Street"},"longitude":"-0.178561"},"context":"","outcome_status":{"category":"Status update unavailable","date":"2019-09"},"persistent_id":"1f9a2dce7335dcde12414c49b9844792ffb7bf25a89913adf5234c8daec5e029","id":74301132,"location_subtype":"","month":"2019-05"},{"category":"other-theft","location_type":"Force","location":{"latitude":"51.550996","street":{"id":967894,"name":"On or near Southampton Road"},"longitude":"-0.156817"},"context":"","outcome_status":{"category":"Status update unavailable","date":"2019-09"},"persistent_id":"04f818c29d92a7c543d12ca27f3ad76eb929e917a5ad033da5367f6bac787daa","id":74301133,"location_subtype":"","month":"2019-05"},{"category":"other-theft","location_type":"Force","location":{"latitude":"51.557053","street":{"id":967900,"name":"On or near Parliament Hill"},"longitude":"-0.162890"},"context":"","outcome_status":{"category":"Status update unavailable","date":"2019-09"},"persistent_id":"dc654caf8785207f7f2a31ff5fa16a40173973bb329e802fc2e28888ee677eb1","id":74302383,"location_subtype":"","month":"2019-05"},{"category":"other-theft","location_type":"Force","location":{"latitude":"51.547131","street":{"id":967620,"name":"On or near Blackburn Road"},"longitude":"-0.189900"},"context":"","outcome_status":{"category":"Status update unavailable","date":"2019-09"},"persistent_id":"4b564f835bc6eba747562f184c04aa1f0efcd0823f45feb6c63968689deedb91","id":74302608,"location_subtype":"","month":"2019-05"},{"category":"other-theft","location_type":"Force","location":{"latitude":"51.545834","street":{"id":967793,"name":"On or near College Crescent"},"longitude":"-0.176957"},"context":"","outcome_status":{"category":"Status update unavailable","date":"2019-09"},"persistent_id":"c327454d3551238f559ca340bdc5f2603dfbe87c85def1b05ffb55745b0b0d33","id":74302801,"location_subtype":"","month":"2019-05"},{"category":"other-theft","location_type":"Force","location":{"latitude":"51.546216","street":{"id":967796,"name":"On or near Belsize Park"},"longitude":"-0.173754"},"context":"","outcome_status":{"category":"Status update unavailable","date":"2019-09"},"persistent_id":"587ccadade2233d68b5221a5f35af608aee76db31b68cdd679e8d338afee790a","id":74291725,"location_subtype":"","month":"2019-05"},{"category":"other-theft","location_type":"Force","location":{"latitude":"51.555796","street":{"id":967670,"name":"On or near Perrin's Court"},"longitude":"-0.177410"},"context":"","outcome_status":{"category":"Status update unavailable","date":"2019-09"},"persistent_id":"2a8e2ee2d3cb2124b4dd17e8333611ce9d02d84bf6344f6bbf5b402c4ab362d5","id":74292424,"location_subtype":"","month":"2019-05"},{"category":"other-theft","location_type":"Force","location":{"latitude":"51.556057","street":{"id":967543,"name":"On or near Weech Road"},"longitude":"-0.195474"},"context":"","outcome_status":{"category":"Status update unavailable","date":"2019-09"},"persistent_id":"421e5c03a06c75cd47dc82763ca674da85a8d330f16fdbf761ed3b1ab613924f","id":74293288,"location_subtype":"","month":"2019-05"},{"category":"other-theft","location_type":"Force","location":{"latitude":"51.561319","street":{"id":972305,"name":"On or near Whitestone Lane"},"longitude":"-0.178733"},"context":"","outcome_status":{"category":"Status update unavailable","date":"2019-09"},"persistent_id":"268a8360d24f36dadbd5c7632b24a11a4cc4faae592f1b206940b60bbe2ff49f","id":74293534,"location_subtype":"","month":"2019-05"},{"category":"other-theft","location_type":"Force","location":{"latitude":"51.549056","street":{"id":967632,"name":"On or near Maresfield Gardens"},"longitude":"-0.177722"},"context":"","outcome_status":{"category":"Status update unavailable","date":"2019-09"},"persistent_id":"06bba9e2a5722542299ff3235d5fa808ed3ee692788bfa14afdf42f3150c5c4d","id":74293787,"location_subtype":"","month":"2019-05"},{"category":"other-theft","location_type":"Force","location":{"latitude":"51.550522","street":{"id":967527,"name":"On or near Nightclub"},"longitude":"-0.191712"},"context":"","outcome_status":{"category":"Status update unavailable","date":"2019-09"},"persistent_id":"5efb1baa02168f0f9407f2da3dd49be6e27de218178d2125ab0219ae1ab4ee3e","id":74294343,"location_subtype":"","month":"2019-05"},{"category":"other-theft","location_type":"Force","location":{"latitude":"51.544152","street":{"id":965398,"name":"On or near Cleve Road"},"longitude":"-0.189730"},"context":"","outcome_status":{"category":"Status update unavailable","date":"2019-09"},"persistent_id":"731b77936b104221057d7b0d514dd921df1f1cd67ff99d2885878399b1310632","id":74294501,"location_subtype":"","month":"2019-05"},{"category":"other-theft","location_type":"Force","location":{"latitude":"51.550522","street":{"id":967527,"name":"On or near Nightclub"},"longitude":"-0.191712"},"context":"","outcome_status":{"category":"Status update unavailable","date":"2019-09"},"persistent_id":"96e1c9b09460d611994008a5a9119412f2ea1f9b40e2ed61c18d7d69acfbf9ba","id":74295495,"location_subtype":"","month":"2019-05"},{"category":"other-theft","location_type":"Force","location":{"latitude":"51.562011","street":{"id":972396,"name":"On or near Hermitage Lane"},"longitude":"-0.194950"},"context":"","outcome_status":{"category":"Status update unavailable","date":"2019-09"},"persistent_id":"6d0dd7572758c454c1861abc3c26f800ef888e260fa989431b2cf2dedca44f01","id":74295504,"location_subtype":"","month":"2019-05"},{"category":"other-theft","location_type":"Force","location":{"latitude":"51.547945","street":{"id":967786,"name":"On or near Nightclub"},"longitude":"-0.181430"},"context":"","outcome_status":{"category":"Status update unavailable","date":"2019-09"},"persistent_id":"a4b1548a62c76b761875cac3896640504565a7478fc322abffb4750b7ca2c20a","id":74307284,"location_subtype":"","month":"2019-05"},{"category":"other-theft","location_type":"Force","location":{"latitude":"51.550093","street":{"id":967523,"name":"On or near Fawley Road"},"longitude":"-0.190128"},"context":"","outcome_status":{"category":"Status update unavailable","date":"2019-09"},"persistent_id":"c5780e734b33bb859795341cbfdae5150dd15130f1022a15ba6ca7a485501c38","id":74307973,"location_subtype":"","month":"2019-05"},{"category":"other-theft","location_type":"Force","location":{"latitude":"51.555508","street":{"id":967756,"name":"On or near Heath Street"},"longitude":"-0.178561"},"context":"","outcome_status":{"category":"Status update unavailable","date":"2019-09"},"persistent_id":"46503d62d0c6b6e69a432ecff238afe16746cc006a20da0f341e657c8fad3940","id":74320045,"location_subtype":"","month":"2019-05"},{"category":"other-theft","location_type":"Force","location":{"latitude":"51.555319","street":{"id":967682,"name":"On or near Greenhill"},"longitude":"-0.175121"},"context":"","outcome_status":{"category":"Status update unavailable","date":"2019-09"},"persistent_id":"9bd47a17552c6d98a1e71ec363ff2872e8fcb55b3ae8044fc259ec828d2893bb","id":74324959,"location_subtype":"","month":"2019-05"},{"category":"other-theft","location_type":"Force","location":{"latitude":"51.553223","street":{"id":967710,"name":"On or near Hampstead Green"},"longitude":"-0.167531"},"context":"","outcome_status":{"category":"Status update unavailable","date":"2019-09"},"persistent_id":"13294169390c11925598876035d73fc65225debfad28b78e2f674293054d5f6a","id":74325043,"location_subtype":"","month":"2019-05"},{"category":"other-theft","location_type":"Force","location":{"latitude":"51.542741","street":{"id":965233,"name":"On or near Avenue Road"},"longitude":"-0.174124"},"context":"","outcome_status":{"category":"Status update unavailable","date":"2019-09"},"persistent_id":"4c9d9c6361c61a82563b54cc8e5af9ec8e72644e217338036e7a637e650b59c8","id":74312234,"location_subtype":"","month":"2019-05"},{"category":"other-theft","location_type":"Force","location":{"latitude":"51.547131","street":{"id":967620,"name":"On or near Blackburn Road"},"longitude":"-0.189900"},"context":"","outcome_status":{"category":"Status update unavailable","date":"2019-09"},"persistent_id":"ead1243567c6079975090414f0f8594fb998f530021107d373d78df46c7d4df8","id":74309529,"location_subtype":"","month":"2019-05"},{"category":"other-theft","location_type":"Force","location":{"latitude":"51.555699","street":{"id":967681,"name":"On or near Hampstead High Street"},"longitude":"-0.176404"},"context":"","outcome_status":{"category":"Status update unavailable","date":"2019-09"},"persistent_id":"f4a7d02fd44d05657e76e7b29b467b3c5191b94ed9b4b2c3861dc32634bd4f46","id":74309721,"location_subtype":"","month":"2019-05"},{"category":"other-theft","location_type":"Force","location":{"latitude":"51.547945","street":{"id":967786,"name":"On or near Nightclub"},"longitude":"-0.181430"},"context":"","outcome_status":{"category":"Status update unavailable","date":"2019-09"},"persistent_id":"fc9ce780d4760abb5ca0ead32560c8bc5cd93a305d84d272f6f4a5c24134fabf","id":74309733,"location_subtype":"","month":"2019-05"},{"category":"other-theft","location_type":"Force","location":{"latitude":"51.546182","street":{"id":967787,"name":"On or near Supermarket"},"longitude":"-0.179669"},"context":"","outcome_status":{"category":"Status update unavailable","date":"2019-09"},"persistent_id":"9e783bc9ecfa1bb4c2dea3c50ca9cfbe57f17251773ae14c4bbc6999449d8879","id":74313675,"location_subtype":"","month":"2019-05"},{"category":"other-theft","location_type":"Force","location":{"latitude":"51.549347","street":{"id":967877,"name":"On or near Haverstock Hill"},"longitude":"-0.162912"},"context":"","outcome_status":{"category":"Status update unavailable","date":"2019-09"},"persistent_id":"123af68f0f8d0fc494f34c753a640e3e18f7549c64473d182440cec36f81440c","id":74306280,"location_subtype":"","month":"2019-05"},{"category":"other-theft","location_type":"Force","location":{"latitude":"51.565511","street":{"id":972391,"name":"On or near West Heath Road"},"longitude":"-0.193903"},"context":"","outcome_status":{"category":"Status update unavailable","date":"2019-09"},"persistent_id":"b1c94dfd374e291feafaaaf10c38860d9b2292f9a2722ab46948ea2797008465","id":74314791,"location_subtype":"","month":"2019-05"},{"category":"other-theft","location_type":"Force","location":{"latitude":"51.544100","street":{"id":965242,"name":"On or near Shopping Area"},"longitude":"-0.175916"},"context":"","outcome_status":{"category":"Court result unavailable","date":"2020-10"},"persistent_id":"aeda16270d33021a9254ff9a7c703ce3956585d0761d1a03ae75fa31402eb418","id":74315039,"location_subtype":"","month":"2019-05"},{"category":"other-theft","location_type":"Force","location":{"latitude":"51.554148","street":{"id":967919,"name":"On or near Byron Mews"},"longitude":"-0.162863"},"context":"","outcome_status":{"category":"Status update unavailable","date":"2019-09"},"persistent_id":"ea3f7a2f42be8460163275bc7b0f66bfb32f2fc522af7854852fc7aaadf525d0","id":74315074,"location_subtype":"","month":"2019-05"},{"category":"other-theft","location_type":"Force","location":{"latitude":"51.555983","street":{"id":967773,"name":"On or near Theatre\/concert Hall"},"longitude":"-0.178484"},"context":"","outcome_status":{"category":"Status update unavailable","date":"2019-09"},"persistent_id":"2c6cf81e01c29578be209d81db42333bb7f3ee86c5c49a322bc8601dbba469a4","id":74315276,"location_subtype":"","month":"2019-05"},