[{"category":"anti-social-behaviour","location_type":"Force","location":{"latitude":"51.476067","street":{"id":944505,"name":"On or near Brookwood Road"},"longitude":"-0.363254"},"context":"","outcome_status":null,"persistent_id":"","id":74284727,"location_subtype":"","month":"2019-05"},{"category":"anti-social-behaviour","location_type":"Force","location":{"latitude":"51.483893","street":{"id":951120,"name":"On or near Scott Gardens"},"longitude":"-0.391405"},"context":"","outcome_status":null,"persistent_id":"","id":74287338,"location_subtype":"","month":"2019-05"},{"category":"anti-social-behaviour","location_type":"Force","location":{"latitude":"51.474993","street":{"id":923555,"name":"On or near Petrol Station"},"longitude":"-0.392207"},"context":"","outcome_status":null,"persistent_id":"","id":74287341,"location_subtype":"","month":"2019-05"},{"category":"anti-social-behaviour","location_type":"Force","location":{"latitude":"51.481965","street":{"id":944419,"name":"On or near Norman Crescent"},"longitude":"-0.393085"},"context":"","outcome_status":null,"persistent_id":"","id":74287342,"location_subtype":"","month":"2019-05"},{"category":"anti-social-behaviour","location_type":"Force","location":{"latitude":"51.475002","street":{"id":944434,"name":"On or near Bath Road"},"longitude":"-0.393503"},"context":"","outcome_status":null,"persistent_id":"","id":74287345,"location_subtype":"","month":"2019-05"},{"category":"anti-social-behaviour","location_type":"Force","location":{"latitude":"51.475002","street":{"id":944434,"name":"On or near Bath Road"},"longitude":"-0.393503"},"context":"","outcome_status":null,"persistent_id":"","id":74287346,"location_subtype":"","month":"2019-05"},{"category":"anti-social-behaviour","location_type":"Force","location":{"latitude":"51.475002","street":{"id":944434,"name":"On or near Bath Road"},"longitude":"-0.393503"},"context":"","outcome_status":null,"persistent_id":"","id":74287347,"location_subtype":"","month":"2019-05"},{"category":"anti-social-behaviour","location_type":"Force","location":{"latitude":"51.475002","street":{"id":944434,"name":"On or near Bath Road"},"longitude":"-0.393503"},"context":"","outcome_status":null,"persistent_id":"","id":74287348,"location_subtype":"","month":"2019-05"},{"category":"anti-social-behaviour","location_type":"Force","location":{"latitude":"51.475002","street":{"id":944434,"name":"On or near Bath Road"},"longitude":"-0.393503"},"context":"","outcome_status":null,"persistent_id":"","id":74287349,"location_subtype":"","month":"2019-05"},{"category":"anti-social-behaviour","location_type":"Force","location":{"latitude":"51.475002","street":{"id":944434,"name":"On or near Bath Road"},"longitude":"-0.393503"},"context":"","outcome_status":null,"persistent_id":"","id":74287350,"location_subtype":"","month":"2019-05"},{"category":"anti-social-behaviour","location_type":"Force","location":{"latitude":"51.481965","street":{"id":944419,"name":"On or near Norman Crescent"},"longitude":"-0.393085"},"context":"","outcome_status":null,"persistent_id":"","id":74287351,"location_subtype":"","month":"2019-05"},{"category":"anti-social-behaviour","location_type":"Force","location":{"latitude":"51.477863","street":{"id":944430,"name":"On or near Burns Way"},"longitude":"-0.394324"},"context":"","outcome_status":null,"persistent_id":"","id":74287354,"location_subtype":"","month":"2019-05"},{"category":"anti-social-behaviour","location_type":"Force","location":{"latitude":"51.477863","street":{"id":944430,"name":"On or near Burns Way"},"longitude":"-0.394324"},"context":"","outcome_status":null,"persistent_id":"","id":74287355,"location_subtype":"","month":"2019-05"},{"category":"anti-social-behaviour","location_type":"Force","location":{"latitude":"51.485714","street":{"id":951121,"name":"On or near Phoenix Way"},"longitude":"-0.393703"},"context":"","outcome_status":null,"persistent_id":"","id":74287356,"location_subtype":"","month":"2019-05"},{"category":"anti-social-behaviour","location_type":"Force","location":{"latitude":"51.485714","street":{"id":951121,"name":"On or near Phoenix Way"},"longitude":"-0.393703"},"context":"","outcome_status":null,"persistent_id":"","id":74287357,"location_subtype":"","month":"2019-05"},{"category":"anti-social-behaviour","location_type":"Force","location":{"latitude":"51.471346","street":{"id":944451,"name":"On or near Marmot Road"},"longitude":"-0.395820"},"context":"","outcome_status":null,"persistent_id":"","id":74287360,"location_subtype":"","month":"2019-05"},{"category":"anti-social-behaviour","location_type":"Force","location":{"latitude":"51.472399","street":{"id":944449,"name":"On or near Mink Court"},"longitude":"-0.396474"},"context":"","outcome_status":null,"persistent_id":"","id":74287361,"location_subtype":"","month":"2019-05"},{"category":"anti-social-behaviour","location_type":"Force","location":{"latitude":"51.484500","street":{"id":951122,"name":"On or near Pegg Road"},"longitude":"-0.395027"},"context":"","outcome_status":null,"persistent_id":"","id":74287362,"location_subtype":"","month":"2019-05"},{"category":"anti-social-behaviour","location_type":"Force","location":{"latitude":"51.484500","street":{"id":951122,"name":"On or near Pegg Road"},"longitude":"-0.395027"},"context":"","outcome_status":null,"persistent_id":"","id":74287363,"location_subtype":"","month":"2019-05"},{"category":"anti-social-behaviour","location_type":"Force","location":{"latitude":"51.483603","street":{"id":951128,"name":"On or near Cobham Road"},"longitude":"-0.397161"},"context":"","outcome_status":null,"persistent_id":"","id":74287364,"location_subtype":"","month":"2019-05"},{"category":"anti-social-behaviour","location_type":"Force","location":{"latitude":"51.473043","street":{"id":944446,"name":"On or near Raccoon Way"},"longitude":"-0.398856"},"context":"","outcome_status":null,"persistent_id":"","id":74287369,"location_subtype":"","month":"2019-05"},{"category":"anti-social-behaviour","location_type":"Force","location":{"latitude":"51.482169","street":{"id":944477,"name":"On or near Johnson Road"},"longitude":"-0.397514"},"context":"","outcome_status":null,"persistent_id":"","id":74287368,"location_subtype":"","month":"2019-05"},{"category":"anti-social-behaviour","location_type":"Force","location":{"latitude":"51.471938","street":{"id":944464,"name":"On or near Badger Close"},"longitude":"-0.400277"},"context":"","outcome_status":null,"persistent_id":"","id":74287370,"location_subtype":"","month":"2019-05"},{"category":"anti-social-behaviour","location_type":"Force","location":{"latitude":"51.471938","street":{"id":944464,"name":"On or near Badger Close"},"longitude":"-0.400277"},"context":"","outcome_status":null,"persistent_id":"","id":74287371,"location_subtype":"","month":"2019-05"},{"category":"anti-social-behaviour","location_type":"Force","location":{"latitude":"51.466753","street":{"id":944132,"name":"On or near Sports\/recreation Area"},"longitude":"-0.402503"},"context":"","outcome_status":null,"persistent_id":"","id":74287377,"location_subtype":"","month":"2019-05"},{"category":"anti-social-behaviour","location_type":"Force","location":{"latitude":"51.475527","street":{"id":944348,"name":"On or near Aston Green"},"longitude":"-0.403003"},"context":"","outcome_status":null,"persistent_id":"","id":74287382,"location_subtype":"","month":"2019-05"},{"category":"anti-social-behaviour","location_type":"Force","location":{"latitude":"51.475527","street":{"id":944348,"name":"On or near Aston Green"},"longitude":"-0.403003"},"context":"","outcome_status":null,"persistent_id":"","id":74287383,"location_subtype":"","month":"2019-05"},{"category":"anti-social-behaviour","location_type":"Force","location":{"latitude":"51.475154","street":{"id":944327,"name":"On or near Windsor Road"},"longitude":"-0.402684"},"context":"","outcome_status":null,"persistent_id":"","id":74287384,"location_subtype":"","month":"2019-05"},{"category":"anti-social-behaviour","location_type":"Force","location":{"latitude":"51.476972","street":{"id":944412,"name":"On or near Bath Road"},"longitude":"-0.402146"},"context":"","outcome_status":null,"persistent_id":"","id":74287388,"location_subtype":"","month":"2019-05"},{"category":"anti-social-behaviour","location_type":"Force","location":{"latitude":"51.470331","street":{"id":944374,"name":"On or near Warwick Road"},"longitude":"-0.404422"},"context":"","outcome_status":null,"persistent_id":"","id":74287387,"location_subtype":"","month":"2019-05"},{"category":"anti-social-behaviour","location_type":"Force","location":{"latitude":"51.475038","street":{"id":944330,"name":"On or near Stansfield Road"},"longitude":"-0.404085"},"context":"","outcome_status":null,"persistent_id":"","id":74287394,"location_subtype":"","month":"2019-05"},{"category":"anti-social-behaviour","location_type":"Force","location":{"latitude":"51.478139","street":{"id":944346,"name":"On or near Bath Road"},"longitude":"-0.405331"},"context":"","outcome_status":null,"persistent_id":"","id":74287401,"location_subtype":"","month":"2019-05"},{"category":"anti-social-behaviour","location_type":"Force","location":{"latitude":"51.478139","street":{"id":944346,"name":"On or near Bath Road"},"longitude":"-0.405331"},"context":"","outcome_status":null,"persistent_id":"","id":74287402,"location_subtype":"","month":"2019-05"},{"category":"anti-social-behaviour","location_type":"Force","location":{"latitude":"51.478139","street":{"id":944346,"name":"On or near Bath Road"},"longitude":"-0.405331"},"context":"","outcome_status":null,"persistent_id":"","id":74287403,"location_subtype":"","month":"2019-05"},{"category":"anti-social-behaviour","location_type":"Force","location":{"latitude":"51.466133","street":{"id":944046,"name":"On or near Wareham Close"},"longitude":"-0.367267"},"context":"","outcome_status":null,"persistent_id":"","id":74284764,"location_subtype":"","month":"2019-05"},{"category":"anti-social-behaviour","location_type":"Force","location":{"latitude":"51.461553","street":{"id":943980,"name":"On or near Victoria Avenue"},"longitude":"-0.373563"},"context":"","outcome_status":null,"persistent_id":"","id":74284797,"location_subtype":"","month":"2019-05"},{"category":"anti-social-behaviour","location_type":"Force","location":{"latitude":"51.483146","street":{"id":951079,"name":"On or near Church Road"},"longitude":"-0.373774"},"context":"","outcome_status":null,"persistent_id":"","id":74284800,"location_subtype":"","month":"2019-05"},{"category":"anti-social-behaviour","location_type":"Force","location":{"latitude":"51.470391","street":{"id":944555,"name":"On or near Bulstrode Gardens"},"longitude":"-0.374141"},"context":"","outcome_status":null,"persistent_id":"","id":74284801,"location_subtype":"","month":"2019-05"},{"category":"anti-social-behaviour","location_type":"Force","location":{"latitude":"51.461193","street":{"id":943971,"name":"On or near Wellington Road South"},"longitude":"-0.375490"},"context":"","outcome_status":null,"persistent_id":"","id":74284803,"location_subtype":"","month":"2019-05"},{"category":"anti-social-behaviour","location_type":"Force","location":{"latitude":"51.461193","street":{"id":943971,"name":"On or near Wellington Road South"},"longitude":"-0.375490"},"context":"","outcome_status":null,"persistent_id":"","id":74284804,"location_subtype":"","month":"2019-05"},{"category":"anti-social-behaviour","location_type":"Force","location":{"latitude":"51.461950","street":{"id":943993,"name":"On or near Orchard Road"},"longitude":"-0.374930"},"context":"","outcome_status":null,"persistent_id":"","id":74284807,"location_subtype":"","month":"2019-05"},{"category":"anti-social-behaviour","location_type":"Force","location":{"latitude":"51.481266","street":{"id":944529,"name":"On or near Old Park Mews"},"longitude":"-0.374978"},"context":"","outcome_status":null,"persistent_id":"","id":74284809,"location_subtype":"","month":"2019-05"},{"category":"anti-social-behaviour","location_type":"Force","location":{"latitude":"51.481266","street":{"id":944529,"name":"On or near Old Park Mews"},"longitude":"-0.374978"},"context":"","outcome_status":null,"persistent_id":"","id":74284808,"location_subtype":"","month":"2019-05"},{"category":"anti-social-behaviour","location_type":"Force","location":{"latitude":"51.481266","street":{"id":944529,"name":"On or near Old Park Mews"},"longitude":"-0.374978"},"context":"","outcome_status":null,"persistent_id":"","id":74284810,"location_subtype":"","month":"2019-05"},{"category":"anti-social-behaviour","location_type":"Force","location":{"latitude":"51.481266","street":{"id":944529,"name":"On or near Old Park Mews"},"longitude":"-0.374978"},"context":"","outcome_status":null,"persistent_id":"","id":74284811,"location_subtype":"","month":"2019-05"},{"category":"anti-social-behaviour","location_type":"Force","location":{"latitude":"51.460671","street":{"id":944028,"name":"On or near Beresford Gardens"},"longitude":"-0.376746"},"context":"","outcome_status":null,"persistent_id":"","id":74284816,"location_subtype":"","month":"2019-05"},{"category":"anti-social-behaviour","location_type":"Force","location":{"latitude":"51.470923","street":{"id":944551,"name":"On or near Dene Avenue"},"longitude":"-0.376181"},"context":"","outcome_status":null,"persistent_id":"","id":74284817,"location_subtype":"","month":"2019-05"},{"category":"anti-social-behaviour","location_type":"Force","location":{"latitude":"51.467909","street":{"id":944022,"name":"On or near Clare Road"},"longitude":"-0.381212"},"context":"","outcome_status":null,"persistent_id":"","id":74284840,"location_subtype":"","month":"2019-05"},{"category":"anti-social-behaviour","location_type":"Force","location":{"latitude":"51.485186","street":{"id":951072,"name":"On or near New Heston Road"},"longitude":"-0.376927"},"context":"","outcome_status":null,"persistent_id":"","id":74284819,"location_subtype":"","month":"2019-05"},{"category":"anti-social-behaviour","location_type":"Force","location":{"latitude":"51.483211","street":{"id":951069,"name":"On or near Westbrook Road"},"longitude":"-0.376508"},"context":"","outcome_status":null,"persistent_id":"","id":74284820,"location_subtype":"","month":"2019-05"},{"category":"anti-social-behaviour","location_type":"Force","location":{"latitude":"51.462448","street":{"id":943987,"name":"On or near Roseheath Road"},"longitude":"-0.377835"},"context":"","outcome_status":null,"persistent_id":"","id":74284821,"location_subtype":"","month":"2019-05"},{"category":"anti-social-behaviour","location_type":"Force","location":{"latitude":"51.465285","street":{"id":943976,"name":"On or near Wellington Road South"},"longitude":"-0.378123"},"context":"","outcome_status":null,"persistent_id":"","id":74284822,"location_subtype":"","month":"2019-05"},{"category":"anti-social-behaviour","location_type":"Force","location":{"latitude":"51.468059","street":{"id":944074,"name":"On or near Bell Road"},"longitude":"-0.366132"},"context":"","outcome_status":null,"persistent_id":"","id":74284760,"location_subtype":"","month":"2019-05"},{"category":"anti-social-behaviour","location_type":"Force","location":{"latitude":"51.464003","street":{"id":944023,"name":"On or near Cambria Close"},"longitude":"-0.369344"},"context":"","outcome_status":null,"persistent_id":"","id":74284778,"location_subtype":"","month":"2019-05"},{"category":"anti-social-behaviour","location_type":"Force","location":{"latitude":"51.467764","street":{"id":944006,"name":"On or near Hospital Road"},"longitude":"-0.371412"},"context":"","outcome_status":null,"persistent_id":"","id":74284779,"location_subtype":"","month":"2019-05"},{"category":"anti-social-behaviour","location_type":"Force","location":{"latitude":"51.467764","street":{"id":944006,"name":"On or near Hospital Road"},"longitude":"-0.371412"},"context":"","outcome_status":null,"persistent_id":"","id":74284780,"location_subtype":"","month":"2019-05"},{"category":"anti-social-behaviour","location_type":"Force","location":{"latitude":"51.473895","street":{"id":944533,"name":"On or near Harte Road"},"longitude":"-0.375183"},"context":"","outcome_status":null,"persistent_id":"","id":74284782,"location_subtype":"","month":"2019-05"},{"category":"anti-social-behaviour","location_type":"Force","location":{"latitude":"51.468059","street":{"id":944074,"name":"On or near Bell Road"},"longitude":"-0.366132"},"context":"","outcome_status":null,"persistent_id":"","id":74284747,"location_subtype":"","month":"2019-05"},{"category":"anti-social-behaviour","location_type":"Force","location":{"latitude":"51.468059","street":{"id":944074,"name":"On or near Bell Road"},"longitude":"-0.366132"},"context":"","outcome_status":null,"persistent_id":"","id":74284748,"location_subtype":"","month":"2019-05"},{"category":"anti-social-behaviour","location_type":"Force","location":{"latitude":"51.468059","street":{"id":944074,"name":"On or near Bell Road"},"longitude":"-0.366132"},"context":"","outcome_status":null,"persistent_id":"","id":74284749,"location_subtype":"","month":"2019-05"},{"category":"anti-social-behaviour","location_type":"Force","location":{"latitude":"51.468059","street":{"id":944074,"name":"On or near Bell Road"},"longitude":"-0.366132"},"context":"","outcome_status":null,"persistent_id":"","id":74284750,"location_subtype":"","month":"2019-05"},{"category":"anti-social-behaviour","location_type":"Force","location":{"latitude":"51.468059","street":{"id":944074,"name":"On or near Bell Road"},"longitude":"-0.366132"},"context":"","outcome_status":null,"persistent_id":"","id":74284753,"location_subtype":"","month":"2019-05"},{"category":"anti-social-behaviour","location_type":"Force","location":{"latitude":"51.468059","street":{"id":944074,"name":"On or near Bell Road"},"longitude":"-0.366132"},"context":"","outcome_status":null,"persistent_id":"","id":74284751,"location_subtype":"","month":"2019-05"},{"category":"anti-social-behaviour","location_type":"Force","location":{"latitude":"51.468059","street":{"id":944074,"name":"On or near Bell Road"},"longitude":"-0.366132"},"context":"","outcome_status":null,"persistent_id":"","id":74284752,"location_subtype":"","month":"2019-05"},{"category":"anti-social-behaviour","location_type":"Force","location":{"latitude":"51.468059","street":{"id":944074,"name":"On or near Bell Road"},"longitude":"-0.366132"},"context":"","outcome_status":null,"persistent_id":"","id":74284754,"location_subtype":"","month":"2019-05"},{"category":"anti-social-behaviour","location_type":"Force","location":{"latitude":"51.468059","street":{"id":944074,"name":"On or near Bell Road"},"longitude":"-0.366132"},"context":"","outcome_status":null,"persistent_id":"","id":74284755,"location_subtype":"","month":"2019-05"},{"category":"anti-social-behaviour","location_type":"Force","location":{"latitude":"51.468059","street":{"id":944074,"name":"On or near Bell Road"},"longitude":"-0.366132"},"context":"","outcome_status":null,"persistent_id":"","id":74284757,"location_subtype":"","month":"2019-05"},{"category":"anti-social-behaviour","location_type":"Force","location":{"latitude":"51.468059","street":{"id":944074,"name":"On or near Bell Road"},"longitude":"-0.366132"},"context":"","outcome_status":null,"persistent_id":"","id":74284758,"location_subtype":"","month":"2019-05"},{"category":"anti-social-behaviour","location_type":"Force","location":{"latitude":"51.468059","street":{"id":944074,"name":"On or near Bell Road"},"longitude":"-0.366132"},"context":"","outcome_status":null,"persistent_id":"","id":74284759,"location_subtype":"","month":"2019-05"},{"category":"anti-social-behaviour","location_type":"Force","location":{"latitude":"51.466133","street":{"id":944046,"name":"On or near Wareham Close"},"longitude":"-0.367267"},"context":"","outcome_status":null,"persistent_id":"","id":74284765,"location_subtype":"","month":"2019-05"},{"category":"anti-social-behaviour","location_type":"Force","location":{"latitude":"51.473521","street":{"id":944504,"name":"On or near Clovelly Road"},"longitude":"-0.367017"},"context":"","outcome_status":null,"persistent_id":"","id":74284766,"location_subtype":"","month":"2019-05"},{"category":"anti-social-behaviour","location_type":"Force","location":{"latitude":"51.466996","street":{"id":944041,"name":"On or near Parking Area"},"longitude":"-0.367956"},"context":"","outcome_status":null,"persistent_id":"","id":74284767,"location_subtype":"","month":"2019-05"},{"category":"anti-social-behaviour","location_type":"Force","location":{"latitude":"51.466996","street":{"id":944041,"name":"On or near Parking Area"},"longitude":"-0.367956"},"context":"","outcome_status":null,"persistent_id":"","id":74284768,"location_subtype":"","month":"2019-05"},{"category":"anti-social-behaviour","location_type":"Force","location":{"latitude":"51.466996","street":{"id":944041,"name":"On or near Parking Area"},"longitude":"-0.367956"},"context":"","outcome_status":null,"persistent_id":"","id":74284769,"location_subtype":"","month":"2019-05"},{"category":"anti-social-behaviour","location_type":"Force","location":{"latitude":"51.466996","street":{"id":944041,"name":"On or near Parking Area"},"longitude":"-0.367956"},"context":"","outcome_status":null,"persistent_id":"","id":74284770,"location_subtype":"","month":"2019-05"},{"category":"anti-social-behaviour","location_type":"Force","location":{"latitude":"51.466996","street":{"id":944041,"name":"On or near Parking Area"},"longitude":"-0.367956"},"context":"","outcome_status":null,"persistent_id":"","id":74284772,"location_subtype":"","month":"2019-05"},{"category":"anti-social-behaviour","location_type":"Force","location":{"latitude":"51.466996","street":{"id":944041,"name":"On or near Parking Area"},"longitude":"-0.367956"},"context":"","outcome_status":null,"persistent_id":"","id":74284773,"location_subtype":"","month":"2019-05"},{"category":"anti-social-behaviour","location_type":"Force","location":{"latitude":"51.464619","street":{"id":944008,"name":"On or near Hibernia Road"},"longitude":"-0.368976"},"context":"","outcome_status":null,"persistent_id":"","id":74284775,"location_subtype":"","month":"2019-05"},{"category":"anti-social-behaviour","location_type":"Force","location":{"latitude":"51.464619","street":{"id":944008,"name":"On or near Hibernia Road"},"longitude":"-0.368976"},"context":"","outcome_status":null,"persistent_id":"","id":74284776,"location_subtype":"","month":"2019-05"},{"category":"anti-social-behaviour","location_type":"Force","location":{"latitude":"51.480278","street":{"id":944519,"name":"On or near Sutton Road"},"longitude":"-0.368591"},"context":"","outcome_status":null,"persistent_id":"","id":74284777,"location_subtype":"","month":"2019-05"},{"category":"anti-social-behaviour","location_type":"Force","location":{"latitude":"51.464309","street":{"id":944037,"name":"On or near Petrol Station"},"longitude":"-0.381008"},"context":"","outcome_status":null,"persistent_id":"","id":74284841,"location_subtype":"","month":"2019-05"},{"category":"anti-social-behaviour","location_type":"Force","location":{"latitude":"51.464309","street":{"id":944037,"name":"On or near Petrol Station"},"longitude":"-0.381008"},"context":"","outcome_status":null,"persistent_id":"","id":74284842,"location_subtype":"","month":"2019-05"},{"category":"anti-social-behaviour","location_type":"Force","location":{"latitude":"51.464309","street":{"id":944037,"name":"On or near Petrol Station"},"longitude":"-0.381008"},"context":"","outcome_status":null,"persistent_id":"","id":74284843,"location_subtype":"","month":"2019-05"},{"category":"anti-social-behaviour","location_type":"Force","location":{"latitude":"51.484430","street":{"id":951070,"name":"On or near Vicarage Farm Road"},"longitude":"-0.380785"},"context":"","outcome_status":null,"persistent_id":"","id":74284844,"location_subtype":"","month":"2019-05"},{"category":"anti-social-behaviour","location_type":"Force","location":{"latitude":"51.460662","street":{"id":944027,"name":"On or near Berry Court"},"longitude":"-0.381324"},"context":"","outcome_status":null,"persistent_id":"","id":74284846,"location_subtype":"","month":"2019-05"},{"category":"anti-social-behaviour","location_type":"Force","location":{"latitude":"51.460662","street":{"id":944027,"name":"On or near Berry Court"},"longitude":"-0.381324"},"context":"","outcome_status":null,"persistent_id":"","id":74284845,"location_subtype":"","month":"2019-05"},{"category":"anti-social-behaviour","location_type":"Force","location":{"latitude":"51.463548","street":{"id":943997,"name":"On or near Midsummer Avenue"},"longitude":"-0.380646"},"context":"","outcome_status":null,"persistent_id":"","id":74284847,"location_subtype":"","month":"2019-05"},{"category":"anti-social-behaviour","location_type":"Force","location":{"latitude":"51.471036","street":{"id":944469,"name":"On or near Solway Close"},"longitude":"-0.382368"},"context":"","outcome_status":null,"persistent_id":"","id":74287265,"location_subtype":"","month":"2019-05"},{"category":"anti-social-behaviour","location_type":"Force","location":{"latitude":"51.459837","street":{"id":944169,"name":"On or near Blackrurn Way"},"longitude":"-0.382116"},"context":"","outcome_status":null,"persistent_id":"","id":74287268,"location_subtype":"","month":"2019-05"},{"category":"anti-social-behaviour","location_type":"Force","location":{"latitude":"51.459837","street":{"id":944169,"name":"On or near Blackrurn Way"},"longitude":"-0.382116"},"context":"","outcome_status":null,"persistent_id":"","id":74287269,"location_subtype":"","month":"2019-05"},{"category":"anti-social-behaviour","location_type":"Force","location":{"latitude":"51.484778","street":{"id":951109,"name":"On or near St Giles Close"},"longitude":"-0.381882"},"context":"","outcome_status":null,"persistent_id":"","id":74287275,"location_subtype":"","month":"2019-05"},{"category":"anti-social-behaviour","location_type":"Force","location":{"latitude":"51.466771","street":{"id":944163,"name":"On or near Cambridge Road"},"longitude":"-0.382188"},"context":"","outcome_status":null,"persistent_id":"","id":74287273,"location_subtype":"","month":"2019-05"},{"category":"anti-social-behaviour","location_type":"Force","location":{"latitude":"51.459879","street":{"id":944171,"name":"On or near Bennett Close"},"longitude":"-0.382532"},"context":"","outcome_status":null,"persistent_id":"","id":74287274,"location_subtype":"","month":"2019-05"},{"category":"anti-social-behaviour","location_type":"Force","location":{"latitude":"51.463173","street":{"id":944161,"name":"On or near Connaught Avenue"},"longitude":"-0.383452"},"context":"","outcome_status":null,"persistent_id":"","id":74287277,"location_subtype":"","month":"2019-05"},{"category":"anti-social-behaviour","location_type":"Force","location":{"latitude":"51.484778","street":{"id":951109,"name":"On or near St Giles Close"},"longitude":"-0.381882"},"context":"","outcome_status":null,"persistent_id":"","id":74287276,"location_subtype":"","month":"2019-05"},{"category":"anti-social-behaviour","location_type":"Force","location":{"latitude":"51.471533","street":{"id":944473,"name":"On or near Dawn Close"},"longitude":"-0.383863"},"context":"","outcome_status":null,"persistent_id":"","id":74287278,"location_subtype":"","month":"2019-05"},{"category":"anti-social-behaviour","location_type":"Force","location":{"latitude":"51.471533","street":{"id":944473,"name":"On or near Dawn Close"},"longitude":"-0.383863"},"context":"","outcome_status":null,"persistent_id":"","id":74287280,"location_subtype":"","month":"2019-05"},{"category":"anti-social-behaviour","location_type":"Force","location":{"latitude":"51.471533","street":{"id":944473,"name":"On or near Dawn Close"},"longitude":"-0.383863"},"context":"","outcome_status":null,"persistent_id":"","id":74287279,"location_subtype":"","month":"2019-05"},{"category":"anti-social-behaviour","location_type":"Force","location":{"latitude":"51.471533","street":{"id":944473,"name":"On or near Dawn Close"},"longitude":"-0.383863"},"context":"","outcome_status":null,"persistent_id":"","id":74287281,"location_subtype":"","month":"2019-05"},{"category":"anti-social-behaviour","location_type":"Force","location":{"latitude":"51.465796","street":{"id":944164,"name":"On or near Cambridge Close"},"longitude":"-0.383849"},"context":"","outcome_status":null,"persistent_id":"","id":74287282,"location_subtype":"","month":"2019-05"},{"category":"anti-social-behaviour","location_type":"Force","location":{"latitude":"51.482601","street":{"id":944394,"name":"On or near Orchard Avenue"},"longitude":"-0.383082"},"context":"","outcome_status":null,"persistent_id":"","id":74287284,"location_subtype":"","month":"2019-05"},{"category":"anti-social-behaviour","location_type":"Force","location":{"latitude":"51.478572","street":{"id":944383,"name":"On or near Vicarage Farm Road"},"longitude":"-0.383095"},"context":"","outcome_status":null,"persistent_id":"","id":74287283,"location_subtype":"","month":"2019-05"},{"category":"anti-social-behaviour","location_type":"Force","location":{"latitude":"51.478078","street":{"id":944400,"name":"On or near Claypole Drive"},"longitude":"-0.382465"},"context":"","outcome_status":null,"persistent_id":"","id":74287285,"location_subtype":"","month":"2019-05"},{"category":"anti-social-behaviour","location_type":"Force","location":{"latitude":"51.478078","street":{"id":944400,"name":"On or near Claypole Drive"},"longitude":"-0.382465"},"context":"","outcome_status":null,"persistent_id":"","id":74287286,"location_subtype":"","month":"2019-05"},{"category":"anti-social-behaviour","location_type":"Force","location":{"latitude":"51.478078","street":{"id":944400,"name":"On or near Claypole Drive"},"longitude":"-0.382465"},"context":"","outcome_status":null,"persistent_id":"","id":74287287,"location_subtype":"","month":"2019-05"},{"category":"anti-social-behaviour","location_type":"Force","location":{"latitude":"51.460425","street":{"id":944138,"name":"On or near Wraysbury Close"},"longitude":"-0.384298"},"context":"","outcome_status":null,"persistent_id":"","id":74287289,"location_subtype":"","month":"2019-05"},{"category":"anti-social-behaviour","location_type":"Force","location":{"latitude":"51.483589","street":{"id":951113,"name":"On or near Cranford Lane"},"longitude":"-0.384977"},"context":"","outcome_status":null,"persistent_id":"","id":74287290,"location_subtype":"","month":"2019-05"},{"category":"anti-social-behaviour","location_type":"Force","location":{"latitude":"51.469934","street":{"id":944472,"name":"On or near Ferndale Avenue"},"longitude":"-0.383948"},"context":"","outcome_status":null,"persistent_id":"","id":74287291,"location_subtype":"","month":"2019-05"},{"category":"anti-social-behaviour","location_type":"Force","location":{"latitude":"51.464502","street":{"id":944157,"name":"On or near Fir Tree Road"},"longitude":"-0.384572"},"context":"","outcome_status":null,"persistent_id":"","id":74287292,"location_subtype":"","month":"2019-05"},{"category":"anti-social-behaviour","location_type":"Force","location":{"latitude":"51.464502","street":{"id":944157,"name":"On or near Fir Tree Road"},"longitude":"-0.384572"},"context":"","outcome_status":null,"persistent_id":"","id":74287293,"location_subtype":"","month":"2019-05"},{"category":"anti-social-behaviour","location_type":"Force","location":{"latitude":"51.477935","street":{"id":944388,"name":"On or near Shenley Road"},"longitude":"-0.384500"},"context":"","outcome_status":null,"persistent_id":"","id":74287294,"location_subtype":"","month":"2019-05"},{"category":"anti-social-behaviour","location_type":"Force","location":{"latitude":"51.472603","street":{"id":944476,"name":"On or near Bath Road"},"longitude":"-0.385178"},"context":"","outcome_status":null,"persistent_id":"","id":74287297,"location_subtype":"","month":"2019-05"},{"category":"anti-social-behaviour","location_type":"Force","location":{"latitude":"51.472603","street":{"id":944476,"name":"On or near Bath Road"},"longitude":"-0.385178"},"context":"","outcome_status":null,"persistent_id":"","id":74287298,"location_subtype":"","month":"2019-05"},{"category":"anti-social-behaviour","location_type":"Force","location":{"latitude":"51.477935","street":{"id":944388,"name":"On or near Shenley Road"},"longitude":"-0.384500"},"context":"","outcome_status":null,"persistent_id":"","id":74287300,"location_subtype":"","month":"2019-05"},{"category":"anti-social-behaviour","location_type":"Force","location":{"latitude":"51.477935","street":{"id":944388,"name":"On or near Shenley Road"},"longitude":"-0.384500"},"context":"","outcome_status":null,"persistent_id":"","id":74287299,"location_subtype":"","month":"2019-05"},{"category":"anti-social-behaviour","location_type":"Force","location":{"latitude":"51.480445","street":{"id":944385,"name":"On or near St Leonard's Gardens"},"longitude":"-0.385852"},"context":"","outcome_status":null,"persistent_id":"","id":74287304,"location_subtype":"","month":"2019-05"},{"category":"anti-social-behaviour","location_type":"Force","location":{"latitude":"51.480445","street":{"id":944385,"name":"On or near St Leonard's Gardens"},"longitude":"-0.385852"},"context":"","outcome_status":null,"persistent_id":"","id":74287305,"location_subtype":"","month":"2019-05"},{"category":"anti-social-behaviour","location_type":"Force","location":{"latitude":"51.480445","street":{"id":944385,"name":"On or near St Leonard's Gardens"},"longitude":"-0.385852"},"context":"","outcome_status":null,"persistent_id":"","id":74287306,"location_subtype":"","month":"2019-05"},{"category":"anti-social-behaviour","location_type":"Force","location":{"latitude":"51.459247","street":{"id":944170,"name":"On or near Blackburn Way"},"longitude":"-0.382382"},"context":"","outcome_status":null,"persistent_id":"","id":74287313,"location_subtype":"","month":"2019-05"},{"category":"anti-social-behaviour","location_type":"Force","location":{"latitude":"51.459247","street":{"id":944170,"name":"On or near Blackburn Way"},"longitude":"-0.382382"},"context":"","outcome_status":null,"persistent_id":"","id":74287314,"location_subtype":"","month":"2019-05"},{"category":"anti-social-behaviour","location_type":"Force","location":{"latitude":"51.464463","street":{"id":944140,"name":"On or near Tivoli Road"},"longitude":"-0.386358"},"context":"","outcome_status":null,"persistent_id":"","id":74287315,"location_subtype":"","month":"2019-05"},{"category":"anti-social-behaviour","location_type":"Force","location":{"latitude":"51.484981","street":{"id":951114,"name":"On or near Blossom Waye"},"longitude":"-0.386152"},"context":"","outcome_status":null,"persistent_id":"","id":74287316,"location_subtype":"","month":"2019-05"},{"category":"anti-social-behaviour","location_type":"Force","location":{"latitude":"51.474505","street":{"id":944399,"name":"On or near Dalcross Road"},"longitude":"-0.387444"},"context":"","outcome_status":null,"persistent_id":"","id":74287317,"location_subtype":"","month":"2019-05"},{"category":"anti-social-behaviour","location_type":"Force","location":{"latitude":"51.472523","street":{"id":944467,"name":"On or near Vicarage Farm Road"},"longitude":"-0.387226"},"context":"","outcome_status":null,"persistent_id":"","id":74287318,"location_subtype":"","month":"2019-05"},{"category":"anti-social-behaviour","location_type":"Force","location":{"latitude":"51.479272","street":{"id":944382,"name":"On or near Victoria Gardens"},"longitude":"-0.386887"},"context":"","outcome_status":null,"persistent_id":"","id":74287320,"location_subtype":"","month":"2019-05"},{"category":"anti-social-behaviour","location_type":"Force","location":{"latitude":"51.473476","street":{"id":944407,"name":"On or near Bath Road"},"longitude":"-0.387811"},"context":"","outcome_status":null,"persistent_id":"","id":74287321,"location_subtype":"","month":"2019-05"},{"category":"anti-social-behaviour","location_type":"Force","location":{"latitude":"51.473476","street":{"id":944407,"name":"On or near Bath Road"},"longitude":"-0.387811"},"context":"","outcome_status":null,"persistent_id":"","id":74287322,"location_subtype":"","month":"2019-05"},{"category":"anti-social-behaviour","location_type":"Force","location":{"latitude":"51.462905","street":{"id":944136,"name":"On or near Parking Area"},"longitude":"-0.387435"},"context":"","outcome_status":null,"persistent_id":"","id":74287323,"location_subtype":"","month":"2019-05"},{"category":"anti-social-behaviour","location_type":"Force","location":{"latitude":"51.466996","street":{"id":944041,"name":"On or near Parking Area"},"longitude":"-0.367956"},"context":"","outcome_status":null,"persistent_id":"","id":74284771,"location_subtype":"","month":"2019-05"},{"category":"anti-social-behaviour","location_type":"Force","location":{"latitude":"51.481266","street":{"id":944529,"name":"On or near Old Park Mews"},"longitude":"-0.374978"},"context":"","outcome_status":null,"persistent_id":"","id":74284802,"location_subtype":"","month":"2019-05"},{"category":"anti-social-behaviour","location_type":"Force","location":{"latitude":"51.475029","street":{"id":944425,"name":"On or near Hurn Court Road"},"longitude":"-0.390248"},"context":"","outcome_status":null,"persistent_id":"","id":74287326,"location_subtype":"","month":"2019-05"},{"category":"anti-social-behaviour","location_type":"Force","location":{"latitude":"51.475075","street":{"id":944492,"name":"On or near Lampton Road"},"longitude":"-0.364960"},"context":"","outcome_status":null,"persistent_id":"","id":74284728,"location_subtype":"","month":"2019-05"},{"category":"anti-social-behaviour","location_type":"Force","location":{"latitude":"51.469914","street":{"id":944565,"name":"On or near Montague Road"},"longitude":"-0.365058"},"context":"","outcome_status":null,"persistent_id":"","id":74284729,"location_subtype":"","month":"2019-05"},{"category":"anti-social-behaviour","location_type":"Force","location":{"latitude":"51.472281","street":{"id":944568,"name":"On or near Lampton Park Road"},"longitude":"-0.365147"},"context":"","outcome_status":null,"persistent_id":"","id":74284730,"location_subtype":"","month":"2019-05"},{"category":"anti-social-behaviour","location_type":"Force","location":{"latitude":"51.472281","street":{"id":944568,"name":"On or near Lampton Park Road"},"longitude":"-0.365147"},"context":"","outcome_status":null,"persistent_id":"","id":74284731,"location_subtype":"","month":"2019-05"},{"category":"anti-social-behaviour","location_type":"Force","location":{"latitude":"51.478702","street":{"id":944502,"name":"On or near Great West Road"},"longitude":"-0.365234"},"context":"","outcome_status":null,"persistent_id":"","id":74284733,"location_subtype":"","month":"2019-05"},{"category":"anti-social-behaviour","location_type":"Force","location":{"latitude":"51.478702","street":{"id":944502,"name":"On or near Great West Road"},"longitude":"-0.365234"},"context":"","outcome_status":null,"persistent_id":"","id":74284734,"location_subtype":"","month":"2019-05"},{"category":"anti-social-behaviour","location_type":"Force","location":{"latitude":"51.475075","street":{"id":944492,"name":"On or near Lampton Road"},"longitude":"-0.364960"},"context":"","outcome_status":null,"persistent_id":"","id":74284735,"location_subtype":"","month":"2019-05"},{"category":"anti-social-behaviour","location_type":"Force","location":{"latitude":"51.475075","street":{"id":944492,"name":"On or near Lampton Road"},"longitude":"-0.364960"},"context":"","outcome_status":null,"persistent_id":"","id":74284736,"location_subtype":"","month":"2019-05"},{"category":"anti-social-behaviour","location_type":"Force","location":{"latitude":"51.468059","street":{"id":944074,"name":"On or near Bell Road"},"longitude":"-0.366132"},"context":"","outcome_status":null,"persistent_id":"","id":74284738,"location_subtype":"","month":"2019-05"},{"category":"anti-social-behaviour","location_type":"Force","location":{"latitude":"51.468059","street":{"id":944074,"name":"On or near Bell Road"},"longitude":"-0.366132"},"context":"","outcome_status":null,"persistent_id":"","id":74284737,"location_subtype":"","month":"2019-05"},{"category":"anti-social-behaviour","location_type":"Force","location":{"latitude":"51.468059","street":{"id":944074,"name":"On or near Bell Road"},"longitude":"-0.366132"},"context":"","outcome_status":null,"persistent_id":"","id":74284739,"location_subtype":"","month":"2019-05"},{"category":"anti-social-behaviour","location_type":"Force","location":{"latitude":"51.468059","street":{"id":944074,"name":"On or near Bell Road"},"longitude":"-0.366132"},"context":"","outcome_status":null,"persistent_id":"","id":74284740,"location_subtype":"","month":"2019-05"},{"category":"anti-social-behaviour","location_type":"Force","location":{"latitude":"51.468059","street":{"id":944074,"name":"On or near Bell Road"},"longitude":"-0.366132"},"context":"","outcome_status":null,"persistent_id":"","id":74284741,"location_subtype":"","month":"2019-05"},{"category":"anti-social-behaviour","location_type":"Force","location":{"latitude":"51.468059","street":{"id":944074,"name":"On or near Bell Road"},"longitude":"-0.366132"},"context":"","outcome_status":null,"persistent_id":"","id":74284742,"location_subtype":"","month":"2019-05"},{"category":"anti-social-behaviour","location_type":"Force","location":{"latitude":"51.468059","street":{"id":944074,"name":"On or near Bell Road"},"longitude":"-0.366132"},"context":"","outcome_status":null,"persistent_id":"","id":74284743,"location_subtype":"","month":"2019-05"},{"category":"anti-social-behaviour","location_type":"Force","location":{"latitude":"51.468059","street":{"id":944074,"name":"On or near Bell Road"},"longitude":"-0.366132"},"context":"","outcome_status":null,"persistent_id":"","id":74284744,"location_subtype":"","month":"2019-05"},{"category":"anti-social-behaviour","location_type":"Force","location":{"latitude":"51.468059","street":{"id":944074,"name":"On or near Bell Road"},"longitude":"-0.366132"},"context":"","outcome_status":null,"persistent_id":"","id":74284745,"location_subtype":"","month":"2019-05"},{"category":"anti-social-behaviour","location_type":"Force","location":{"latitude":"51.468059","street":{"id":944074,"name":"On or near Bell Road"},"longitude":"-0.366132"},"context":"","outcome_status":null,"persistent_id":"","id":74284746,"location_subtype":"","month":"2019-05"},{"category":"anti-social-behaviour","location_type":"Force","location":{"latitude":"51.475216","street":{"id":944503,"name":"On or near Elmsworth Avenue"},"longitude":"-0.363501"},"context":"","outcome_status":null,"persistent_id":"","id":74284717,"location_subtype":"","month":"2019-05"},{"category":"anti-social-behaviour","location_type":"Force","location":{"latitude":"51.476574","street":{"id":944498,"name":"On or near Highlands Close"},"longitude":"-0.363467"},"context":"","outcome_status":null,"persistent_id":"","id":74284719,"location_subtype":"","month":"2019-05"},{"category":"anti-social-behaviour","location_type":"Force","location":{"latitude":"51.469113","street":{"id":944082,"name":"On or near Police Station"},"longitude":"-0.364338"},"context":"","outcome_status":null,"persistent_id":"","id":74284721,"location_subtype":"","month":"2019-05"},{"category":"anti-social-behaviour","location_type":"Force","location":{"latitude":"51.469113","street":{"id":944082,"name":"On or near Police Station"},"longitude":"-0.364338"},"context":"","outcome_status":null,"persistent_id":"","id":74284724,"location_subtype":"","month":"2019-05"},{"category":"anti-social-behaviour","location_type":"Force","location":{"latitude":"51.476067","street":{"id":944505,"name":"On or near Brookwood Road"},"longitude":"-0.363254"},"context":"","outcome_status":null,"persistent_id":"","id":74284725,"location_subtype":"","month":"2019-05"},{"category":"anti-social-behaviour","location_type":"Force","location":{"latitude":"51.476067","street":{"id":944505,"name":"On or near Brookwood Road"},"longitude":"-0.363254"},"context":"","outcome_status":null,"persistent_id":"","id":74284726,"location_subtype":"","month":"2019-05"},{"category":"anti-social-behaviour","location_type":"Force","location":{"latitude":"51.481086","street":{"id":944517,"name":"On or near The Crossways"},"longitude":"-0.377577"},"context":"","outcome_status":null,"persistent_id":"","id":74284834,"location_subtype":"","month":"2019-05"},{"category":"anti-social-behaviour","location_type":"Force","location":{"latitude":"51.470948","street":{"id":944474,"name":"On or near Dale Avenue"},"longitude":"-0.383854"},"context":"","outcome_status":null,"persistent_id":"","id":74287288,"location_subtype":"","month":"2019-05"},{"category":"anti-social-behaviour","location_type":"Force","location":{"latitude":"51.459247","street":{"id":944170,"name":"On or near Blackburn Way"},"longitude":"-0.382382"},"context":"","outcome_status":null,"persistent_id":"","id":74287312,"location_subtype":"","month":"2019-05"},{"category":"anti-social-behaviour","location_type":"Force","location":{"latitude":"51.464171","street":{"id":944128,"name":"On or near Cardington Square"},"longitude":"-0.389967"},"context":"","outcome_status":null,"persistent_id":"","id":74287333,"location_subtype":"","month":"2019-05"},{"category":"anti-social-behaviour","location_type":"Force","location":{"latitude":"51.481965","street":{"id":944419,"name":"On or near Norman Crescent"},"longitude":"-0.393085"},"context":"","outcome_status":null,"persistent_id":"","id":74287352,"location_subtype":"","month":"2019-05"},{"category":"anti-social-behaviour","location_type":"Force","location":{"latitude":"51.466457","street":{"id":944120,"name":"On or near The Greenway"},"longitude":"-0.378989"},"context":"","outcome_status":null,"persistent_id":"","id":74284827,"location_subtype":"","month":"2019-05"},{"category":"anti-social-behaviour","location_type":"Force","location":{"latitude":"51.485438","street":{"id":951074,"name":"On or near Memorial Close"},"longitude":"-0.377581"},"context":"","outcome_status":null,"persistent_id":"","id":74284828,"location_subtype":"","month":"2019-05"},{"category":"anti-social-behaviour","location_type":"Force","location":{"latitude":"51.460177","street":{"id":944012,"name":"On or near Garrison Close"},"longitude":"-0.378765"},"context":"","outcome_status":null,"persistent_id":"","id":74284829,"location_subtype":"","month":"2019-05"},{"category":"anti-social-behaviour","location_type":"Force","location":{"latitude":"51.481086","street":{"id":944517,"name":"On or near The Crossways"},"longitude":"-0.377577"},"context":"","outcome_status":null,"persistent_id":"","id":74284833,"location_subtype":"","month":"2019-05"},{"category":"anti-social-behaviour","location_type":"Force","location":{"latitude":"51.481086","street":{"id":944517,"name":"On or near The Crossways"},"longitude":"-0.377577"},"context":"","outcome_status":null,"persistent_id":"","id":74284835,"location_subtype":"","month":"2019-05"},{"category":"anti-social-behaviour","location_type":"Force","location":{"latitude":"51.476696","street":{"id":944537,"name":"On or near Great West Road"},"longitude":"-0.380080"},"context":"","outcome_status":null,"persistent_id":"","id":74284836,"location_subtype":"","month":"2019-05"},{"category":"anti-social-behaviour","location_type":"Force","location":{"latitude":"51.468059","street":{"id":944074,"name":"On or near Bell Road"},"longitude":"-0.366132"},"context":"","outcome_status":null,"persistent_id":"","id":74284756,"location_subtype":"","month":"2019-05"},{"category":"anti-social-behaviour","location_type":"Force","location":{"latitude":"51.476696","street":{"id":944537,"name":"On or near Great West Road"},"longitude":"-0.380080"},"context":"","outcome_status":null,"persistent_id":"","id":74284837,"location_subtype":"","month":"2019-05"},{"category":"anti-social-behaviour","location_type":"Force","location":{"latitude":"51.470291","street":{"id":944549,"name":"On or near Maitland Close"},"longitude":"-0.379904"},"context":"","outcome_status":null,"persistent_id":"","id":74284838,"location_subtype":"","month":"2019-05"},{"category":"anti-social-behaviour","location_type":"Force","location":{"latitude":"51.467909","street":{"id":944022,"name":"On or near Clare Road"},"longitude":"-0.381212"},"context":"","outcome_status":null,"persistent_id":"","id":74284839,"location_subtype":"","month":"2019-05"},{"category":"anti-social-behaviour","location_type":"Force","location":{"latitude":"51.469661","street":{"id":944552,"name":"On or near Clipstone Road"},"longitude":"-0.370755"},"context":"","outcome_status":null,"persistent_id":"","id":74284786,"location_subtype":"","month":"2019-05"},{"category":"anti-social-behaviour","location_type":"Force","location":{"latitude":"51.465858","street":{"id":944014,"name":"On or near Estridge Close"},"longitude":"-0.372085"},"context":"","outcome_status":null,"persistent_id":"","id":74284787,"location_subtype":"","month":"2019-05"},{"category":"anti-social-behaviour","location_type":"Force","location":{"latitude":"51.465858","street":{"id":944014,"name":"On or near Estridge Close"},"longitude":"-0.372085"},"context":"","outcome_status":null,"persistent_id":"","id":74284788,"location_subtype":"","month":"2019-05"},{"category":"anti-social-behaviour","location_type":"Force","location":{"latitude":"51.477656","street":{"id":944534,"name":"On or near Harris Close"},"longitude":"-0.372126"},"context":"","outcome_status":null,"persistent_id":"","id":74284789,"location_subtype":"","month":"2019-05"},{"category":"anti-social-behaviour","location_type":"Force","location":{"latitude":"51.465423","street":{"id":944029,"name":"On or near Benson Close"},"longitude":"-0.373151"},"context":"","outcome_status":null,"persistent_id":"","id":74284790,"location_subtype":"","month":"2019-05"},{"category":"anti-social-behaviour","location_type":"Force","location":{"latitude":"51.465423","street":{"id":944029,"name":"On or near Benson Close"},"longitude":"-0.373151"},"context":"","outcome_status":null,"persistent_id":"","id":74284791,"location_subtype":"","month":"2019-05"},{"category":"bicycle-theft","location_type":"Force","location":{"latitude":"51.471725","street":{"id":944548,"name":"On or near Sutton Lane"},"longitude":"-0.378240"},"context":"","outcome_status":{"category":"Status update unavailable","date":"2019-09"},"persistent_id":"2122d69727396862cc4048d89a1eef814d68217e3d72241ca9288093c429f1e3","id":74362148,"location_subtype":"","month":"2019-05"},{"category":"bicycle-theft","location_type":"Force","location":{"latitude":"51.484936","street":{"id":951075,"name":"On or near Heston Road"},"longitude":"-0.373120"},"context":"","outcome_status":{"category":"Status update unavailable","date":"2019-09"},"persistent_id":"71c95203eae3890ea902eaac567fcf7f70c1b58ac9d0276515dece9bb58f8c00","id":74313394,"location_subtype":"","month":"2019-05"},{"category":"bicycle-theft","location_type":"Force","location":{"latitude":"51.473043","street":{"id":944446,"name":"On or near Raccoon Way"},"longitude":"-0.398856"},"context":"","outcome_status":{"category":"Status update unavailable","date":"2019-09"},"persistent_id":"de8172431fbe804325e83bbb5408b2f07a87f3a897a90c302a47574f60cb284c","id":74318821,"location_subtype":"","month":"2019-05"},{"category":"bicycle-theft","location_type":"Force","location":{"latitude":"51.467764","street":{"id":944006,"name":"On or near Hospital Road"},"longitude":"-0.371412"},"context":"","outcome_status":{"category":"Status update unavailable","date":"2019-09"},"persistent_id":"fab89069d3a50809ee833140bfce8818f295c396f8296d0e72295d8e855d0d76","id":74311626,"location_subtype":"","month":"2019-05"},{"category":"bicycle-theft","location_type":"Force","location":{"latitude":"51.476089","street":{"id":944439,"name":"On or near Petrol Station"},"longitude":"-0.396057"},"context":"","outcome_status":{"category":"Status update unavailable","date":"2019-09"},"persistent_id":"ffd0262fa98e1998f6c5ab059a7c8c8b12a1358b496e4ecc459268b95140d042","id":74337798,"location_subtype":"","month":"2019-05"},{"category":"bicycle-theft","location_type":"Force","location":{"latitude":"51.468444","street":{"id":943983,"name":"On or near Strafford Road"},"longitude":"-0.376370"},"context":"","outcome_status":{"category":"Investigation complete; no suspect identified","date":"2020-03"},"persistent_id":"3663bd19a13b0478d76954c47c688d41e94d9b7f77e05b1e66b7a26908cbd37c","id":74302730,"location_subtype":"","month":"2019-05"},{"category":"burglary","location_type":"Force","location":{"latitude":"51.476301","street":{"id":944328,"name":"On or near Westwick Gardens"},"longitude":"-0.406331"},"context":"","outcome_status":{"category":"Status update unavailable","date":"2019-09"},"persistent_id":"6d369a5c5a34fe489214556572ccd9ba90b7483485604964091511a00586ed40","id":74352982,"location_subtype":"","month":"2019-05"},{"category":"burglary","location_type":"Force","location":{"latitude":"51.481372","street":{"id":944521,"name":"On or near Sutton Hall Road"},"longitude":"-0.371619"},"context":"","outcome_status":{"category":"Status update unavailable","date":"2019-09"},"persistent_id":"876fe8425e151ad8eaa9c9fd7c4354a592ccffe019b54014b555c2e940e99468","id":74340847,"location_subtype":"","month":"2019-05"},{"category":"burglary","location_type":"Force","location":{"latitude":"51.485022","street":{"id":951115,"name":"On or near Berkeley Waye"},"longitude":"-0.388455"},"context":"","outcome_status":{"category":"Status update unavailable","date":"2019-09"},"persistent_id":"5e34c21a7bbee65b04fbf9225e62c57260434a2bbd9516151158a109dab5e7e6","id":74294732,"location_subtype":"","month":"2019-05"},{"category":"burglary","location_type":"Force","location":{"latitude":"51.480591","street":{"id":944500,"name":"On or near Guernsey Close"},"longitude":"-0.367197"},"context":"","outcome_status":{"category":"Status update unavailable","date":"2019-09"},"persistent_id":"d376d61d5cc5436450a2f763a2383cda343d011de25a547daaf0f33a8297f423","id":74318024,"location_subtype":"","month":"2019-05"},{"category":"burglary","location_type":"Force","location":{"latitude":"51.481086","street":{"id":944517,"name":"On or near The Crossways"},"longitude":"-0.377577"},"context":"","outcome_status":{"category":"Status update unavailable","date":"2019-09"},"persistent_id":"5a3652e99177d8a2431402a297895f2e64b0e09265c304c4af3a8dcb839521bb","id":74298148,"location_subtype":"","month":"2019-05"},{"category":"burglary","location_type":"Force","location":{"latitude":"51.475220","street":{"id":944396,"name":"On or near John Street"},"longitude":"-0.383257"},"context":"","outcome_status":{"category":"Court result unavailable","date":"2020-06"},"persistent_id":"88d683826eaba3c9980407e9ef4bcf0e3a6164db6c5cf358f6c1b2074c0377d5","id":74341317,"location_subtype":"","month":"2019-05"},{"category":"burglary","location_type":"Force","location":{"latitude":"51.464619","street":{"id":944008,"name":"On or near Hibernia Road"},"longitude":"-0.368976"},"context":"","outcome_status":{"category":"Status update unavailable","date":"2019-09"},"persistent_id":"76d5610e2cb1ac9457cb4fc332091f91a2073bfc369fddee1a4e38642fa2b456","id":74352800,"location_subtype":"","month":"2019-05"},{"category":"burglary","location_type":"Force","location":{"latitude":"51.464502","street":{"id":944157,"name":"On or near Fir Tree Road"},"longitude":"-0.384572"},"context":"","outcome_status":{"category":"Status update unavailable","date":"2019-09"},"persistent_id":"d89231409da09b0db4ba38f7180d47a1fb40b42aab9571b91a5b0e54ab7c3e52","id":74357405,"location_subtype":"","month":"2019-05"},{"category":"burglary","location_type":"Force","location":{"latitude":"51.472805","street":{"id":944375,"name":"On or near Great South-west Road"},"longitude":"-0.403227"},"context":"","outcome_status":{"category":"Status update unavailable","date":"2019-09"},"persistent_id":"2a9eab335c25769bd72fc8f3a7613ab7d7efa70c32371fa21274837d76a539ee","id":74314652,"location_subtype":"","month":"2019-05"},{"category":"burglary","location_type":"Force","location":{"latitude":"51.481965","street":{"id":944419,"name":"On or near Norman Crescent"},"longitude":"-0.393085"},"context":"","outcome_status":{"category":"Status update unavailable","date":"2019-09"},"persistent_id":"7a209ef330f656fbc8ece28ef9ead041175c08c427bf400d432e120f0dd4ebbd","id":74331884,"location_subtype":"","month":"2019-05"},{"category":"burglary","location_type":"Force","location":{"latitude":"51.464463","street":{"id":944140,"name":"On or near Tivoli Road"},"longitude":"-0.386358"},"context":"","outcome_status":{"category":"Status update unavailable","date":"2019-09"},"persistent_id":"00f2a8b64c09be072e799681f45860f936a614a61a98cb07074226dfb22aa975","id":74337540,"location_subtype":"","month":"2019-05"},{"category":"burglary","location_type":"Force","location":{"latitude":"51.477656","street":{"id":944534,"name":"On or near Harris Close"},"longitude":"-0.372126"},"context":"","outcome_status":{"category":"Offender given penalty notice","date":"2019-08"},"persistent_id":"24e65d51db95ca05a7dba56a0cb6ea0952405d4ecfab658e6df806ed91646da4","id":74304119,"location_subtype":"","month":"2019-05"},{"category":"burglary","location_type":"Force","location":{"latitude":"51.485033","street":{"id":951110,"name":"On or near Somerset Waye"},"longitude":"-0.387288"},"context":"","outcome_status":{"category":"Status update unavailable","date":"2019-09"},"persistent_id":"45e6fbffd7dbabd3f874478d5440138f4d0f76533a2b478518c086f8e3b3aba4","id":74329829,"location_subtype":"","month":"2019-05"},{"category":"burglary","location_type":"Force","location":{"latitude":"51.465159","street":{"id":944052,"name":"On or near Perkin Close"},"longitude":"-0.367129"},"context":"","outcome_status":{"category":"Status update unavailable","date":"2019-09"},"persistent_id":"653b009454272096d20c19a61ef1587c67dfa9240730cc3553f65758413e9226","id":74333669,"location_subtype":"","month":"2019-05"},{"category":"burglary","location_type":"Force","location":{"latitude":"51.473895","street":{"id":944533,"name":"On or near Harte Road"},"longitude":"-0.375183"},"context":"","outcome_status":{"category":"Investigation complete; no suspect identified","date":"2020-10"},"persistent_id":"846b35e3aa4536216190c22b431f5fcfa72d6ba82ce0a4c44046b02734fd8d6f","id":74359171,"location_subtype":"","month":"2019-05"},{"category":"burglary","location_type":"Force","location":{"latitude":"51.475527","street":{"id":944348,"name":"On or near Aston Green"},"longitude":"-0.403003"},"context":"","outcome_status":{"category":"Status update unavailable","date":"2019-09"},"persistent_id":"804d6246d6b9b05d75af8f1d9af1b2442cf128d8580a5529fbbcb044cc42ba0d","id":74323402,"location_subtype":"","month":"2019-05"},{"category":"burglary","location_type":"Force","location":{"latitude":"51.481372","street":{"id":944521,"name":"On or near Sutton Hall Road"},"longitude":"-0.371619"},"context":"","outcome_status":{"category":"Status update unavailable","date":"2019-09"},"persistent_id":"1399618b5c314979bf195f91272f863f635b4bcd1a239fe29f711739d8267670","id":74342069,"location_subtype":"","month":"2019-05"},{"category":"criminal-damage-arson","location_type":"Force","location":{"latitude":"51.463665","street":{"id":943999,"name":"On or near Marryat Close"},"longitude":"-0.375402"},"context":"","outcome_status":{"category":"Status update unavailable","date":"2019-09"},"persistent_id":"b2df80b1ca5ddd96e2232d4ce4ce5aff27889bc549098b48c78c6b044369a2df","id":74290989,"location_subtype":"","month":"2019-05"},{"category":"criminal-damage-arson","location_type":"Force","location":{"latitude":"51.463676","street":{"id":943995,"name":"On or near Nicholes Road"},"longitude":"-0.371673"},"context":"","outcome_status":{"category":"Status update unavailable","date":"2019-09"},"persistent_id":"883e4d095cff1dd3ffd620e0f88373df4a15c60cf9f67f5c89a6d52073808188","id":74341828,"location_subtype":"","month":"2019-05"},{"category":"criminal-damage-arson","location_type":"Force","location":{"latitude":"51.474900","street":{"id":944538,"name":"On or near George Street"},"longitude":"-0.377609"},"context":"","outcome_status":{"category":"Status update unavailable","date":"2019-09"},"persistent_id":"d5ef9eec2a1a3058a3f770e2c6c48fbccc8e9185865fce7cf7695ecac96a9ada","id":74339542,"location_subtype":"","month":"2019-05"},{"category":"criminal-damage-arson","location_type":"Force","location":{"latitude":"51.470757","street":{"id":944564,"name":"On or near Queen's Road"},"longitude":"-0.366180"},"context":"","outcome_status":{"category":"Status update unavailable","date":"2019-09"},"persistent_id":"39d52e1f4ee6484606672392c3f0512de4b9581579f3352f896b89b16e31e127","id":74370341,"location_subtype":"","month":"2019-05"},{"category":"criminal-damage-arson","location_type":"Force","location":{"latitude":"51.466844","street":{"id":943994,"name":"On or near Old Farm Close"},"longitude":"-0.377679"},"context":"","outcome_status":{"category":"Status update unavailable","date":"2019-09"},"persistent_id":"97e3f7ef981cbcff5f6f5cbcb3584b4fc14b6017232b5b05b170da15742ecad0","id":74365039,"location_subtype":"","month":"2019-05"},{"category":"criminal-damage-arson","location_type":"Force","location":{"latitude":"51.470265","street":{"id":944461,"name":"On or near Beavers Lane"},"longitude":"-0.399587"},"context":"","outcome_status":{"category":"Status update unavailable","date":"2019-09"},"persistent_id":"4a0da864a7d533c1fb4fe75688218f9c859644d09dbc230f7716ef334661e535","id":74324616,"location_subtype":"","month":"2019-05"},{"category":"criminal-damage-arson","location_type":"Force","location":{"latitude":"51.485438","street":{"id":951074,"name":"On or near Memorial Close"},"longitude":"-0.377581"},"context":"","outcome_status":{"category":"Status update unavailable","date":"2019-09"},"persistent_id":"b3876bb5306dda603d1ed7178235b52c056235dc8ce8161301b2065c7cc939a4","id":74341393,"location_subtype":"","month":"2019-05"},{"category":"criminal-damage-arson","location_type":"Force","location":{"latitude":"51.475985","street":{"id":944531,"name":"On or near Kingswood Avenue"},"longitude":"-0.380638"},"context":"","outcome_status":{"category":"Status update unavailable","date":"2019-09"},"persistent_id":"696cb0549443160b27feaf6d0f2ce70ad50737bb86db1b3b16cc3031bd6dfb95","id":74341361,"location_subtype":"","month":"2019-05"},{"category":"criminal-damage-arson","location_type":"Force","location":{"latitude":"51.471346","street":{"id":944451,"name":"On or near Marmot Road"},"longitude":"-0.395820"},"context":"","outcome_status":{"category":"Status update unavailable","date":"2019-09"},"persistent_id":"493c5119742462e33e28bd0de46105e529459b0202cff90fa06f5b81f623232f","id":74351728,"location_subtype":"","month":"2019-05"},{"category":"criminal-damage-arson","location_type":"Force","location":{"latitude":"51.469015","street":{"id":944141,"name":"On or near Standard Road"},"longitude":"-0.381864"},"context":"","outcome_status":{"category":"Investigation complete; no suspect identified","date":"2020-03"},"persistent_id":"96be8093ed6c5b6fb3418fa525070311382d9901d3ace266c39b581e0f4954ff","id":74341488,"location_subtype":"","month":"2019-05"},{"category":"criminal-damage-arson","location_type":"Force","location":{"latitude":"51.468375","street":{"id":944076,"name":"On or near Bath Road"},"longitude":"-0.368151"},"context":"","outcome_status":{"category":"Court result unavailable","date":"2020-01"},"persistent_id":"1860ee27027bead02b0bcbc46f32d8a225cb4e8cfd9b0456a89ec65e9ca3da1e","id":74342775,"location_subtype":"","month":"2019-05"},{"category":"criminal-damage-arson","location_type":"Force","location":{"latitude":"51.466996","street":{"id":944041,"name":"On or near Parking Area"},"longitude":"-0.367956"},"context":"","outcome_status":{"category":"Investigation complete; no suspect identified","date":"2020-03"},"persistent_id":"d7926553a319a70a7653572dde10fb5616199cfc68cf01550f70bdbb7953a0d6","id":74334292,"location_subtype":"","month":"2019-05"},{"category":"criminal-damage-arson","location_type":"Force","location":{"latitude":"51.476760","street":{"id":944340,"name":"On or near Field Close"},"longitude":"-0.405710"},"context":"","outcome_status":{"category":"Status update unavailable","date":"2019-09"},"persistent_id":"24d642b133bd7913c258396451914565251e8a75f56fa86a5980b1fedeca8a37","id":74336174,"location_subtype":"","month":"2019-05"},{"category":"criminal-damage-arson","location_type":"Force","location":{"latitude":"51.463173","street":{"id":944161,"name":"On or near Connaught Avenue"},"longitude":"-0.383452"},"context":"","outcome_status":{"category":"Offender given a caution","date":"2019-05"},"persistent_id":"5c0ba1a4ff9862b2af7e16882a6d12f248224336672af35549033216a6095e35","id":74342760,"location_subtype":"","month":"2019-05"},{"category":"criminal-damage-arson","location_type":"Force","location":{"latitude":"51.472523","street":{"id":944467,"name":"On or near Vicarage Farm Road"},"longitude":"-0.387226"},"context":"","outcome_status":{"category":"Investigation complete; no suspect identified","date":"2020-03"},"persistent_id":"abc43caa502c89ad385910c90e6844bc7dee5eeb03ddc927882c123c1b1b8145","id":74301270,"location_subtype":"","month":"2019-05"},{"category":"criminal-damage-arson","location_type":"Force","location":{"latitude":"51.485115","street":{"id":951080,"name":"On or near Banksyard"},"longitude":"-0.378889"},"context":"","outcome_status":{"category":"Status update unavailable","date":"2019-09"},"persistent_id":"338eb8ca9bd37515992b32b9b09fb67cd8a36504c2b66f303e484b438f7ec1bc","id":74327290,"location_subtype":"","month":"2019-05"},{"category":"criminal-damage-arson","location_type":"Force","location":{"latitude":"51.469113","street":{"id":944082,"name":"On or near Police Station"},"longitude":"-0.364338"},"context":"","outcome_status":{"category":"Offender fined","date":"2019-05"},"persistent_id":"715c367bae83fe5a48135ed5008e9f2eaebdbd9e8770b6cd419c63664b8d80fb","id":74329151,"location_subtype":"","month":"2019-05"},{"category":"criminal-damage-arson","location_type":"Force","location":{"latitude":"51.485115","street":{"id":951080,"name":"On or near Banksyard"},"longitude":"-0.378889"},"context":"","outcome_status":{"category":"Status update unavailable","date":"2019-09"},"persistent_id":"7bd3c021455753a626cbb211d8ffb53aa984bddd1b0a4e52f569508526ae3e8b","id":74358264,"location_subtype":"","month":"2019-05"},{"category":"criminal-damage-arson","location_type":"Force","location":{"latitude":"51.475634","street":{"id":944398,"name":"On or near Elmdon Road"},"longitude":"-0.388441"},"context":"","outcome_status":{"category":"Investigation complete; no suspect identified","date":"2020-03"},"persistent_id":"b361d7526d166ae930597e3cf57756052172342f9207aceda47eecdb12f63c29","id":74343606,"location_subtype":"","month":"2019-05"},{"category":"criminal-damage-arson","location_type":"Force","location":{"latitude":"51.474774","street":{"id":944541,"name":"On or near Charles Street"},"longitude":"-0.380911"},"context":"","outcome_status":{"category":"Status update unavailable","date":"2019-09"},"persistent_id":"03279cc3b4d5883671adecaf2bd5f8604a5ed58f14db1c5c978cebcd0e2490ea","id":74304688,"location_subtype":"","month":"2019-05"},{"category":"criminal-damage-arson","location_type":"Force","location":{"latitude":"51.477783","street":{"id":944409,"name":"On or near Adelaide Road"},"longitude":"-0.387818"},"context":"","outcome_status":{"category":"Status update unavailable","date":"2019-09"},"persistent_id":"c854b601379acb31a577e86ea74a368faa66fa981e8163ca975cf9f6f8adea93","id":74346913,"location_subtype":"","month":"2019-05"},{"category":"criminal-damage-arson","location_type":"Force","location":{"latitude":"51.463910","street":{"id":944026,"name":"On or near Beverley Avenue"},"longitude":"-0.378172"},"context":"","outcome_status":{"category":"Investigation complete; no suspect identified","date":"2020-03"},"persistent_id":"90515e15a5f08ff4bac69aea22ec1cab4b32c49a414e394abbe162dbb602a868","id":74331366,"location_subtype":"","month":"2019-05"},{"category":"criminal-damage-arson","location_type":"Force","location":{"latitude":"51.474993","street":{"id":923555,"name":"On or near Petrol Station"},"longitude":"-0.392207"},"context":"","outcome_status":{"category":"Status update unavailable","date":"2019-09"},"persistent_id":"b0e6cbeed4b57148bed1517cc094673bab3316fb031cc18514e813a8a3969df3","id":74358313,"location_subtype":"","month":"2019-05"},{"category":"criminal-damage-arson","location_type":"Force","location":{"latitude":"51.474598","street":{"id":944390,"name":"On or near Rosary Close"},"longitude":"-0.385065"},"context":"","outcome_status":{"category":"Court result unavailable","date":"2019-11"},"persistent_id":"fd0b5de5123d8618cc60f85f538710be0ea5cdf73f674c296a71786201c1db0a","id":74355938,"location_subtype":"","month":"2019-05"},{"category":"criminal-damage-arson","location_type":"Force","location":{"latitude":"51.474993","street":{"id":923555,"name":"On or near Petrol Station"},"longitude":"-0.392207"},"context":"","outcome_status":{"category":"Status update unavailable","date":"2019-09"},"persistent_id":"a6d919eb9ef1d0834b8120366c54dd26e3efd083c6c71c25673cfaf7fcd3d267","id":74353280,"location_subtype":"","month":"2019-05"},{"category":"criminal-damage-arson","location_type":"Force","location":{"latitude":"51.470331","street":{"id":944374,"name":"On or near Warwick Road"},"longitude":"-0.404422"},"context":"","outcome_status":{"category":"Status update unavailable","date":"2019-09"},"persistent_id":"69641bc96624c5d457214cb7873ed1e031f8b2540dc9fe740c57212849518d73","id":74314283,"location_subtype":"","month":"2019-05"},{"category":"criminal-damage-arson","location_type":"Force","location":{"latitude":"51.467764","street":{"id":944006,"name":"On or near Hospital Road"},"longitude":"-0.371412"},"context":"","outcome_status":{"category":"Status update unavailable","date":"2019-09"},"persistent_id":"22fbd60eb640f3f310a433c7ac668d6b99061607df80f9fa18432c14ff6793c2","id":74370052,"location_subtype":"","month":"2019-05"},{"category":"criminal-damage-arson","location_type":"Force","location":{"latitude":"51.468444","street":{"id":943983,"name":"On or near Strafford Road"},"longitude":"-0.376370"},"context":"","outcome_status":{"category":"Status update unavailable","date":"2019-09"},"persistent_id":"1a1a60dc4cff4b10f25a19f1dba3f98e460f13af0eee29063026bab276c30fdf","id":74294130,"location_subtype":"","month":"2019-05"},{"category":"criminal-damage-arson","location_type":"Force","location":{"latitude":"51.468674","street":{"id":944059,"name":"On or near Lampton Road"},"longitude":"-0.366370"},"context":"","outcome_status":{"category":"Status update unavailable","date":"2019-09"},"persistent_id":"750db503864800bd14088d3b6ab7d999bf068c6668371051cefad5777588eeaf","id":74350913,"location_subtype":"","month":"2019-05"},{"category":"criminal-damage-arson","location_type":"Force","location":{"latitude":"51.478019","street":{"id":944324,"name":"On or near Pedestrian Subway"},"longitude":"-0.405076"},"context":"","outcome_status":{"category":"Offender given a caution","date":"2019-05"},"persistent_id":"705a7f29936aafa08425ad87e3b8606c73c9367ee0d9b18cd429f37f08b579af","id":74292124,"location_subtype":"","month":"2019-05"},{"category":"criminal-damage-arson","location_type":"Force","location":{"latitude":"51.475265","street":{"id":944415,"name":"On or near Travellers Way"},"longitude":"-0.398317"},"context":"","outcome_status":{"category":"Investigation complete; no suspect identified","date":"2020-03"},"persistent_id":"c53dce67b22117a76da798e8b38fc190502f8ceefa76c5fddb11aa56fedd4ffb","id":74350909,"location_subtype":"","month":"2019-05"},{"category":"criminal-damage-arson","location_type":"Force","location":{"latitude":"51.473286","street":{"id":944376,"name":"On or near Great South-west Road"},"longitude":"-0.402865"},"context":"","outcome_status":{"category":"Status update unavailable","date":"2019-09"},"persistent_id":"fca67ecf7dbe37a898db624da488476df634d14aab5d2d1f28c953298d1fd61b","id":74332205,"location_subtype":"","month":"2019-05"},{"category":"criminal-damage-arson","location_type":"Force","location":{"latitude":"51.476938","street":{"id":944403,"name":"On or near Broad Walk"},"longitude":"-0.388496"},"context":"","outcome_status":{"category":"Status update unavailable","date":"2019-09"},"persistent_id":"52b91ce23456c747786eb800ffd6ee6e5f4de0b2ed3a4efbba439be747e35930","id":74295340,"location_subtype":"","month":"2019-05"},{"category":"criminal-damage-arson","location_type":"Force","location":{"latitude":"51.473476","street":{"id":944407,"name":"On or near Bath Road"},"longitude":"-0.387811"},"context":"","outcome_status":{"category":"Status update unavailable","date":"2019-09"},"persistent_id":"606341c2f20b2b0c6c6f0347cb8847bdace1c01a91ead3effb103ff0c3f15fdf","id":74297528,"location_subtype":"","month":"2019-05"},{"category":"criminal-damage-arson","location_type":"Force","location":{"latitude":"51.473476","street":{"id":944407,"name":"On or near Bath Road"},"longitude":"-0.387811"},"context":"","outcome_status":{"category":"Status update unavailable","date":"2019-09"},"persistent_id":"6cac23efe0faff14831182cd09763c55d5c725c9d5018849a19382c65f30b542","id":74298297,"location_subtype":"","month":"2019-05"},{"category":"criminal-damage-arson","location_type":"Force","location":{"latitude":"51.465916","street":{"id":943992,"name":"On or near Orchid Gardens"},"longitude":"-0.376316"},"context":"","outcome_status":{"category":"Offender given a caution","date":"2019-05"},"persistent_id":"ccb6e3d080d30ab4be2117212669c4abb04adcbf45e8a14dc32bcf1b155e4010","id":74341307,"location_subtype":"","month":"2019-05"},{"category":"criminal-damage-arson","location_type":"Force","location":{"latitude":"51.465705","street":{"id":944009,"name":"On or near Grove Road"},"longitude":"-0.370176"},"context":"","outcome_status":{"category":"Status update unavailable","date":"2019-09"},"persistent_id":"54de464556bbe76eafdced405937c1afa14cf87bfb39684f569fb0817ced8e7f","id":74299461,"location_subtype":"","month":"2019-05"},{"category":"criminal-damage-arson","location_type":"Force","location":{"latitude":"51.473476","street":{"id":944407,"name":"On or near Bath Road"},"longitude":"-0.387811"},"context":"","outcome_status":{"category":"Status update unavailable","date":"2019-09"},"persistent_id":"034f3de2115be0b3a87bdcca1622b4e29c0432378aa132cce71cb0e5458415e3","id":74299625,"location_subtype":"","month":"2019-05"},{"category":"criminal-damage-arson","location_type":"Force","location":{"latitude":"51.472155","street":{"id":944445,"name":"On or near Rosemary Avenue"},"longitude":"-0.390478"},"context":"","outcome_status":{"category":"Status update unavailable","date":"2019-09"},"persistent_id":"dfe1b4d811061d80e4bcb4ddceb119457f27e956b7d597a24e72c6264af6f13b","id":74299632,"location_subtype":"","month":"2019-05"},{"category":"criminal-damage-arson","location_type":"Force","location":{"latitude":"51.462618","street":{"id":944030,"name":"On or near Benham Gardens"},"longitude":"-0.375166"},"context":"","outcome_status":{"category":"Status update unavailable","date":"2019-09"},"persistent_id":"74211f98eed2f5b08586ff616ad430d700e8ad0fe228288a67c07cb113ce72c5","id":74358624,"location_subtype":"","month":"2019-05"},{"category":"criminal-damage-arson","location_type":"Force","location":{"latitude":"51.472882","street":{"id":944468,"name":"On or near St Paul's Close"},"longitude":"-0.382605"},"context":"","outcome_status":{"category":"Status update unavailable","date":"2019-09"},"persistent_id":"208708750fcc79b99b9d10bcf45b12e3d7d85e530186822fa81764b423d1e005","id":74301208,"location_subtype":"","month":"2019-05"},{"category":"criminal-damage-arson","location_type":"Force","location":{"latitude":"51.482346","street":{"id":944386,"name":"On or near Springwell Road"},"longitude":"-0.387412"},"context":"","outcome_status":{"category":"Investigation complete; no suspect identified","date":"2020-03"},"persistent_id":"7a003c868e133bfb7a98b6f1993d6e3fd9cb1e47fed5a5e3755efba5edd37f70","id":74301296,"location_subtype":"","month":"2019-05"},{"category":"criminal-damage-arson","location_type":"Force","location":{"latitude":"51.468612","street":{"id":944010,"name":"On or near Grosvenor Road"},"longitude":"-0.377487"},"context":"","outcome_status":{"category":"Status update unavailable","date":"2019-09"},"persistent_id":"5af56ac1fd1c70c56390b492e809fda7edc0d21e60bad305c67e0e5803ec214b","id":74329287,"location_subtype":"","month":"2019-05"},{"category":"criminal-damage-arson","location_type":"Force","location":{"latitude":"51.466439","street":{"id":944016,"name":"On or near Cromwell Street"},"longitude":"-0.369890"},"context":"","outcome_status":{"category":"Status update unavailable","date":"2019-09"},"persistent_id":"f79abb433f20c3bd2da33dfcddee26ed5994ed31702c9b33f9d33bf5812fb315","id":74329180,"location_subtype":"","month":"2019-05"},{"category":"criminal-damage-arson","location_type":"Force","location":{"latitude":"51.468362","street":{"id":944000,"name":"On or near Logan Close"},"longitude":"-0.380174"},"context":"","outcome_status":{"category":"Status update unavailable","date":"2019-09"},"persistent_id":"6c0433c3dc23cc2b4f4840f565e86b07971c33a8d7778b7ebeb56cc08234473f","id":74338411,"location_subtype":"","month":"2019-05"},{"category":"criminal-damage-arson","location_type":"Force","location":{"latitude":"51.465796","street":{"id":944164,"name":"On or near Cambridge Close"},"longitude":"-0.383849"},"context":"","outcome_status":{"category":"Status update unavailable","date":"2019-09"},"persistent_id":"b719acce08c317f34941017a8133cee2c1e28bf70042ebbfe93fefb73f3034dd","id":74358645,"location_subtype":"","month":"2019-05"},{"category":"criminal-damage-arson","location_type":"Force","location":{"latitude":"51.470075","street":{"id":944567,"name":"On or near Lampton Road"},"longitude":"-0.366881"},"context":"","outcome_status":{"category":"Status update unavailable","date":"2019-09"},"persistent_id":"1ff5294e8657cc2c2dab1f644c7ccfb35d25c8f32c9cc18a86cf49c681eb1035","id":74359620,"location_subtype":"","month":"2019-05"},{"category":"criminal-damage-arson","location_type":"Force","location":{"latitude":"51.465192","street":{"id":944005,"name":"On or near Inverness Road"},"longitude":"-0.374671"},"context":"","outcome_status":{"category":"Status update unavailable","date":"2019-09"},"persistent_id":"4105ae59ee2851d4c6efe7f5638f249db81dcef190463c37e5d67a23be9a8c07","id":74303430,"location_subtype":"","month":"2019-05"},{"category":"drugs","location_type":"Force","location":{"latitude":"51.462429","street":{"id":923954,"name":"On or near Islay Gardens"},"longitude":"-0.390749"},"context":"","outcome_status":{"category":"Local resolution","date":"2019-05"},"persistent_id":"c8dabe0bf4c44be33a5cec48277e242284ff563f7de727cf388a77b8aa23a4cc","id":74299706,"location_subtype":"","month":"2019-05"},{"category":"drugs","location_type":"Force","location":{"latitude":"51.472523","street":{"id":944467,"name":"On or near Vicarage Farm Road"},"longitude":"-0.387226"},"context":"","outcome_status":{"category":"Status update unavailable","date":"2019-09"},"persistent_id":"49d524665c32270d101c540daa927c1cd7df469351b9cb8aeb0561e8bba1cbfe","id":74327422,"location_subtype":"","month":"2019-05"},{"category":"drugs","location_type":"Force","location":{"latitude":"51.470331","street":{"id":944374,"name":"On or near Warwick Road"},"longitude":"-0.404422"},"context":"","outcome_status":{"category":"Local resolution","date":"2019-05"},"persistent_id":"fc243532b46a6aa870c547ed78c8d702c8546907e6399c1563f968e8b2e006af","id":74334934,"location_subtype":"","month":"2019-05"},{"category":"drugs","location_type":"Force","location":{"latitude":"51.472523","street":{"id":944467,"name":"On or near Vicarage Farm Road"},"longitude":"-0.387226"},"context":"","outcome_status":{"category":"Offender given penalty notice","date":"2019-05"},"persistent_id":"bb6baeb1b98defe85293edfc5025f083d9f50099998e2a328b72804081860f35","id":74356043,"location_subtype":"","month":"2019-05"},{"category":"drugs","location_type":"Force","location":{"latitude":"51.484879","street":{"id":951125,"name":"On or near Fairmead Close"},"longitude":"-0.391139"},"context":"","outcome_status":{"category":"Offender fined","date":"2019-05"},"persistent_id":"f1fecb9e359a72e2c4900e9cdc212a5bf491f05d2a3350c062b442fcbc9a03b1","id":74350756,"location_subtype":"","month":"2019-05"},{"category":"drugs","location_type":"Force","location":{"latitude":"51.470331","street":{"id":944374,"name":"On or near Warwick Road"},"longitude":"-0.404422"},"context":"","outcome_status":{"category":"Local resolution","date":"2019-05"},"persistent_id":"e3f0cdeaf7e2883c7353859af15e3f7c4a93513b23cbcf9380acdcfce28324d3","id":74322315,"location_subtype":"","month":"2019-05"},{"category":"drugs","location_type":"Force","location":{"latitude":"51.485438","street":{"id":951074,"name":"On or near Memorial Close"},"longitude":"-0.377581"},"context":"","outcome_status":{"category":"Local resolution","date":"2019-05"},"persistent_id":"78156049a8d83ff6c3cf5ab13aac12a70a9d2c6b617ea2c4e3a54ce3179afc4a","id":74316957,"location_subtype":"","month":"2019-05"},{"category":"drugs","location_type":"Force","location":{"latitude":"51.473476","street":{"id":944407,"name":"On or near Bath Road"},"longitude":"-0.387811"},"context":"","outcome_status":{"category":"Offender given a caution","date":"2019-05"},"persistent_id":"931629050b7cbe303b2ad4a5f9a3e8e697c7dafddde4507029416d2637555335","id":74292235,"location_subtype":"","month":"2019-05"},{"category":"drugs","location_type":"Force","location":{"latitude":"51.465192","street":{"id":944005,"name":"On or near Inverness Road"},"longitude":"-0.374671"},"context":"","outcome_status":{"category":"Investigation complete; no suspect identified","date":"2020-07"},"persistent_id":"be94c1aa346c51e7ae84a69065d5335c71453f843893259d01ef03834501c5c1","id":74345708,"location_subtype":"","month":"2019-05"},{"category":"drugs","location_type":"Force","location":{"latitude":"51.483451","street":{"id":951076,"name":"On or near Heston Road"},"longitude":"-0.369802"},"context":"","outcome_status":{"category":"Local resolution","date":"2019-10"},"persistent_id":"2b95d77feaf1af9b58df37093ed9d7853710b25d85e4ff1b82eb805ae7614bdb","id":74317259,"location_subtype":"","month":"2019-05"},{"category":"drugs","location_type":"Force","location":{"latitude":"51.484363","street":{"id":951127,"name":"On or near Cranford Lane"},"longitude":"-0.393548"},"context":"","outcome_status":{"category":"Local resolution","date":"2019-05"},"persistent_id":"3b7a210c26ebf3068ffb7ab28d38e9f1df65e3842d5c26b5dfca0b5b6593cf99","id":74334810,"location_subtype":"","month":"2019-05"},{"category":"drugs","location_type":"Force","location":{"latitude":"51.469113","street":{"id":944082,"name":"On or near Police Station"},"longitude":"-0.364338"},"context":"","outcome_status":{"category":"Offender given a caution","date":"2019-05"},"persistent_id":"9e2cf571911878374afc734dfdfb582029ed1f308da567c184fa71bf47199c70","id":74329788,"location_subtype":"","month":"2019-05"},{"category":"drugs","location_type":"Force","location":{"latitude":"51.479263","street":{"id":944431,"name":"On or near Browning Way"},"longitude":"-0.392086"},"context":"","outcome_status":{"category":"Local resolution","date":"2019-05"},"persistent_id":"2c5f93124a68dcb8dcf21c7b7efce79de9230605638d521d11bc771d8fa812aa","id":74340568,"location_subtype":"","month":"2019-05"},{"category":"drugs","location_type":"Force","location":{"latitude":"51.484430","street":{"id":951070,"name":"On or near Vicarage Farm Road"},"longitude":"-0.380785"},"context":"","outcome_status":{"category":"Court result unavailable","date":"2019-11"},"persistent_id":"19786ad75bb43b334d559ec52dfa15e8c40f3f2641841e04c2acede59b216468","id":74371646,"location_subtype":"","month":"2019-05"},{"category":"drugs","location_type":"Force","location":{"latitude":"51.465899","street":{"id":943975,"name":"On or near Wivenhoe Court"},"longitude":"-0.377022"},"context":"","outcome_status":{"category":"Local resolution","date":"2019-05"},"persistent_id":"81e8156d2d3aa7293b4ec27860a293b6eb020dc99b957f8630764ae38bcbd689","id":74342942,"location_subtype":"","month":"2019-05"},{"category":"drugs","location_type":"Force","location":{"latitude":"51.469840","street":{"id":944465,"name":"On or near Arundel Road"},"longitude":"-0.401401"},"context":"","outcome_status":{"category":"Local resolution","date":"2019-05"},"persistent_id":"81e1d982348ccfcf4bd975f0b9b1c93e0fea1afa6674b20cae8c06fc7f831118","id":74305852,"location_subtype":"","month":"2019-05"},{"category":"drugs","location_type":"Force","location":{"latitude":"51.465899","street":{"id":943975,"name":"On or near Wivenhoe Court"},"longitude":"-0.377022"},"context":"","outcome_status":{"category":"Offender given a caution","date":"2019-05"},"persistent_id":"e7235a5fd70742e1a14c7f2cd14f5a0189b6baf26466698409da37b2a229d6fc","id":74320791,"location_subtype":"","month":"2019-05"},{"category":"drugs","location_type":"Force","location":{"latitude":"51.466035","street":{"id":944162,"name":"On or near Charter Crescent"},"longitude":"-0.388145"},"context":"","outcome_status":{"category":"Local resolution","date":"2019-05"},"persistent_id":"5160ea5eda6646a096699bbdfc14393e766c526868640d0987e9f7add8fafd68","id":74355573,"location_subtype":"","month":"2019-05"},{"category":"drugs","location_type":"Force","location":{"latitude":"51.486667","street":{"id":951102,"name":"On or near North Hyde Lane"},"longitude":"-0.381225"},"context":"","outcome_status":{"category":"Status update unavailable","date":"2019-09"},"persistent_id":"0410b60b82b3d323cf356ba6eb60560d3a3f26e9003568a131831b4be63d02fe","id":74301350,"location_subtype":"","month":"2019-05"},{"category":"drugs","location_type":"Force","location":{"latitude":"51.468674","street":{"id":944059,"name":"On or near Lampton Road"},"longitude":"-0.366370"},"context":"","outcome_status":{"category":"Court result unavailable","date":"2019-11"},"persistent_id":"82474edb40f41c16d79e169a605ef23ded9f3d96eab174bd971901927b8c05d4","id":74298868,"location_subtype":"","month":"2019-05"},{"category":"drugs","location_type":"Force","location":{"latitude":"51.476972","street":{"id":944412,"name":"On or near Bath Road"},"longitude":"-0.402146"},"context":"","outcome_status":{"category":"Local resolution","date":"2019-05"},"persistent_id":"45ca9503fb1bdd863797a6f88185493580e8b9aa8f39bae7dae6f33866ca3468","id":74343254,"location_subtype":"","month":"2019-05"},{"category":"drugs","location_type":"Force","location":{"latitude":"51.463804","street":{"id":944155,"name":"On or near Gloucester Road"},"longitude":"-0.387461"},"context":"","outcome_status":{"category":"Offender given penalty notice","date":"2019-05"},"persistent_id":"bf3a060d557f46ce7d408fbefe1e1f2070452e6b2ea5312b5b7f644d31094fb4","id":74303878,"location_subtype":"","month":"2019-05"},{"category":"drugs","location_type":"Force","location":{"latitude":"51.482601","street":{"id":944394,"name":"On or near Orchard Avenue"},"longitude":"-0.383082"},"context":"","outcome_status":{"category":"Local resolution","date":"2019-05"},"persistent_id":"5d11844afbacd3af96622f69227ba02e4205a20bff510886dec50f45fba44cbb","id":74303966,"location_subtype":"","month":"2019-05"},{"category":"other-theft","location_type":"Force","location":{"latitude":"51.469113","street":{"id":944082,"name":"On or near Police Station"},"longitude":"-0.364338"},"context":"","outcome_status":{"category":"Status update unavailable","date":"2019-09"},"persistent_id":"78e7fcd781c5599a8ee1ae8bde44e67f331e892a6a9cb8c7e05de1f662174449","id":74364138,"location_subtype":"","month":"2019-05"},{"category":"other-theft","location_type":"Force","location":{"latitude":"51.466996","street":{"id":944041,"name":"On or near Parking Area"},"longitude":"-0.367956"},"context":"","outcome_status":{"category":"Status update unavailable","date":"2019-09"},"persistent_id":"d844a2ab8b043ef7dd4b19c7412b479f5b79ac2cf353c7e65b170ffdf94703cc","id":74341678,"location_subtype":"","month":"2019-05"},{"category":"other-theft","location_type":"Force","location":{"latitude":"51.466664","street":{"id":944139,"name":"On or near Trinity Close"},"longitude":"-0.384870"},"context":"","outcome_status":{"category":"Status update unavailable","date":"2019-09"},"persistent_id":"91b4f5b985b8cfd91ba31eaf628dd95c81e1331fbaba2ad6327b2bb0c391e6f3","id":74345058,"location_subtype":"","month":"2019-05"},{"category":"other-theft","location_type":"Force","location":{"latitude":"51.468059","street":{"id":944074,"name":"On or near Bell Road"},"longitude":"-0.366132"},"context":"","outcome_status":{"category":"Investigation complete; no suspect identified","date":"2020-03"},"persistent_id":"3606b21cea11bb6963124ccb64e389c6a097b703eac5810658a3e30d08f1ee25","id":74308774,"location_subtype":"","month":"2019-05"},{"category":"other-theft","location_type":"Force","location":{"latitude":"51.484936","street":{"id":951075,"name":"On or near Heston Road"},"longitude":"-0.373120"},"context":"","outcome_status":{"category":"Status update unavailable","date":"2019-09"},"persistent_id":"30509150d939a9374c24e422bdeaaeaeac6d5c4fc5c25faeea39772fc2426a1a","id":74309203,"location_subtype":"","month":"2019-05"},{"category":"other-theft","location_type":"Force","location":{"latitude":"51.468444","street":{"id":943983,"name":"On or near Strafford Road"},"longitude":"-0.376370"},"context":"","outcome_status":{"category":"Status update unavailable","date":"2019-09"},"persistent_id":"332f5623eca0e29b91e806e71ef36fb1d78cf8262e906509f3361d3c86f266f7","id":74354398,"location_subtype":"","month":"2019-05"},{"category":"other-theft","location_type":"Force","location":{"latitude":"51.477401","street":{"id":944489,"name":"On or near North Dene"},"longitude":"-0.366720"},"context":"","outcome_status":{"category":"Status update unavailable","date":"2019-09"},"persistent_id":"e0f411ef99e60621dc4e569d5145ad1696b04921972c48f36173de91bc7d1c04","id":74305583,"location_subtype":"","month":"2019-05"},{"category":"other-theft","location_type":"Force","location":{"latitude":"51.475121","street":{"id":923946,"name":"On or near Sports\/recreation Area"},"longitude":"-0.370229"},"context":"","outcome_status":{"category":"Status update unavailable","date":"2019-09"},"persistent_id":"5bf829cd3885238853604f7777c913f883e2d7d25a45b5c47dfc20d503d025c1","id":74353840,"location_subtype":"","month":"2019-05"},{"category":"other-theft","location_type":"Force","location":{"latitude":"51.469113","street":{"id":944082,"name":"On or near Police Station"},"longitude":"-0.364338"},"context":"","outcome_status":{"category":"Status update unavailable","date":"2019-09"},"persistent_id":"be0539a53e90b4f532fa17e2261be77ea44052482af5ed8036362050a17df634","id":74353789,"location_subtype":"","month":"2019-05"},{"category":"other-theft","location_type":"Force","location":{"latitude":"51.474993","street":{"id":923555,"name":"On or near Petrol Station"},"longitude":"-0.392207"},"context":"","outcome_status":{"category":"Status update unavailable","date":"2019-09"},"persistent_id":"36a6f10cae6ee3e362583df7bf75ce991b90a50e6c8e52eb24503475414e665c","id":74353769,"location_subtype":"","month":"2019-05"},{"category":"other-theft","location_type":"Force","location":{"latitude":"51.468601","street":{"id":944124,"name":"On or near Lichfield Road"},"longitude":"-0.401517"},"context":"","outcome_status":{"category":"Status update unavailable","date":"2019-09"},"persistent_id":"f4bbcd814cce8ca8b46fde85d90e874ab796a5fe2ef334e39329f14df29e78e5","id":74344116,"location_subtype":"","month":"2019-05"},{"category":"other-theft","location_type":"Force","location":{"latitude":"51.469113","street":{"id":944082,"name":"On or near Police Station"},"longitude":"-0.364338"},"context":"","outcome_status":{"category":"Status update unavailable","date":"2019-09"},"persistent_id":"b91a3132a515163e3321227574c2f6f52907a50e9e5a705ac77a1bd3df9a0f58","id":74344569,"location_subtype":"","month":"2019-05"},{"category":"other-theft","location_type":"Force","location":{"latitude":"51.476696","street":{"id":944537,"name":"On or near Great West Road"},"longitude":"-0.380080"},"context":"","outcome_status":{"category":"Status update unavailable","date":"2019-09"},"persistent_id":"584fd02e25224fe573ece5953a4b5e2024c55130e325bd8b55d324b6e8be4e89","id":74344575,"location_subtype":"","month":"2019-05"},{"category":"other-theft","location_type":"Force","location":{"latitude":"51.472393","street":{"id":944440,"name":"On or near Pedestrian Subway"},"longitude":"-0.401312"},"context":"","outcome_status":{"category":"Status update unavailable","date":"2019-09"},"persistent_id":"a369e801c714feb4155b4849328a6bac1247073592c2ce4ae6d1cc324accf113","id":74331556,"location_subtype":"","month":"2019-05"},{"category":"other-theft","location_type":"Force","location":{"latitude":"51.461193","street":{"id":943971,"name":"On or near Wellington Road South"},"longitude":"-0.375490"},"context":"","outcome_status":{"category":"Status update unavailable","date":"2019-09"},"persistent_id":"7b561e72c8d8dfb12151a90f42b6b879ad6f94eb7aaabb1d8dc46b879a4fb7d4","id":74345837,"location_subtype":"","month":"2019-05"},{"category":"other-theft","location_type":"Force","location":{"latitude":"51.475075","street":{"id":944492,"name":"On or near Lampton Road"},"longitude":"-0.364960"},"context":"","outcome_status":{"category":"Status update unavailable","date":"2019-09"},"persistent_id":"4dd4f401aace39246b0d0ca42c107060851c831447e5e61de5a6f92bd310f95a","id":74336145,"location_subtype":"","month":"2019-05"},{"category":"other-theft","location_type":"Force","location":{"latitude":"51.472603","street":{"id":944476,"name":"On or near Bath Road"},"longitude":"-0.385178"},"context":"","outcome_status":{"category":"Status update unavailable","date":"2019-09"},"persistent_id":"4b6720ee05a38d5dc8fd2a581e1a85a87ec6be2dd93e2a3ffc99fabeee6c6c6c","id":74341596,"location_subtype":"","month":"2019-05"},{"category":"other-theft","location_type":"Force","location":{"latitude":"51.475907","street":{"id":944490,"name":"On or near Neville Close"},"longitude":"-0.365982"},"context":"","outcome_status":{"category":"Status update unavailable","date":"2019-09"},"persistent_id":"759d35d3a65fd173a9f94676d1d34467dc37257ced0d08f9b1b8fddb8cec4007","id":74341889,"location_subtype":"","month":"2019-05"},{"category":"other-theft","location_type":"Force","location":{"latitude":"51.460196","street":{"id":944034,"name":"On or near Alliance Close"},"longitude":"-0.381427"},"context":"","outcome_status":{"category":"Investigation complete; no suspect identified","date":"2020-03"},"persistent_id":"61f4ef3a3f6bc3689f5bc977fed9b5dd66ed0e1f7d866910c4d8927ffbce3ad5","id":74343330,"location_subtype":"","month":"2019-05"},{"category":"other-theft","location_type":"Force","location":{"latitude":"51.474993","street":{"id":923555,"name":"On or near Petrol Station"},"longitude":"-0.392207"},"context":"","outcome_status":{"category":"Status update unavailable","date":"2019-09"},"persistent_id":"2d0bf70277150c8c9d191d2f7afa81b9d40627d1f405797d558438b69eb26b56","id":74344568,"location_subtype":"","month":"2019-05"},{"category":"other-theft","location_type":"Force","location":{"latitude":"51.467543","street":{"id":943981,"name":"On or near Upton Road"},"longitude":"-0.369765"},"context":"","outcome_status":{"category":"Status update unavailable","date":"2019-09"},"persistent_id":"9a0690887460153b3789bc9bb4d6eaa0ae4f24f11d5955b7bce384d09d55daa7","id":74354401,"location_subtype":"","month":"2019-05"},{"category":"other-theft","location_type":"Force","location":{"latitude":"51.479263","street":{"id":944431,"name":"On or near Browning Way"},"longitude":"-0.392086"},"context":"","outcome_status":{"category":"Status update unavailable","date":"2019-09"},"persistent_id":"9876ed107d1b05838dc63299bd5ade1e05808db2a9ef495d82f647a785941828","id":74359778,"location_subtype":"","month":"2019-05"},{"category":"other-theft","location_type":"Force","location":{"latitude":"51.472805","street":{"id":944375,"name":"On or near Great South-west Road"},"longitude":"-0.403227"},"context":"","outcome_status":{"category":"Investigation complete; no suspect identified","date":"2020-03"},"persistent_id":"bd61d752c4e53c0638467eca2bd9ffec6f0f67f0670b02871a09aa9bd65b7bac","id":74370252,"location_subtype":"","month":"2019-05"},{"category":"other-theft","location_type":"Force","location":{"latitude":"51.467393","street":{"id":944042,"name":"On or near Parking Area"},"longitude":"-0.364832"},"context":"","outcome_status":{"category":"Investigation complete; no suspect identified","date":"2020-03"},"persistent_id":"dd70daf6bbab7bd9644644c86dcc0780c34ea7b6f30c3af34267fb82c4b6ce07","id":74316830,"location_subtype":"","month":"2019-05"},{"category":"other-theft","location_type":"Force","location":{"latitude":"51.465285","street":{"id":943976,"name":"On or near Wellington Road South"},"longitude":"-0.378123"},"context":"","outcome_status":{"category":"Investigation complete; no suspect identified","date":"2020-03"},"persistent_id":"0d7e616b1cc1774e482d3f26c0a78413074203b5ad9de21fbbf1f3cb256304d2","id":74307826,"location_subtype":"","month":"2019-05"},{"category":"other-theft","location_type":"Force","location":{"latitude":"51.467764","street":{"id":944006,"name":"On or near Hospital Road"},"longitude":"-0.371412"},"context":"","outcome_status":{"category":"Investigation complete; no suspect identified","date":"2020-08"},"persistent_id":"50b27d021aebcf23524a9eda888bf4d316f87dda0171bd692659379217b7c6c4","id":74296627,"location_subtype":"","month":"2019-05"},{"category":"other-theft","location_type":"BTP","location":{"latitude":"51.473400","street":{"id":1488725,"name":"Hounslow West (lu Station)"},"longitude":"-0.385768"},"context":"","outcome_status":{"category":"Status update unavailable","date":"2019-09"},"persistent_id":"","id":88717946,"location_subtype":"LU STATION","month":"2019-05"},{"category":"other-theft","location_type":"Force","location":{"latitude":"51.468444","street":{"id":943983,"name":"On or near Strafford Road"},"longitude":"-0.376370"},"context":"","outcome_status":{"category":"Offender given a caution","date":"2019-05"},"persistent_id":"779e3d92fc1e9f7fb8826ad7cf77c357f6496b9135583b73c838615c1ecdbb28","id":74315736,"location_subtype":"","month":"2019-05"},{"category":"other-theft","location_type":"Force","location":{"latitude":"51.468444","street":{"id":943983,"name":"On or near Strafford Road"},"longitude":"-0.376370"},"context":"","outcome_status":{"category":"Status update unavailable","date":"2019-09"},"persistent_id":"258e987ea63714826aff42be37e0a789543fa4bdd44bff1a52ea8983ad5d58d7","id":74301923,"location_subtype":"","month":"2019-05"},{"category":"other-theft","location_type":"Force","location":{"latitude":"51.467393","street":{"id":944042,"name":"On or near Parking Area"},"longitude":"-0.364832"},"context":"","outcome_status":{"category":"Status update unavailable","date":"2019-09"},"persistent_id":"3ae935f31400260f9b2ea8548c9b980e0a3df25c74a3ae42ea5fd5ba11bf76b6","id":74291981,"location_subtype":"","month":"2019-05"},{"category":"other-theft","location_type":"Force","location":{"latitude":"51.467847","street":{"id":944190,"name":"On or near Sports\/recreation Area"},"longitude":"-0.402954"},"context":"","outcome_status":{"category":"Status update unavailable","date":"2019-09"},"persistent_id":"0d4e9c3635b3ae5402721a786a3e565c309691eb376c516d04b14deedd513736","id":74292189,"location_subtype":"","month":"2019-05"},