[{"category":"anti-social-behaviour","location_type":"Force","location":{"latitude":"51.540416","street":{"id":964278,"name":"On or near Middleton Road"},"longitude":"-0.069869"},"context":"","outcome_status":null,"persistent_id":"","id":74278222,"location_subtype":"","month":"2019-05"},{"category":"anti-social-behaviour","location_type":"Force","location":{"latitude":"51.548311","street":{"id":968512,"name":"On or near Dalston Lane"},"longitude":"-0.063824"},"context":"","outcome_status":null,"persistent_id":"","id":74277357,"location_subtype":"","month":"2019-05"},{"category":"anti-social-behaviour","location_type":"Force","location":{"latitude":"51.561705","street":{"id":971746,"name":"On or near Narford Road"},"longitude":"-0.063024"},"context":"","outcome_status":null,"persistent_id":"","id":74277358,"location_subtype":"","month":"2019-05"},{"category":"anti-social-behaviour","location_type":"Force","location":{"latitude":"51.561705","street":{"id":971746,"name":"On or near Narford Road"},"longitude":"-0.063024"},"context":"","outcome_status":null,"persistent_id":"","id":74277359,"location_subtype":"","month":"2019-05"},{"category":"anti-social-behaviour","location_type":"Force","location":{"latitude":"51.548311","street":{"id":968512,"name":"On or near Dalston Lane"},"longitude":"-0.063824"},"context":"","outcome_status":null,"persistent_id":"","id":74277360,"location_subtype":"","month":"2019-05"},{"category":"anti-social-behaviour","location_type":"Force","location":{"latitude":"51.548311","street":{"id":968512,"name":"On or near Dalston Lane"},"longitude":"-0.063824"},"context":"","outcome_status":null,"persistent_id":"","id":74277361,"location_subtype":"","month":"2019-05"},{"category":"anti-social-behaviour","location_type":"Force","location":{"latitude":"51.545664","street":{"id":968687,"name":"On or near Greenwood Road"},"longitude":"-0.063633"},"context":"","outcome_status":null,"persistent_id":"","id":74277362,"location_subtype":"","month":"2019-05"},{"category":"anti-social-behaviour","location_type":"Force","location":{"latitude":"51.535227","street":{"id":964300,"name":"On or near Govan Street"},"longitude":"-0.063874"},"context":"","outcome_status":null,"persistent_id":"","id":74277363,"location_subtype":"","month":"2019-05"},{"category":"anti-social-behaviour","location_type":"Force","location":{"latitude":"51.557474","street":{"id":971805,"name":"On or near Monteagle Way"},"longitude":"-0.063824"},"context":"","outcome_status":null,"persistent_id":"","id":74277365,"location_subtype":"","month":"2019-05"},{"category":"anti-social-behaviour","location_type":"Force","location":{"latitude":"51.542056","street":{"id":964324,"name":"On or near Appleby Road"},"longitude":"-0.062993"},"context":"","outcome_status":null,"persistent_id":"","id":74277366,"location_subtype":"","month":"2019-05"},{"category":"anti-social-behaviour","location_type":"Force","location":{"latitude":"51.544083","street":{"id":968690,"name":"On or near Forest Road"},"longitude":"-0.063729"},"context":"","outcome_status":null,"persistent_id":"","id":74277367,"location_subtype":"","month":"2019-05"},{"category":"anti-social-behaviour","location_type":"Force","location":{"latitude":"51.544083","street":{"id":968690,"name":"On or near Forest Road"},"longitude":"-0.063729"},"context":"","outcome_status":null,"persistent_id":"","id":74277368,"location_subtype":"","month":"2019-05"},{"category":"anti-social-behaviour","location_type":"Force","location":{"latitude":"51.535227","street":{"id":964300,"name":"On or near Govan Street"},"longitude":"-0.063874"},"context":"","outcome_status":null,"persistent_id":"","id":74277370,"location_subtype":"","month":"2019-05"},{"category":"anti-social-behaviour","location_type":"Force","location":{"latitude":"51.536841","street":{"id":964262,"name":"On or near Stephan Close"},"longitude":"-0.064123"},"context":"","outcome_status":null,"persistent_id":"","id":74277375,"location_subtype":"","month":"2019-05"},{"category":"anti-social-behaviour","location_type":"Force","location":{"latitude":"51.537862","street":{"id":964320,"name":"On or near Brougham Road"},"longitude":"-0.064397"},"context":"","outcome_status":null,"persistent_id":"","id":74277377,"location_subtype":"","month":"2019-05"},{"category":"anti-social-behaviour","location_type":"Force","location":{"latitude":"51.537862","street":{"id":964320,"name":"On or near Brougham Road"},"longitude":"-0.064397"},"context":"","outcome_status":null,"persistent_id":"","id":74277378,"location_subtype":"","month":"2019-05"},{"category":"anti-social-behaviour","location_type":"Force","location":{"latitude":"51.542498","street":{"id":964304,"name":"On or near Gayhurst Road"},"longitude":"-0.064719"},"context":"","outcome_status":null,"persistent_id":"","id":74278141,"location_subtype":"","month":"2019-05"},{"category":"anti-social-behaviour","location_type":"Force","location":{"latitude":"51.545693","street":{"id":968684,"name":"On or near Massie Road"},"longitude":"-0.065925"},"context":"","outcome_status":null,"persistent_id":"","id":74278150,"location_subtype":"","month":"2019-05"},{"category":"anti-social-behaviour","location_type":"Force","location":{"latitude":"51.545693","street":{"id":968684,"name":"On or near Massie Road"},"longitude":"-0.065925"},"context":"","outcome_status":null,"persistent_id":"","id":74278151,"location_subtype":"","month":"2019-05"},{"category":"anti-social-behaviour","location_type":"Force","location":{"latitude":"51.546418","street":{"id":968514,"name":"On or near Clifton Grove"},"longitude":"-0.066861"},"context":"","outcome_status":null,"persistent_id":"","id":74278154,"location_subtype":"","month":"2019-05"},{"category":"anti-social-behaviour","location_type":"Force","location":{"latitude":"51.546418","street":{"id":968514,"name":"On or near Clifton Grove"},"longitude":"-0.066861"},"context":"","outcome_status":null,"persistent_id":"","id":74278155,"location_subtype":"","month":"2019-05"},{"category":"anti-social-behaviour","location_type":"Force","location":{"latitude":"51.546418","street":{"id":968514,"name":"On or near Clifton Grove"},"longitude":"-0.066861"},"context":"","outcome_status":null,"persistent_id":"","id":74278156,"location_subtype":"","month":"2019-05"},{"category":"anti-social-behaviour","location_type":"Force","location":{"latitude":"51.550005","street":{"id":968533,"name":"On or near Sandringham Road"},"longitude":"-0.065684"},"context":"","outcome_status":null,"persistent_id":"","id":74278157,"location_subtype":"","month":"2019-05"},{"category":"anti-social-behaviour","location_type":"Force","location":{"latitude":"51.555782","street":{"id":968565,"name":"On or near Petrol Station"},"longitude":"-0.066435"},"context":"","outcome_status":null,"persistent_id":"","id":74278158,"location_subtype":"","month":"2019-05"},{"category":"anti-social-behaviour","location_type":"Force","location":{"latitude":"51.555782","street":{"id":968565,"name":"On or near Petrol Station"},"longitude":"-0.066435"},"context":"","outcome_status":null,"persistent_id":"","id":74278159,"location_subtype":"","month":"2019-05"},{"category":"anti-social-behaviour","location_type":"Force","location":{"latitude":"51.555782","street":{"id":968565,"name":"On or near Petrol Station"},"longitude":"-0.066435"},"context":"","outcome_status":null,"persistent_id":"","id":74278160,"location_subtype":"","month":"2019-05"},{"category":"anti-social-behaviour","location_type":"Force","location":{"latitude":"51.547127","street":{"id":968506,"name":"On or near Madinah Road"},"longitude":"-0.067263"},"context":"","outcome_status":null,"persistent_id":"","id":74278161,"location_subtype":"","month":"2019-05"},{"category":"anti-social-behaviour","location_type":"Force","location":{"latitude":"51.560342","street":{"id":971747,"name":"On or near Maury Road"},"longitude":"-0.065953"},"context":"","outcome_status":null,"persistent_id":"","id":74278162,"location_subtype":"","month":"2019-05"},{"category":"anti-social-behaviour","location_type":"Force","location":{"latitude":"51.560342","street":{"id":971747,"name":"On or near Maury Road"},"longitude":"-0.065953"},"context":"","outcome_status":null,"persistent_id":"","id":74278163,"location_subtype":"","month":"2019-05"},{"category":"anti-social-behaviour","location_type":"Force","location":{"latitude":"51.552238","street":{"id":968534,"name":"On or near Rusbridge Close"},"longitude":"-0.066397"},"context":"","outcome_status":null,"persistent_id":"","id":74278164,"location_subtype":"","month":"2019-05"},{"category":"anti-social-behaviour","location_type":"Force","location":{"latitude":"51.560342","street":{"id":971747,"name":"On or near Maury Road"},"longitude":"-0.065953"},"context":"","outcome_status":null,"persistent_id":"","id":74278166,"location_subtype":"","month":"2019-05"},{"category":"anti-social-behaviour","location_type":"Force","location":{"latitude":"51.550790","street":{"id":968546,"name":"On or near Ferncliff Road"},"longitude":"-0.066387"},"context":"","outcome_status":null,"persistent_id":"","id":74278167,"location_subtype":"","month":"2019-05"},{"category":"anti-social-behaviour","location_type":"Force","location":{"latitude":"51.550790","street":{"id":968546,"name":"On or near Ferncliff Road"},"longitude":"-0.066387"},"context":"","outcome_status":null,"persistent_id":"","id":74278171,"location_subtype":"","month":"2019-05"},{"category":"anti-social-behaviour","location_type":"Force","location":{"latitude":"51.550790","street":{"id":968546,"name":"On or near Ferncliff Road"},"longitude":"-0.066387"},"context":"","outcome_status":null,"persistent_id":"","id":74278173,"location_subtype":"","month":"2019-05"},{"category":"anti-social-behaviour","location_type":"Force","location":{"latitude":"51.550790","street":{"id":968546,"name":"On or near Ferncliff Road"},"longitude":"-0.066387"},"context":"","outcome_status":null,"persistent_id":"","id":74278174,"location_subtype":"","month":"2019-05"},{"category":"anti-social-behaviour","location_type":"Force","location":{"latitude":"51.550790","street":{"id":968546,"name":"On or near Ferncliff Road"},"longitude":"-0.066387"},"context":"","outcome_status":null,"persistent_id":"","id":74278175,"location_subtype":"","month":"2019-05"},{"category":"anti-social-behaviour","location_type":"Force","location":{"latitude":"51.547127","street":{"id":968506,"name":"On or near Madinah Road"},"longitude":"-0.067263"},"context":"","outcome_status":null,"persistent_id":"","id":74278176,"location_subtype":"","month":"2019-05"},{"category":"anti-social-behaviour","location_type":"Force","location":{"latitude":"51.555782","street":{"id":968565,"name":"On or near Petrol Station"},"longitude":"-0.066435"},"context":"","outcome_status":null,"persistent_id":"","id":74278177,"location_subtype":"","month":"2019-05"},{"category":"anti-social-behaviour","location_type":"Force","location":{"latitude":"51.553176","street":{"id":968562,"name":"On or near Amhurst Road"},"longitude":"-0.067093"},"context":"","outcome_status":null,"persistent_id":"","id":74278178,"location_subtype":"","month":"2019-05"},{"category":"anti-social-behaviour","location_type":"Force","location":{"latitude":"51.552331","street":{"id":968553,"name":"On or near Charterhouse Road"},"longitude":"-0.067692"},"context":"","outcome_status":null,"persistent_id":"","id":74278194,"location_subtype":"","month":"2019-05"},{"category":"anti-social-behaviour","location_type":"Force","location":{"latitude":"51.553176","street":{"id":968562,"name":"On or near Amhurst Road"},"longitude":"-0.067093"},"context":"","outcome_status":null,"persistent_id":"","id":74278179,"location_subtype":"","month":"2019-05"},{"category":"anti-social-behaviour","location_type":"Force","location":{"latitude":"51.553176","street":{"id":968562,"name":"On or near Amhurst Road"},"longitude":"-0.067093"},"context":"","outcome_status":null,"persistent_id":"","id":74278180,"location_subtype":"","month":"2019-05"},{"category":"anti-social-behaviour","location_type":"Force","location":{"latitude":"51.553176","street":{"id":968562,"name":"On or near Amhurst Road"},"longitude":"-0.067093"},"context":"","outcome_status":null,"persistent_id":"","id":74278181,"location_subtype":"","month":"2019-05"},{"category":"anti-social-behaviour","location_type":"Force","location":{"latitude":"51.553176","street":{"id":968562,"name":"On or near Amhurst Road"},"longitude":"-0.067093"},"context":"","outcome_status":null,"persistent_id":"","id":74278182,"location_subtype":"","month":"2019-05"},{"category":"anti-social-behaviour","location_type":"Force","location":{"latitude":"51.553176","street":{"id":968562,"name":"On or near Amhurst Road"},"longitude":"-0.067093"},"context":"","outcome_status":null,"persistent_id":"","id":74278183,"location_subtype":"","month":"2019-05"},{"category":"anti-social-behaviour","location_type":"Force","location":{"latitude":"51.553176","street":{"id":968562,"name":"On or near Amhurst Road"},"longitude":"-0.067093"},"context":"","outcome_status":null,"persistent_id":"","id":74278185,"location_subtype":"","month":"2019-05"},{"category":"anti-social-behaviour","location_type":"Force","location":{"latitude":"51.553176","street":{"id":968562,"name":"On or near Amhurst Road"},"longitude":"-0.067093"},"context":"","outcome_status":null,"persistent_id":"","id":74278186,"location_subtype":"","month":"2019-05"},{"category":"anti-social-behaviour","location_type":"Force","location":{"latitude":"51.553176","street":{"id":968562,"name":"On or near Amhurst Road"},"longitude":"-0.067093"},"context":"","outcome_status":null,"persistent_id":"","id":74278188,"location_subtype":"","month":"2019-05"},{"category":"anti-social-behaviour","location_type":"Force","location":{"latitude":"51.537974","street":{"id":964319,"name":"On or near Brownlow Road"},"longitude":"-0.067896"},"context":"","outcome_status":null,"persistent_id":"","id":74278189,"location_subtype":"","month":"2019-05"},{"category":"anti-social-behaviour","location_type":"Force","location":{"latitude":"51.552331","street":{"id":968553,"name":"On or near Charterhouse Road"},"longitude":"-0.067692"},"context":"","outcome_status":null,"persistent_id":"","id":74278190,"location_subtype":"","month":"2019-05"},{"category":"anti-social-behaviour","location_type":"Force","location":{"latitude":"51.552331","street":{"id":968553,"name":"On or near Charterhouse Road"},"longitude":"-0.067692"},"context":"","outcome_status":null,"persistent_id":"","id":74278191,"location_subtype":"","month":"2019-05"},{"category":"anti-social-behaviour","location_type":"Force","location":{"latitude":"51.552331","street":{"id":968553,"name":"On or near Charterhouse Road"},"longitude":"-0.067692"},"context":"","outcome_status":null,"persistent_id":"","id":74278192,"location_subtype":"","month":"2019-05"},{"category":"anti-social-behaviour","location_type":"Force","location":{"latitude":"51.552331","street":{"id":968553,"name":"On or near Charterhouse Road"},"longitude":"-0.067692"},"context":"","outcome_status":null,"persistent_id":"","id":74278193,"location_subtype":"","month":"2019-05"},{"category":"anti-social-behaviour","location_type":"Force","location":{"latitude":"51.552331","street":{"id":968553,"name":"On or near Charterhouse Road"},"longitude":"-0.067692"},"context":"","outcome_status":null,"persistent_id":"","id":74278195,"location_subtype":"","month":"2019-05"},{"category":"anti-social-behaviour","location_type":"Force","location":{"latitude":"51.547127","street":{"id":968497,"name":"On or near Ritson Road"},"longitude":"-0.068359"},"context":"","outcome_status":null,"persistent_id":"","id":74278196,"location_subtype":"","month":"2019-05"},{"category":"anti-social-behaviour","location_type":"Force","location":{"latitude":"51.547127","street":{"id":968497,"name":"On or near Ritson Road"},"longitude":"-0.068359"},"context":"","outcome_status":null,"persistent_id":"","id":74278197,"location_subtype":"","month":"2019-05"},{"category":"anti-social-behaviour","location_type":"Force","location":{"latitude":"51.536715","street":{"id":964328,"name":"On or near Aitken Close"},"longitude":"-0.068483"},"context":"","outcome_status":null,"persistent_id":"","id":74278199,"location_subtype":"","month":"2019-05"},{"category":"anti-social-behaviour","location_type":"Force","location":{"latitude":"51.536715","street":{"id":964328,"name":"On or near Aitken Close"},"longitude":"-0.068483"},"context":"","outcome_status":null,"persistent_id":"","id":74278200,"location_subtype":"","month":"2019-05"},{"category":"anti-social-behaviour","location_type":"Force","location":{"latitude":"51.541704","street":{"id":964281,"name":"On or near Mapledene Road"},"longitude":"-0.067825"},"context":"","outcome_status":null,"persistent_id":"","id":74278201,"location_subtype":"","month":"2019-05"},{"category":"anti-social-behaviour","location_type":"Force","location":{"latitude":"51.540416","street":{"id":964278,"name":"On or near Middleton Road"},"longitude":"-0.069869"},"context":"","outcome_status":null,"persistent_id":"","id":74278202,"location_subtype":"","month":"2019-05"},{"category":"anti-social-behaviour","location_type":"Force","location":{"latitude":"51.536672","street":{"id":964266,"name":"On or near Samuel Close"},"longitude":"-0.069682"},"context":"","outcome_status":null,"persistent_id":"","id":74278203,"location_subtype":"","month":"2019-05"},{"category":"anti-social-behaviour","location_type":"Force","location":{"latitude":"51.560230","street":{"id":971749,"name":"On or near Jenner Road"},"longitude":"-0.068425"},"context":"","outcome_status":null,"persistent_id":"","id":74278204,"location_subtype":"","month":"2019-05"},{"category":"anti-social-behaviour","location_type":"Force","location":{"latitude":"51.560230","street":{"id":971749,"name":"On or near Jenner Road"},"longitude":"-0.068425"},"context":"","outcome_status":null,"persistent_id":"","id":74278205,"location_subtype":"","month":"2019-05"},{"category":"anti-social-behaviour","location_type":"Force","location":{"latitude":"51.561767","street":{"id":971733,"name":"On or near Stoke Newington Common"},"longitude":"-0.069456"},"context":"","outcome_status":null,"persistent_id":"","id":74278206,"location_subtype":"","month":"2019-05"},{"category":"anti-social-behaviour","location_type":"Force","location":{"latitude":"51.561767","street":{"id":971733,"name":"On or near Stoke Newington Common"},"longitude":"-0.069456"},"context":"","outcome_status":null,"persistent_id":"","id":74278207,"location_subtype":"","month":"2019-05"},{"category":"anti-social-behaviour","location_type":"Force","location":{"latitude":"51.561767","street":{"id":971733,"name":"On or near Stoke Newington Common"},"longitude":"-0.069456"},"context":"","outcome_status":null,"persistent_id":"","id":74278208,"location_subtype":"","month":"2019-05"},{"category":"anti-social-behaviour","location_type":"Force","location":{"latitude":"51.561767","street":{"id":971733,"name":"On or near Stoke Newington Common"},"longitude":"-0.069456"},"context":"","outcome_status":null,"persistent_id":"","id":74278209,"location_subtype":"","month":"2019-05"},{"category":"anti-social-behaviour","location_type":"Force","location":{"latitude":"51.561767","street":{"id":971733,"name":"On or near Stoke Newington Common"},"longitude":"-0.069456"},"context":"","outcome_status":null,"persistent_id":"","id":74278210,"location_subtype":"","month":"2019-05"},{"category":"anti-social-behaviour","location_type":"Force","location":{"latitude":"51.561767","street":{"id":971733,"name":"On or near Stoke Newington Common"},"longitude":"-0.069456"},"context":"","outcome_status":null,"persistent_id":"","id":74278211,"location_subtype":"","month":"2019-05"},{"category":"anti-social-behaviour","location_type":"Force","location":{"latitude":"51.547837","street":{"id":968500,"name":"On or near Queensbridge Road"},"longitude":"-0.068892"},"context":"","outcome_status":null,"persistent_id":"","id":74278212,"location_subtype":"","month":"2019-05"},{"category":"anti-social-behaviour","location_type":"Force","location":{"latitude":"51.547837","street":{"id":968500,"name":"On or near Queensbridge Road"},"longitude":"-0.068892"},"context":"","outcome_status":null,"persistent_id":"","id":74278213,"location_subtype":"","month":"2019-05"},{"category":"anti-social-behaviour","location_type":"Force","location":{"latitude":"51.554136","street":{"id":968529,"name":"On or near Shacklewell Road"},"longitude":"-0.069173"},"context":"","outcome_status":null,"persistent_id":"","id":74278220,"location_subtype":"","month":"2019-05"},{"category":"anti-social-behaviour","location_type":"Force","location":{"latitude":"51.550372","street":{"id":968564,"name":"On or near Abersham Road"},"longitude":"-0.069419"},"context":"","outcome_status":null,"persistent_id":"","id":74278221,"location_subtype":"","month":"2019-05"},{"category":"anti-social-behaviour","location_type":"Force","location":{"latitude":"51.553515","street":{"id":968538,"name":"On or near Perch Street"},"longitude":"-0.070238"},"context":"","outcome_status":null,"persistent_id":"","id":74278223,"location_subtype":"","month":"2019-05"},{"category":"anti-social-behaviour","location_type":"Force","location":{"latitude":"51.538093","street":{"id":964265,"name":"On or near Scriven Street"},"longitude":"-0.071337"},"context":"","outcome_status":null,"persistent_id":"","id":74278224,"location_subtype":"","month":"2019-05"},{"category":"anti-social-behaviour","location_type":"Force","location":{"latitude":"51.558959","street":{"id":971809,"name":"On or near Darville Road"},"longitude":"-0.070960"},"context":"","outcome_status":null,"persistent_id":"","id":74278227,"location_subtype":"","month":"2019-05"},{"category":"anti-social-behaviour","location_type":"Force","location":{"latitude":"51.546265","street":{"id":968693,"name":"On or near Dalston Lane"},"longitude":"-0.071727"},"context":"","outcome_status":null,"persistent_id":"","id":74278233,"location_subtype":"","month":"2019-05"},{"category":"anti-social-behaviour","location_type":"Force","location":{"latitude":"51.546265","street":{"id":968693,"name":"On or near Dalston Lane"},"longitude":"-0.071727"},"context":"","outcome_status":null,"persistent_id":"","id":74278234,"location_subtype":"","month":"2019-05"},{"category":"anti-social-behaviour","location_type":"Force","location":{"latitude":"51.546265","street":{"id":968693,"name":"On or near Dalston Lane"},"longitude":"-0.071727"},"context":"","outcome_status":null,"persistent_id":"","id":74278235,"location_subtype":"","month":"2019-05"},{"category":"anti-social-behaviour","location_type":"Force","location":{"latitude":"51.546265","street":{"id":968693,"name":"On or near Dalston Lane"},"longitude":"-0.071727"},"context":"","outcome_status":null,"persistent_id":"","id":74278236,"location_subtype":"","month":"2019-05"},{"category":"anti-social-behaviour","location_type":"Force","location":{"latitude":"51.546265","street":{"id":968693,"name":"On or near Dalston Lane"},"longitude":"-0.071727"},"context":"","outcome_status":null,"persistent_id":"","id":74278237,"location_subtype":"","month":"2019-05"},{"category":"anti-social-behaviour","location_type":"Force","location":{"latitude":"51.538799","street":{"id":964285,"name":"On or near Livermere Road"},"longitude":"-0.072144"},"context":"","outcome_status":null,"persistent_id":"","id":74278238,"location_subtype":"","month":"2019-05"},{"category":"anti-social-behaviour","location_type":"Force","location":{"latitude":"51.548050","street":{"id":968498,"name":"On or near Ridley Road"},"longitude":"-0.071493"},"context":"","outcome_status":null,"persistent_id":"","id":74278239,"location_subtype":"","month":"2019-05"},{"category":"anti-social-behaviour","location_type":"Force","location":{"latitude":"51.548050","street":{"id":968498,"name":"On or near Ridley Road"},"longitude":"-0.071493"},"context":"","outcome_status":null,"persistent_id":"","id":74278240,"location_subtype":"","month":"2019-05"},{"category":"anti-social-behaviour","location_type":"Force","location":{"latitude":"51.548050","street":{"id":968498,"name":"On or near Ridley Road"},"longitude":"-0.071493"},"context":"","outcome_status":null,"persistent_id":"","id":74278241,"location_subtype":"","month":"2019-05"},{"category":"anti-social-behaviour","location_type":"Force","location":{"latitude":"51.538799","street":{"id":964285,"name":"On or near Livermere Road"},"longitude":"-0.072144"},"context":"","outcome_status":null,"persistent_id":"","id":74278242,"location_subtype":"","month":"2019-05"},{"category":"anti-social-behaviour","location_type":"Force","location":{"latitude":"51.546798","street":{"id":968499,"name":"On or near Ramsgate Street"},"longitude":"-0.071373"},"context":"","outcome_status":null,"persistent_id":"","id":74278243,"location_subtype":"","month":"2019-05"},{"category":"anti-social-behaviour","location_type":"Force","location":{"latitude":"51.537241","street":{"id":923837,"name":"On or near Haggerston Road"},"longitude":"-0.071994"},"context":"","outcome_status":null,"persistent_id":"","id":74278244,"location_subtype":"","month":"2019-05"},{"category":"anti-social-behaviour","location_type":"Force","location":{"latitude":"51.548050","street":{"id":968498,"name":"On or near Ridley Road"},"longitude":"-0.071493"},"context":"","outcome_status":null,"persistent_id":"","id":74278245,"location_subtype":"","month":"2019-05"},{"category":"anti-social-behaviour","location_type":"Force","location":{"latitude":"51.548050","street":{"id":968498,"name":"On or near Ridley Road"},"longitude":"-0.071493"},"context":"","outcome_status":null,"persistent_id":"","id":74278246,"location_subtype":"","month":"2019-05"},{"category":"anti-social-behaviour","location_type":"Force","location":{"latitude":"51.543477","street":{"id":964294,"name":"On or near Holly Street"},"longitude":"-0.071744"},"context":"","outcome_status":null,"persistent_id":"","id":74278248,"location_subtype":"","month":"2019-05"},{"category":"anti-social-behaviour","location_type":"Force","location":{"latitude":"51.554930","street":{"id":968547,"name":"On or near Farleigh Road"},"longitude":"-0.071505"},"context":"","outcome_status":null,"persistent_id":"","id":74278253,"location_subtype":"","month":"2019-05"},{"category":"anti-social-behaviour","location_type":"Force","location":{"latitude":"51.554930","street":{"id":968547,"name":"On or near Farleigh Road"},"longitude":"-0.071505"},"context":"","outcome_status":null,"persistent_id":"","id":74278254,"location_subtype":"","month":"2019-05"},{"category":"anti-social-behaviour","location_type":"Force","location":{"latitude":"51.554930","street":{"id":968547,"name":"On or near Farleigh Road"},"longitude":"-0.071505"},"context":"","outcome_status":null,"persistent_id":"","id":74278255,"location_subtype":"","month":"2019-05"},{"category":"anti-social-behaviour","location_type":"Force","location":{"latitude":"51.554930","street":{"id":968547,"name":"On or near Farleigh Road"},"longitude":"-0.071505"},"context":"","outcome_status":null,"persistent_id":"","id":74278256,"location_subtype":"","month":"2019-05"},{"category":"anti-social-behaviour","location_type":"Force","location":{"latitude":"51.548974","street":{"id":968513,"name":"On or near Colvestone Crescent"},"longitude":"-0.071887"},"context":"","outcome_status":null,"persistent_id":"","id":74278258,"location_subtype":"","month":"2019-05"},{"category":"anti-social-behaviour","location_type":"Force","location":{"latitude":"51.548974","street":{"id":968513,"name":"On or near Colvestone Crescent"},"longitude":"-0.071887"},"context":"","outcome_status":null,"persistent_id":"","id":74278259,"location_subtype":"","month":"2019-05"},{"category":"anti-social-behaviour","location_type":"Force","location":{"latitude":"51.548974","street":{"id":968513,"name":"On or near Colvestone Crescent"},"longitude":"-0.071887"},"context":"","outcome_status":null,"persistent_id":"","id":74278260,"location_subtype":"","month":"2019-05"},{"category":"anti-social-behaviour","location_type":"Force","location":{"latitude":"51.546798","street":{"id":968499,"name":"On or near Ramsgate Street"},"longitude":"-0.071373"},"context":"","outcome_status":null,"persistent_id":"","id":74278270,"location_subtype":"","month":"2019-05"},{"category":"anti-social-behaviour","location_type":"Force","location":{"latitude":"51.537241","street":{"id":923837,"name":"On or near Haggerston Road"},"longitude":"-0.071994"},"context":"","outcome_status":null,"persistent_id":"","id":74278274,"location_subtype":"","month":"2019-05"},{"category":"anti-social-behaviour","location_type":"Force","location":{"latitude":"51.560884","street":{"id":971734,"name":"On or near Smalley Close"},"longitude":"-0.071585"},"context":"","outcome_status":null,"persistent_id":"","id":74278279,"location_subtype":"","month":"2019-05"},{"category":"anti-social-behaviour","location_type":"Force","location":{"latitude":"51.560884","street":{"id":971734,"name":"On or near Smalley Close"},"longitude":"-0.071585"},"context":"","outcome_status":null,"persistent_id":"","id":74278280,"location_subtype":"","month":"2019-05"},{"category":"anti-social-behaviour","location_type":"Force","location":{"latitude":"51.544239","street":{"id":968694,"name":"On or near Cumberland Close"},"longitude":"-0.072650"},"context":"","outcome_status":null,"persistent_id":"","id":74278282,"location_subtype":"","month":"2019-05"},{"category":"anti-social-behaviour","location_type":"Force","location":{"latitude":"51.541099","street":{"id":964215,"name":"On or near Mulberry Road"},"longitude":"-0.073691"},"context":"","outcome_status":null,"persistent_id":"","id":74278283,"location_subtype":"","month":"2019-05"},{"category":"anti-social-behaviour","location_type":"Force","location":{"latitude":"51.546403","street":{"id":968663,"name":"On or near Hartwell Street"},"longitude":"-0.073568"},"context":"","outcome_status":null,"persistent_id":"","id":74278286,"location_subtype":"","month":"2019-05"},{"category":"anti-social-behaviour","location_type":"Force","location":{"latitude":"51.537402","street":{"id":964315,"name":"On or near Clarissa Street"},"longitude":"-0.073587"},"context":"","outcome_status":null,"persistent_id":"","id":74278287,"location_subtype":"","month":"2019-05"},{"category":"anti-social-behaviour","location_type":"Force","location":{"latitude":"51.537402","street":{"id":964315,"name":"On or near Clarissa Street"},"longitude":"-0.073587"},"context":"","outcome_status":null,"persistent_id":"","id":74278288,"location_subtype":"","month":"2019-05"},{"category":"anti-social-behaviour","location_type":"Force","location":{"latitude":"51.537402","street":{"id":964315,"name":"On or near Clarissa Street"},"longitude":"-0.073587"},"context":"","outcome_status":null,"persistent_id":"","id":74278289,"location_subtype":"","month":"2019-05"},{"category":"anti-social-behaviour","location_type":"Force","location":{"latitude":"51.537402","street":{"id":964315,"name":"On or near Clarissa Street"},"longitude":"-0.073587"},"context":"","outcome_status":null,"persistent_id":"","id":74278290,"location_subtype":"","month":"2019-05"},{"category":"anti-social-behaviour","location_type":"Force","location":{"latitude":"51.553673","street":{"id":968612,"name":"On or near Somerford Grove"},"longitude":"-0.073289"},"context":"","outcome_status":null,"persistent_id":"","id":74278291,"location_subtype":"","month":"2019-05"},{"category":"anti-social-behaviour","location_type":"Force","location":{"latitude":"51.551995","street":{"id":968650,"name":"On or near Arcola Street"},"longitude":"-0.073461"},"context":"","outcome_status":null,"persistent_id":"","id":74278294,"location_subtype":"","month":"2019-05"},{"category":"anti-social-behaviour","location_type":"Force","location":{"latitude":"51.545118","street":{"id":968669,"name":"On or near Beechwood Road"},"longitude":"-0.073622"},"context":"","outcome_status":null,"persistent_id":"","id":74278301,"location_subtype":"","month":"2019-05"},{"category":"anti-social-behaviour","location_type":"Force","location":{"latitude":"51.550347","street":{"id":968651,"name":"On or near Alvington Crescent"},"longitude":"-0.073343"},"context":"","outcome_status":null,"persistent_id":"","id":74278304,"location_subtype":"","month":"2019-05"},{"category":"anti-social-behaviour","location_type":"Force","location":{"latitude":"51.545118","street":{"id":968669,"name":"On or near Beechwood Road"},"longitude":"-0.073622"},"context":"","outcome_status":null,"persistent_id":"","id":74278306,"location_subtype":"","month":"2019-05"},{"category":"anti-social-behaviour","location_type":"Force","location":{"latitude":"51.550409","street":{"id":968649,"name":"On or near Arundel Grove"},"longitude":"-0.080437"},"context":"","outcome_status":null,"persistent_id":"","id":74278427,"location_subtype":"","month":"2019-05"},{"category":"anti-social-behaviour","location_type":"Force","location":{"latitude":"51.548006","street":{"id":968582,"name":"On or near King Henry's Walk"},"longitude":"-0.080841"},"context":"","outcome_status":null,"persistent_id":"","id":74278428,"location_subtype":"","month":"2019-05"},{"category":"anti-social-behaviour","location_type":"Force","location":{"latitude":"51.550011","street":{"id":968626,"name":"On or near Mildmay Road"},"longitude":"-0.081363"},"context":"","outcome_status":null,"persistent_id":"","id":74278429,"location_subtype":"","month":"2019-05"},{"category":"anti-social-behaviour","location_type":"Force","location":{"latitude":"51.550011","street":{"id":968626,"name":"On or near Mildmay Road"},"longitude":"-0.081363"},"context":"","outcome_status":null,"persistent_id":"","id":74278430,"location_subtype":"","month":"2019-05"},{"category":"anti-social-behaviour","location_type":"Force","location":{"latitude":"51.554669","street":{"id":968609,"name":"On or near Stoke Newington Road"},"longitude":"-0.074791"},"context":"","outcome_status":null,"persistent_id":"","id":74279251,"location_subtype":"","month":"2019-05"},{"category":"anti-social-behaviour","location_type":"Force","location":{"latitude":"51.554669","street":{"id":968609,"name":"On or near Stoke Newington Road"},"longitude":"-0.074791"},"context":"","outcome_status":null,"persistent_id":"","id":74279252,"location_subtype":"","month":"2019-05"},{"category":"anti-social-behaviour","location_type":"Force","location":{"latitude":"51.554669","street":{"id":968609,"name":"On or near Stoke Newington Road"},"longitude":"-0.074791"},"context":"","outcome_status":null,"persistent_id":"","id":74279253,"location_subtype":"","month":"2019-05"},{"category":"anti-social-behaviour","location_type":"Force","location":{"latitude":"51.554669","street":{"id":968609,"name":"On or near Stoke Newington Road"},"longitude":"-0.074791"},"context":"","outcome_status":null,"persistent_id":"","id":74279254,"location_subtype":"","month":"2019-05"},{"category":"anti-social-behaviour","location_type":"Force","location":{"latitude":"51.554669","street":{"id":968609,"name":"On or near Stoke Newington Road"},"longitude":"-0.074791"},"context":"","outcome_status":null,"persistent_id":"","id":74279255,"location_subtype":"","month":"2019-05"},{"category":"anti-social-behaviour","location_type":"Force","location":{"latitude":"51.554669","street":{"id":968609,"name":"On or near Stoke Newington Road"},"longitude":"-0.074791"},"context":"","outcome_status":null,"persistent_id":"","id":74279256,"location_subtype":"","month":"2019-05"},{"category":"anti-social-behaviour","location_type":"Force","location":{"latitude":"51.554669","street":{"id":968609,"name":"On or near Stoke Newington Road"},"longitude":"-0.074791"},"context":"","outcome_status":null,"persistent_id":"","id":74279257,"location_subtype":"","month":"2019-05"},{"category":"anti-social-behaviour","location_type":"Force","location":{"latitude":"51.554669","street":{"id":968609,"name":"On or near Stoke Newington Road"},"longitude":"-0.074791"},"context":"","outcome_status":null,"persistent_id":"","id":74279258,"location_subtype":"","month":"2019-05"},{"category":"anti-social-behaviour","location_type":"Force","location":{"latitude":"51.554669","street":{"id":968609,"name":"On or near Stoke Newington Road"},"longitude":"-0.074791"},"context":"","outcome_status":null,"persistent_id":"","id":74279259,"location_subtype":"","month":"2019-05"},{"category":"anti-social-behaviour","location_type":"Force","location":{"latitude":"51.554669","street":{"id":968609,"name":"On or near Stoke Newington Road"},"longitude":"-0.074791"},"context":"","outcome_status":null,"persistent_id":"","id":74279260,"location_subtype":"","month":"2019-05"},{"category":"anti-social-behaviour","location_type":"Force","location":{"latitude":"51.543622","street":{"id":964219,"name":"On or near Mayfield Close"},"longitude":"-0.073959"},"context":"","outcome_status":null,"persistent_id":"","id":74279261,"location_subtype":"","month":"2019-05"},{"category":"anti-social-behaviour","location_type":"Force","location":{"latitude":"51.558762","street":{"id":971830,"name":"On or near Batley Place"},"longitude":"-0.073752"},"context":"","outcome_status":null,"persistent_id":"","id":74279262,"location_subtype":"","month":"2019-05"},{"category":"anti-social-behaviour","location_type":"Force","location":{"latitude":"51.541323","street":{"id":964195,"name":"On or near Freshfield Avenue"},"longitude":"-0.074691"},"context":"","outcome_status":null,"persistent_id":"","id":74279281,"location_subtype":"","month":"2019-05"},{"category":"anti-social-behaviour","location_type":"Force","location":{"latitude":"51.546830","street":{"id":968592,"name":"On or near Ashwin Street"},"longitude":"-0.074905"},"context":"","outcome_status":null,"persistent_id":"","id":74279283,"location_subtype":"","month":"2019-05"},{"category":"anti-social-behaviour","location_type":"Force","location":{"latitude":"51.546830","street":{"id":968592,"name":"On or near Ashwin Street"},"longitude":"-0.074905"},"context":"","outcome_status":null,"persistent_id":"","id":74279284,"location_subtype":"","month":"2019-05"},{"category":"anti-social-behaviour","location_type":"Force","location":{"latitude":"51.548412","street":{"id":968578,"name":"On or near Kingsland High Street"},"longitude":"-0.075416"},"context":"","outcome_status":null,"persistent_id":"","id":74279295,"location_subtype":"","month":"2019-05"},{"category":"anti-social-behaviour","location_type":"Force","location":{"latitude":"51.556077","street":{"id":968634,"name":"On or near Foulden Terrace"},"longitude":"-0.073981"},"context":"","outcome_status":null,"persistent_id":"","id":74279286,"location_subtype":"","month":"2019-05"},{"category":"anti-social-behaviour","location_type":"Force","location":{"latitude":"51.556077","street":{"id":968634,"name":"On or near Foulden Terrace"},"longitude":"-0.073981"},"context":"","outcome_status":null,"persistent_id":"","id":74279287,"location_subtype":"","month":"2019-05"},{"category":"anti-social-behaviour","location_type":"Force","location":{"latitude":"51.556077","street":{"id":968634,"name":"On or near Foulden Terrace"},"longitude":"-0.073981"},"context":"","outcome_status":null,"persistent_id":"","id":74279288,"location_subtype":"","month":"2019-05"},{"category":"anti-social-behaviour","location_type":"Force","location":{"latitude":"51.551858","street":{"id":968610,"name":"On or near Stoke Newington Road"},"longitude":"-0.075025"},"context":"","outcome_status":null,"persistent_id":"","id":74279289,"location_subtype":"","month":"2019-05"},{"category":"anti-social-behaviour","location_type":"Force","location":{"latitude":"51.551858","street":{"id":968610,"name":"On or near Stoke Newington Road"},"longitude":"-0.075025"},"context":"","outcome_status":null,"persistent_id":"","id":74279290,"location_subtype":"","month":"2019-05"},{"category":"anti-social-behaviour","location_type":"Force","location":{"latitude":"51.547404","street":{"id":968574,"name":"On or near Stanborough Passage"},"longitude":"-0.075386"},"context":"","outcome_status":null,"persistent_id":"","id":74279291,"location_subtype":"","month":"2019-05"},{"category":"anti-social-behaviour","location_type":"Force","location":{"latitude":"51.541597","street":{"id":964235,"name":"On or near Glebe Road"},"longitude":"-0.075501"},"context":"","outcome_status":null,"persistent_id":"","id":74279292,"location_subtype":"","month":"2019-05"},{"category":"anti-social-behaviour","location_type":"Force","location":{"latitude":"51.555325","street":{"id":968653,"name":"On or near Petrol Station"},"longitude":"-0.074229"},"context":"","outcome_status":null,"persistent_id":"","id":74279293,"location_subtype":"","month":"2019-05"},{"category":"anti-social-behaviour","location_type":"Force","location":{"latitude":"51.555325","street":{"id":968653,"name":"On or near Petrol Station"},"longitude":"-0.074229"},"context":"","outcome_status":null,"persistent_id":"","id":74279294,"location_subtype":"","month":"2019-05"},{"category":"anti-social-behaviour","location_type":"Force","location":{"latitude":"51.548412","street":{"id":968578,"name":"On or near Kingsland High Street"},"longitude":"-0.075416"},"context":"","outcome_status":null,"persistent_id":"","id":74279296,"location_subtype":"","month":"2019-05"},{"category":"anti-social-behaviour","location_type":"Force","location":{"latitude":"51.548412","street":{"id":968578,"name":"On or near Kingsland High Street"},"longitude":"-0.075416"},"context":"","outcome_status":null,"persistent_id":"","id":74279297,"location_subtype":"","month":"2019-05"},{"category":"anti-social-behaviour","location_type":"Force","location":{"latitude":"51.548412","street":{"id":968578,"name":"On or near Kingsland High Street"},"longitude":"-0.075416"},"context":"","outcome_status":null,"persistent_id":"","id":74279298,"location_subtype":"","month":"2019-05"},{"category":"anti-social-behaviour","location_type":"Force","location":{"latitude":"51.548412","street":{"id":968578,"name":"On or near Kingsland High Street"},"longitude":"-0.075416"},"context":"","outcome_status":null,"persistent_id":"","id":74279299,"location_subtype":"","month":"2019-05"},{"category":"anti-social-behaviour","location_type":"Force","location":{"latitude":"51.548412","street":{"id":968578,"name":"On or near Kingsland High Street"},"longitude":"-0.075416"},"context":"","outcome_status":null,"persistent_id":"","id":74279300,"location_subtype":"","month":"2019-05"},{"category":"anti-social-behaviour","location_type":"Force","location":{"latitude":"51.548412","street":{"id":968578,"name":"On or near Kingsland High Street"},"longitude":"-0.075416"},"context":"","outcome_status":null,"persistent_id":"","id":74279301,"location_subtype":"","month":"2019-05"},{"category":"anti-social-behaviour","location_type":"Force","location":{"latitude":"51.548412","street":{"id":968578,"name":"On or near Kingsland High Street"},"longitude":"-0.075416"},"context":"","outcome_status":null,"persistent_id":"","id":74279302,"location_subtype":"","month":"2019-05"},{"category":"anti-social-behaviour","location_type":"Force","location":{"latitude":"51.548412","street":{"id":968578,"name":"On or near Kingsland High Street"},"longitude":"-0.075416"},"context":"","outcome_status":null,"persistent_id":"","id":74279303,"location_subtype":"","month":"2019-05"},{"category":"anti-social-behaviour","location_type":"Force","location":{"latitude":"51.548412","street":{"id":968578,"name":"On or near Kingsland High Street"},"longitude":"-0.075416"},"context":"","outcome_status":null,"persistent_id":"","id":74279304,"location_subtype":"","month":"2019-05"},{"category":"anti-social-behaviour","location_type":"Force","location":{"latitude":"51.543891","street":{"id":964223,"name":"On or near Kingsland Road"},"longitude":"-0.076111"},"context":"","outcome_status":null,"persistent_id":"","id":74279307,"location_subtype":"","month":"2019-05"},{"category":"anti-social-behaviour","location_type":"Force","location":{"latitude":"51.543891","street":{"id":964223,"name":"On or near Kingsland Road"},"longitude":"-0.076111"},"context":"","outcome_status":null,"persistent_id":"","id":74279308,"location_subtype":"","month":"2019-05"},{"category":"anti-social-behaviour","location_type":"Force","location":{"latitude":"51.543891","street":{"id":964223,"name":"On or near Kingsland Road"},"longitude":"-0.076111"},"context":"","outcome_status":null,"persistent_id":"","id":74279309,"location_subtype":"","month":"2019-05"},{"category":"anti-social-behaviour","location_type":"Force","location":{"latitude":"51.543891","street":{"id":964223,"name":"On or near Kingsland Road"},"longitude":"-0.076111"},"context":"","outcome_status":null,"persistent_id":"","id":74279310,"location_subtype":"","month":"2019-05"},{"category":"anti-social-behaviour","location_type":"Force","location":{"latitude":"51.560177","street":{"id":971692,"name":"On or near Manley Court"},"longitude":"-0.074501"},"context":"","outcome_status":null,"persistent_id":"","id":74279311,"location_subtype":"","month":"2019-05"},{"category":"anti-social-behaviour","location_type":"Force","location":{"latitude":"51.551514","street":{"id":968615,"name":"On or near Salcombe Road"},"longitude":"-0.075991"},"context":"","outcome_status":null,"persistent_id":"","id":74279313,"location_subtype":"","month":"2019-05"},{"category":"anti-social-behaviour","location_type":"Force","location":{"latitude":"51.549095","street":{"id":968585,"name":"On or near Gillett Place"},"longitude":"-0.075978"},"context":"","outcome_status":null,"persistent_id":"","id":74279316,"location_subtype":"","month":"2019-05"},{"category":"anti-social-behaviour","location_type":"Force","location":{"latitude":"51.549095","street":{"id":968585,"name":"On or near Gillett Place"},"longitude":"-0.075978"},"context":"","outcome_status":null,"persistent_id":"","id":74279317,"location_subtype":"","month":"2019-05"},{"category":"anti-social-behaviour","location_type":"Force","location":{"latitude":"51.548440","street":{"id":968588,"name":"On or near Bradbury Street"},"longitude":"-0.076020"},"context":"","outcome_status":null,"persistent_id":"","id":74279322,"location_subtype":"","month":"2019-05"},{"category":"anti-social-behaviour","location_type":"Force","location":{"latitude":"51.548440","street":{"id":968588,"name":"On or near Bradbury Street"},"longitude":"-0.076020"},"context":"","outcome_status":null,"persistent_id":"","id":74279323,"location_subtype":"","month":"2019-05"},{"category":"anti-social-behaviour","location_type":"Force","location":{"latitude":"51.548898","street":{"id":968584,"name":"On or near Gillett Street"},"longitude":"-0.076001"},"context":"","outcome_status":null,"persistent_id":"","id":74279324,"location_subtype":"","month":"2019-05"},{"category":"anti-social-behaviour","location_type":"Force","location":{"latitude":"51.549686","street":{"id":968632,"name":"On or near John Campbell Road"},"longitude":"-0.076386"},"context":"","outcome_status":null,"persistent_id":"","id":74279325,"location_subtype":"","month":"2019-05"},{"category":"anti-social-behaviour","location_type":"Force","location":{"latitude":"51.542849","street":{"id":964210,"name":"On or near Richmond Road"},"longitude":"-0.075073"},"context":"","outcome_status":null,"persistent_id":"","id":74279326,"location_subtype":"","month":"2019-05"},{"category":"anti-social-behaviour","location_type":"Force","location":{"latitude":"51.542849","street":{"id":964210,"name":"On or near Richmond Road"},"longitude":"-0.075073"},"context":"","outcome_status":null,"persistent_id":"","id":74279327,"location_subtype":"","month":"2019-05"},{"category":"anti-social-behaviour","location_type":"Force","location":{"latitude":"51.542849","street":{"id":964210,"name":"On or near Richmond Road"},"longitude":"-0.075073"},"context":"","outcome_status":null,"persistent_id":"","id":74279328,"location_subtype":"","month":"2019-05"},{"category":"anti-social-behaviour","location_type":"Force","location":{"latitude":"51.542849","street":{"id":964210,"name":"On or near Richmond Road"},"longitude":"-0.075073"},"context":"","outcome_status":null,"persistent_id":"","id":74279329,"location_subtype":"","month":"2019-05"},{"category":"anti-social-behaviour","location_type":"Force","location":{"latitude":"51.542849","street":{"id":964210,"name":"On or near Richmond Road"},"longitude":"-0.075073"},"context":"","outcome_status":null,"persistent_id":"","id":74279330,"location_subtype":"","month":"2019-05"},{"category":"anti-social-behaviour","location_type":"Force","location":{"latitude":"51.548440","street":{"id":968588,"name":"On or near Bradbury Street"},"longitude":"-0.076020"},"context":"","outcome_status":null,"persistent_id":"","id":74279333,"location_subtype":"","month":"2019-05"},{"category":"anti-social-behaviour","location_type":"Force","location":{"latitude":"51.548440","street":{"id":968588,"name":"On or near Bradbury Street"},"longitude":"-0.076020"},"context":"","outcome_status":null,"persistent_id":"","id":74279334,"location_subtype":"","month":"2019-05"},{"category":"anti-social-behaviour","location_type":"Force","location":{"latitude":"51.548440","street":{"id":968588,"name":"On or near Bradbury Street"},"longitude":"-0.076020"},"context":"","outcome_status":null,"persistent_id":"","id":74279335,"location_subtype":"","month":"2019-05"},{"category":"anti-social-behaviour","location_type":"Force","location":{"latitude":"51.548440","street":{"id":968588,"name":"On or near Bradbury Street"},"longitude":"-0.076020"},"context":"","outcome_status":null,"persistent_id":"","id":74279336,"location_subtype":"","month":"2019-05"},{"category":"anti-social-behaviour","location_type":"Force","location":{"latitude":"51.549059","street":{"id":968571,"name":"On or near Parking Area"},"longitude":"-0.076499"},"context":"","outcome_status":null,"persistent_id":"","id":74279341,"location_subtype":"","month":"2019-05"},{"category":"anti-social-behaviour","location_type":"Force","location":{"latitude":"51.551013","street":{"id":968625,"name":"On or near Millard Close"},"longitude":"-0.077743"},"context":"","outcome_status":null,"persistent_id":"","id":74279343,"location_subtype":"","month":"2019-05"},{"category":"anti-social-behaviour","location_type":"Force","location":{"latitude":"51.549085","street":{"id":968577,"name":"On or near Mildmay Place"},"longitude":"-0.077551"},"context":"","outcome_status":null,"persistent_id":"","id":74279344,"location_subtype":"","month":"2019-05"},{"category":"anti-social-behaviour","location_type":"Force","location":{"latitude":"51.552906","street":{"id":968616,"name":"On or near Princess May Road"},"longitude":"-0.076971"},"context":"","outcome_status":null,"persistent_id":"","id":74279346,"location_subtype":"","month":"2019-05"},{"category":"anti-social-behaviour","location_type":"Force","location":{"latitude":"51.555917","street":{"id":968607,"name":"On or near Walford Road"},"longitude":"-0.076844"},"context":"","outcome_status":null,"persistent_id":"","id":74279348,"location_subtype":"","month":"2019-05"},{"category":"anti-social-behaviour","location_type":"Force","location":{"latitude":"51.545648","street":{"id":968656,"name":"On or near Parking Area"},"longitude":"-0.077970"},"context":"","outcome_status":null,"persistent_id":"","id":74279350,"location_subtype":"","month":"2019-05"},{"category":"anti-social-behaviour","location_type":"Force","location":{"latitude":"51.545648","street":{"id":968656,"name":"On or near Parking Area"},"longitude":"-0.077970"},"context":"","outcome_status":null,"persistent_id":"","id":74279351,"location_subtype":"","month":"2019-05"},{"category":"anti-social-behaviour","location_type":"Force","location":{"latitude":"51.556524","street":{"id":968633,"name":"On or near Gunstor Road"},"longitude":"-0.078218"},"context":"","outcome_status":null,"persistent_id":"","id":74279355,"location_subtype":"","month":"2019-05"},{"category":"anti-social-behaviour","location_type":"Force","location":{"latitude":"51.545648","street":{"id":968656,"name":"On or near Parking Area"},"longitude":"-0.077970"},"context":"","outcome_status":null,"persistent_id":"","id":74279360,"location_subtype":"","month":"2019-05"},{"category":"anti-social-behaviour","location_type":"Force","location":{"latitude":"51.540546","street":{"id":964231,"name":"On or near Hertford Road"},"longitude":"-0.078329"},"context":"","outcome_status":null,"persistent_id":"","id":74279361,"location_subtype":"","month":"2019-05"},{"category":"anti-social-behaviour","location_type":"Force","location":{"latitude":"51.553474","street":{"id":968604,"name":"On or near Wordsworth Road"},"longitude":"-0.079241"},"context":"","outcome_status":null,"persistent_id":"","id":74279374,"location_subtype":"","month":"2019-05"},{"category":"anti-social-behaviour","location_type":"Force","location":{"latitude":"51.546352","street":{"id":968670,"name":"On or near Balls Pond Road"},"longitude":"-0.079772"},"context":"","outcome_status":null,"persistent_id":"","id":74279386,"location_subtype":"","month":"2019-05"},{"category":"anti-social-behaviour","location_type":"Force","location":{"latitude":"51.555349","street":{"id":968628,"name":"On or near Leonard Place"},"longitude":"-0.080633"},"context":"","outcome_status":null,"persistent_id":"","id":74279403,"location_subtype":"","month":"2019-05"},{"category":"anti-social-behaviour","location_type":"Force","location":{"latitude":"51.544266","street":{"id":968664,"name":"On or near Culford Grove"},"longitude":"-0.081994"},"context":"","outcome_status":null,"persistent_id":"","id":74279408,"location_subtype":"","month":"2019-05"},{"category":"anti-social-behaviour","location_type":"Force","location":{"latitude":"51.555818","street":{"id":968642,"name":"On or near Clonbrock Road"},"longitude":"-0.080138"},"context":"","outcome_status":null,"persistent_id":"","id":74279413,"location_subtype":"","month":"2019-05"},{"category":"anti-social-behaviour","location_type":"Force","location":{"latitude":"51.551453","street":{"id":968944,"name":"On or near Ashenden Road"},"longitude":"-0.038044"},"context":"","outcome_status":null,"persistent_id":"","id":74275068,"location_subtype":"","month":"2019-05"},{"category":"anti-social-behaviour","location_type":"Force","location":{"latitude":"51.548461","street":{"id":968800,"name":"On or near Gould Terrace"},"longitude":"-0.055495"},"context":"","outcome_status":null,"persistent_id":"","id":74277243,"location_subtype":"","month":"2019-05"},{"category":"anti-social-behaviour","location_type":"Force","location":{"latitude":"51.550764","street":{"id":968837,"name":"On or near Clarence Mews"},"longitude":"-0.055036"},"context":"","outcome_status":null,"persistent_id":"","id":74277255,"location_subtype":"","month":"2019-05"},{"category":"anti-social-behaviour","location_type":"Force","location":{"latitude":"51.558218","street":{"id":971659,"name":"On or near Pedestrian Subway"},"longitude":"-0.055497"},"context":"","outcome_status":null,"persistent_id":"","id":74277270,"location_subtype":"","month":"2019-05"},{"category":"anti-social-behaviour","location_type":"Force","location":{"latitude":"51.550625","street":{"id":968786,"name":"On or near Hospital"},"longitude":"-0.046099"},"context":"","outcome_status":null,"persistent_id":"","id":74276060,"location_subtype":"","month":"2019-05"},{"category":"anti-social-behaviour","location_type":"Force","location":{"latitude":"51.546485","street":{"id":968799,"name":"On or near Graham Road"},"longitude":"-0.059444"},"context":"","outcome_status":null,"persistent_id":"","id":74277313,"location_subtype":"","month":"2019-05"},{"category":"anti-social-behaviour","location_type":"Force","location":{"latitude":"51.558002","street":{"id":971649,"name":"On or near Fletching Road"},"longitude":"-0.049548"},"context":"","outcome_status":null,"persistent_id":"","id":74276091,"location_subtype":"","month":"2019-05"},{"category":"anti-social-behaviour","location_type":"Force","location":{"latitude":"51.544083","street":{"id":968690,"name":"On or near Forest Road"},"longitude":"-0.063729"},"context":"","outcome_status":null,"persistent_id":"","id":74277349,"location_subtype":"","month":"2019-05"},{"category":"anti-social-behaviour","location_type":"Force","location":{"latitude":"51.538813","street":{"id":964264,"name":"On or near Shrubland Road"},"longitude":"-0.066447"},"context":"","outcome_status":null,"persistent_id":"","id":74278153,"location_subtype":"","month":"2019-05"},{"category":"anti-social-behaviour","location_type":"Force","location":{"latitude":"51.550790","street":{"id":968546,"name":"On or near Ferncliff Road"},"longitude":"-0.066387"},"context":"","outcome_status":null,"persistent_id":"","id":74278172,"location_subtype":"","month":"2019-05"},{"category":"anti-social-behaviour","location_type":"Force","location":{"latitude":"51.553176","street":{"id":968562,"name":"On or near Amhurst Road"},"longitude":"-0.067093"},"context":"","outcome_status":null,"persistent_id":"","id":74278187,"location_subtype":"","month":"2019-05"},{"category":"anti-social-behaviour","location_type":"Force","location":{"latitude":"51.545118","street":{"id":968669,"name":"On or near Beechwood Road"},"longitude":"-0.073622"},"context":"","outcome_status":null,"persistent_id":"","id":74278305,"location_subtype":"","month":"2019-05"},{"category":"anti-social-behaviour","location_type":"Force","location":{"latitude":"51.551453","street":{"id":968944,"name":"On or near Ashenden Road"},"longitude":"-0.038044"},"context":"","outcome_status":null,"persistent_id":"","id":74275067,"location_subtype":"","month":"2019-05"},{"category":"anti-social-behaviour","location_type":"Force","location":{"latitude":"51.544424","street":{"id":968875,"name":"On or near Hartlake Road"},"longitude":"-0.039904"},"context":"","outcome_status":null,"persistent_id":"","id":74275069,"location_subtype":"","month":"2019-05"},{"category":"anti-social-behaviour","location_type":"Force","location":{"latitude":"51.548946","street":{"id":968937,"name":"On or near Homerton High Street"},"longitude":"-0.039277"},"context":"","outcome_status":null,"persistent_id":"","id":74275070,"location_subtype":"","month":"2019-05"},{"category":"anti-social-behaviour","location_type":"Force","location":{"latitude":"51.547031","street":{"id":968721,"name":"On or near Barnabas Road"},"longitude":"-0.041998"},"context":"","outcome_status":null,"persistent_id":"","id":74276024,"location_subtype":"","month":"2019-05"},{"category":"anti-social-behaviour","location_type":"Force","location":{"latitude":"51.555681","street":{"id":968762,"name":"On or near Elmcroft Street"},"longitude":"-0.050571"},"context":"","outcome_status":null,"persistent_id":"","id":74276114,"location_subtype":"","month":"2019-05"},{"category":"anti-social-behaviour","location_type":"Force","location":{"latitude":"51.538694","street":{"id":964021,"name":"On or near Tudor Road"},"longitude":"-0.054902"},"context":"","outcome_status":null,"persistent_id":"","id":74276147,"location_subtype":"","month":"2019-05"},{"category":"anti-social-behaviour","location_type":"Force","location":{"latitude":"51.541962","street":{"id":964042,"name":"On or near London Lane"},"longitude":"-0.056753"},"context":"","outcome_status":null,"persistent_id":"","id":74277273,"location_subtype":"","month":"2019-05"},{"category":"anti-social-behaviour","location_type":"Force","location":{"latitude":"51.549818","street":{"id":968815,"name":"On or near Pembury Place"},"longitude":"-0.059807"},"context":"","outcome_status":null,"persistent_id":"","id":74277320,"location_subtype":"","month":"2019-05"},{"category":"anti-social-behaviour","location_type":"Force","location":{"latitude":"51.554016","street":{"id":968611,"name":"On or near Spenser Grove"},"longitude":"-0.081007"},"context":"","outcome_status":null,"persistent_id":"","id":74282707,"location_subtype":"","month":"2019-05"},{"category":"anti-social-behaviour","location_type":"Force","location":{"latitude":"51.548946","street":{"id":968937,"name":"On or near Homerton High Street"},"longitude":"-0.039277"},"context":"","outcome_status":null,"persistent_id":"","id":74276012,"location_subtype":"","month":"2019-05"},{"category":"anti-social-behaviour","location_type":"Force","location":{"latitude":"51.548946","street":{"id":968937,"name":"On or near Homerton High Street"},"longitude":"-0.039277"},"context":"","outcome_status":null,"persistent_id":"","id":74276013,"location_subtype":"","month":"2019-05"},{"category":"anti-social-behaviour","location_type":"Force","location":{"latitude":"51.547031","street":{"id":968721,"name":"On or near Barnabas Road"},"longitude":"-0.041998"},"context":"","outcome_status":null,"persistent_id":"","id":74276019,"location_subtype":"","month":"2019-05"},{"category":"anti-social-behaviour","location_type":"Force","location":{"latitude":"51.547031","street":{"id":968721,"name":"On or near Barnabas Road"},"longitude":"-0.041998"},"context":"","outcome_status":null,"persistent_id":"","id":74276020,"location_subtype":"","month":"2019-05"},{"category":"anti-social-behaviour","location_type":"Force","location":{"latitude":"51.542154","street":{"id":964132,"name":"On or near Gascoyne Road"},"longitude":"-0.040737"},"context":"","outcome_status":null,"persistent_id":"","id":74276021,"location_subtype":"","month":"2019-05"},{"category":"anti-social-behaviour","location_type":"Force","location":{"latitude":"51.542154","street":{"id":964132,"name":"On or near Gascoyne Road"},"longitude":"-0.040737"},"context":"","outcome_status":null,"persistent_id":"","id":74276022,"location_subtype":"","month":"2019-05"},{"category":"anti-social-behaviour","location_type":"Force","location":{"latitude":"51.547031","street":{"id":968721,"name":"On or near Barnabas Road"},"longitude":"-0.041998"},"context":"","outcome_status":null,"persistent_id":"","id":74276023,"location_subtype":"","month":"2019-05"},{"category":"anti-social-behaviour","location_type":"Force","location":{"latitude":"51.543338","street":{"id":964144,"name":"On or near Cassland Road"},"longitude":"-0.042171"},"context":"","outcome_status":null,"persistent_id":"","id":74276027,"location_subtype":"","month":"2019-05"},{"category":"anti-social-behaviour","location_type":"Force","location":{"latitude":"51.543338","street":{"id":964144,"name":"On or near Cassland Road"},"longitude":"-0.042171"},"context":"","outcome_status":null,"persistent_id":"","id":74276028,"location_subtype":"","month":"2019-05"},{"category":"anti-social-behaviour","location_type":"Force","location":{"latitude":"51.543338","street":{"id":964144,"name":"On or near Cassland Road"},"longitude":"-0.042171"},"context":"","outcome_status":null,"persistent_id":"","id":74276029,"location_subtype":"","month":"2019-05"},{"category":"anti-social-behaviour","location_type":"Force","location":{"latitude":"51.555383","street":{"id":968779,"name":"On or near Baslow Walk"},"longitude":"-0.041827"},"context":"","outcome_status":null,"persistent_id":"","id":74276030,"location_subtype":"","month":"2019-05"},{"category":"anti-social-behaviour","location_type":"Force","location":{"latitude":"51.549073","street":{"id":968734,"name":"On or near St Barnabas Terrace"},"longitude":"-0.043122"},"context":"","outcome_status":null,"persistent_id":"","id":74276031,"location_subtype":"","month":"2019-05"},{"category":"anti-social-behaviour","location_type":"Force","location":{"latitude":"51.546816","street":{"id":968722,"name":"On or near Barnabas Road"},"longitude":"-0.042022"},"context":"","outcome_status":null,"persistent_id":"","id":74276032,"location_subtype":"","month":"2019-05"},{"category":"anti-social-behaviour","location_type":"Force","location":{"latitude":"51.547031","street":{"id":968721,"name":"On or near Barnabas Road"},"longitude":"-0.041998"},"context":"","outcome_status":null,"persistent_id":"","id":74276033,"location_subtype":"","month":"2019-05"},{"category":"anti-social-behaviour","location_type":"Force","location":{"latitude":"51.546816","street":{"id":968722,"name":"On or near Barnabas Road"},"longitude":"-0.042022"},"context":"","outcome_status":null,"persistent_id":"","id":74276037,"location_subtype":"","month":"2019-05"},{"category":"anti-social-behaviour","location_type":"Force","location":{"latitude":"51.544350","street":{"id":968884,"name":"On or near Bentham Road"},"longitude":"-0.043498"},"context":"","outcome_status":null,"persistent_id":"","id":74276038,"location_subtype":"","month":"2019-05"},{"category":"anti-social-behaviour","location_type":"Force","location":{"latitude":"51.546782","street":{"id":968720,"name":"On or near Berger Road"},"longitude":"-0.043206"},"context":"","outcome_status":null,"persistent_id":"","id":74276039,"location_subtype":"","month":"2019-05"},{"category":"anti-social-behaviour","location_type":"Force","location":{"latitude":"51.546782","street":{"id":968720,"name":"On or near Berger Road"},"longitude":"-0.043206"},"context":"","outcome_status":null,"persistent_id":"","id":74276040,"location_subtype":"","month":"2019-05"},{"category":"anti-social-behaviour","location_type":"Force","location":{"latitude":"51.546782","street":{"id":968720,"name":"On or near Berger Road"},"longitude":"-0.043206"},"context":"","outcome_status":null,"persistent_id":"","id":74276041,"location_subtype":"","month":"2019-05"},{"category":"anti-social-behaviour","location_type":"Force","location":{"latitude":"51.556637","street":{"id":968771,"name":"On or near Chippendale Street"},"longitude":"-0.044226"},"context":"","outcome_status":null,"persistent_id":"","id":74276042,"location_subtype":"","month":"2019-05"},{"category":"anti-social-behaviour","location_type":"Force","location":{"latitude":"51.547748","street":{"id":968704,"name":"On or near Sedgwick Street"},"longitude":"-0.043439"},"context":"","outcome_status":null,"persistent_id":"","id":74276043,"location_subtype":"","month":"2019-05"},{"category":"anti-social-behaviour","location_type":"Force","location":{"latitude":"51.545634","street":{"id":968886,"name":"On or near Anderson Road"},"longitude":"-0.043414"},"context":"","outcome_status":null,"persistent_id":"","id":74276044,"location_subtype":"","month":"2019-05"},{"category":"anti-social-behaviour","location_type":"Force","location":{"latitude":"51.544911","street":{"id":968863,"name":"On or near Wick Road"},"longitude":"-0.043705"},"context":"","outcome_status":null,"persistent_id":"","id":74276045,"location_subtype":"","month":"2019-05"},{"category":"anti-social-behaviour","location_type":"Force","location":{"latitude":"51.544911","street":{"id":968863,"name":"On or near Wick Road"},"longitude":"-0.043705"},"context":"","outcome_status":null,"persistent_id":"","id":74276046,"location_subtype":"","month":"2019-05"},{"category":"anti-social-behaviour","location_type":"Force","location":{"latitude":"51.553576","street":{"id":968760,"name":"On or near Glenarm Road"},"longitude":"-0.042972"},"context":"","outcome_status":null,"persistent_id":"","id":74276047,"location_subtype":"","month":"2019-05"},{"category":"anti-social-behaviour","location_type":"Force","location":{"latitude":"51.555400","street":{"id":968751,"name":"On or near Lockhurst Street"},"longitude":"-0.043961"},"context":"","outcome_status":null,"persistent_id":"","id":74276048,"location_subtype":"","month":"2019-05"},{"category":"anti-social-behaviour","location_type":"Force","location":{"latitude":"51.539573","street":{"id":964149,"name":"On or near Banbury Road"},"longitude":"-0.043948"},"context":"","outcome_status":null,"persistent_id":"","id":74276049,"location_subtype":"","month":"2019-05"},{"category":"anti-social-behaviour","location_type":"Force","location":{"latitude":"51.539573","street":{"id":964149,"name":"On or near Banbury Road"},"longitude":"-0.043948"},"context":"","outcome_status":null,"persistent_id":"","id":74276050,"location_subtype":"","month":"2019-05"},{"category":"anti-social-behaviour","location_type":"Force","location":{"latitude":"51.558138","street":{"id":971653,"name":"On or near Caldecott Way"},"longitude":"-0.043642"},"context":"","outcome_status":null,"persistent_id":"","id":74276051,"location_subtype":"","month":"2019-05"},{"category":"anti-social-behaviour","location_type":"Force","location":{"latitude":"51.555400","street":{"id":968751,"name":"On or near Lockhurst Street"},"longitude":"-0.043961"},"context":"","outcome_status":null,"persistent_id":"","id":74276052,"location_subtype":"","month":"2019-05"},{"category":"anti-social-behaviour","location_type":"Force","location":{"latitude":"51.552338","street":{"id":968774,"name":"On or near Chatsworth Road"},"longitude":"-0.044237"},"context":"","outcome_status":null,"persistent_id":"","id":74276053,"location_subtype":"","month":"2019-05"},{"category":"anti-social-behaviour","location_type":"Force","location":{"latitude":"51.552338","street":{"id":968774,"name":"On or near Chatsworth Road"},"longitude":"-0.044237"},"context":"","outcome_status":null,"persistent_id":"","id":74276054,"location_subtype":"","month":"2019-05"},{"category":"anti-social-behaviour","location_type":"Force","location":{"latitude":"51.541757","street":{"id":964117,"name":"On or near Meynell Crescent"},"longitude":"-0.044979"},"context":"","outcome_status":null,"persistent_id":"","id":74276055,"location_subtype":"","month":"2019-05"},{"category":"anti-social-behaviour","location_type":"Force","location":{"latitude":"51.550625","street":{"id":968786,"name":"On or near Hospital"},"longitude":"-0.046099"},"context":"","outcome_status":null,"persistent_id":"","id":74276059,"location_subtype":"","month":"2019-05"},{"category":"anti-social-behaviour","location_type":"Force","location":{"latitude":"51.537424","street":{"id":964138,"name":"On or near Derby Road"},"longitude":"-0.046650"},"context":"","outcome_status":null,"persistent_id":"","id":74276061,"location_subtype":"","month":"2019-05"},{"category":"anti-social-behaviour","location_type":"Force","location":{"latitude":"51.537424","street":{"id":964138,"name":"On or near Derby Road"},"longitude":"-0.046650"},"context":"","outcome_status":null,"persistent_id":"","id":74276062,"location_subtype":"","month":"2019-05"},{"category":"anti-social-behaviour","location_type":"Force","location":{"latitude":"51.546292","street":{"id":968717,"name":"On or near Flanders Way"},"longitude":"-0.045665"},"context":"","outcome_status":null,"persistent_id":"","id":74276063,"location_subtype":"","month":"2019-05"},{"category":"anti-social-behaviour","location_type":"Force","location":{"latitude":"51.541669","street":{"id":964086,"name":"On or near Well Street"},"longitude":"-0.048877"},"context":"","outcome_status":null,"persistent_id":"","id":74276081,"location_subtype":"","month":"2019-05"},{"category":"anti-social-behaviour","location_type":"Force","location":{"latitude":"51.546292","street":{"id":968717,"name":"On or near Flanders Way"},"longitude":"-0.045665"},"context":"","outcome_status":null,"persistent_id":"","id":74276064,"location_subtype":"","month":"2019-05"},{"category":"anti-social-behaviour","location_type":"Force","location":{"latitude":"51.546292","street":{"id":968717,"name":"On or near Flanders Way"},"longitude":"-0.045665"},"context":"","outcome_status":null,"persistent_id":"","id":74276065,"location_subtype":"","month":"2019-05"},{"category":"anti-social-behaviour","location_type":"Force","location":{"latitude":"51.546292","street":{"id":968717,"name":"On or near Flanders Way"},"longitude":"-0.045665"},"context":"","outcome_status":null,"persistent_id":"","id":74276066,"location_subtype":"","month":"2019-05"},{"category":"anti-social-behaviour","location_type":"Force","location":{"latitude":"51.546292","street":{"id":968717,"name":"On or near Flanders Way"},"longitude":"-0.045665"},"context":"","outcome_status":null,"persistent_id":"","id":74276067,"location_subtype":"","month":"2019-05"},{"category":"anti-social-behaviour","location_type":"Force","location":{"latitude":"51.555118","street":{"id":968752,"name":"On or near Lockhurst Street"},"longitude":"-0.045402"},"context":"","outcome_status":null,"persistent_id":"","id":74276068,"location_subtype":"","month":"2019-05"},{"category":"anti-social-behaviour","location_type":"Force","location":{"latitude":"51.543906","street":{"id":968864,"name":"On or near Well Street"},"longitude":"-0.047108"},"context":"","outcome_status":null,"persistent_id":"","id":74276069,"location_subtype":"","month":"2019-05"},{"category":"anti-social-behaviour","location_type":"Force","location":{"latitude":"51.543906","street":{"id":968864,"name":"On or near Well Street"},"longitude":"-0.047108"},"context":"","outcome_status":null,"persistent_id":"","id":74276070,"location_subtype":"","month":"2019-05"},{"category":"anti-social-behaviour","location_type":"Force","location":{"latitude":"51.537195","street":{"id":964103,"name":"On or near Redruth Road"},"longitude":"-0.048015"},"context":"","outcome_status":null,"persistent_id":"","id":74276072,"location_subtype":"","month":"2019-05"},{"category":"anti-social-behaviour","location_type":"Force","location":{"latitude":"51.537195","street":{"id":964103,"name":"On or near Redruth Road"},"longitude":"-0.048015"},"context":"","outcome_status":null,"persistent_id":"","id":74276073,"location_subtype":"","month":"2019-05"},{"category":"anti-social-behaviour","location_type":"Force","location":{"latitude":"51.537195","street":{"id":964103,"name":"On or near Redruth Road"},"longitude":"-0.048015"},"context":"","outcome_status":null,"persistent_id":"","id":74276074,"location_subtype":"","month":"2019-05"},{"category":"anti-social-behaviour","location_type":"Force","location":{"latitude":"51.539525","street":{"id":964108,"name":"On or near Moulins Road"},"longitude":"-0.047526"},"context":"","outcome_status":null,"persistent_id":"","id":74276075,"location_subtype":"","month":"2019-05"},{"category":"anti-social-behaviour","location_type":"Force","location":{"latitude":"51.544391","street":{"id":968878,"name":"On or near Cresset Road"},"longitude":"-0.048140"},"context":"","outcome_status":null,"persistent_id":"","id":74276076,"location_subtype":"","month":"2019-05"},{"category":"anti-social-behaviour","location_type":"Force","location":{"latitude":"51.540131","street":{"id":964078,"name":"On or near Balcorne Street"},"longitude":"-0.048322"},"context":"","outcome_status":null,"persistent_id":"","id":74276078,"location_subtype":"","month":"2019-05"},{"category":"anti-social-behaviour","location_type":"Force","location":{"latitude":"51.537734","street":{"id":964107,"name":"On or near Park Close"},"longitude":"-0.049074"},"context":"","outcome_status":null,"persistent_id":"","id":74276080,"location_subtype":"","month":"2019-05"},{"category":"anti-social-behaviour","location_type":"Force","location":{"latitude":"51.541669","street":{"id":964086,"name":"On or near Well Street"},"longitude":"-0.048877"},"context":"","outcome_status":null,"persistent_id":"","id":74276082,"location_subtype":"","month":"2019-05"},{"category":"anti-social-behaviour","location_type":"Force","location":{"latitude":"51.537314","street":{"id":964097,"name":"On or near Skipworth Road"},"longitude":"-0.049236"},"context":"","outcome_status":null,"persistent_id":"","id":74276083,"location_subtype":"","month":"2019-05"},{"category":"anti-social-behaviour","location_type":"Force","location":{"latitude":"51.542380","street":{"id":964088,"name":"On or near Well Street"},"longitude":"-0.048875"},"context":"","outcome_status":null,"persistent_id":"","id":74276084,"location_subtype":"","month":"2019-05"},{"category":"anti-social-behaviour","location_type":"Force","location":{"latitude":"51.553172","street":{"id":968749,"name":"On or near Median Road"},"longitude":"-0.049495"},"context":"","outcome_status":null,"persistent_id":"","id":74276085,"location_subtype":"","month":"2019-05"},{"category":"anti-social-behaviour","location_type":"Force","location":{"latitude":"51.553172","street":{"id":968749,"name":"On or near Median Road"},"longitude":"-0.049495"},"context":"","outcome_status":null,"persistent_id":"","id":74276086,"location_subtype":"","month":"2019-05"},{"category":"anti-social-behaviour","location_type":"Force","location":{"latitude":"51.547532","street":{"id":968712,"name":"On or near Link Street"},"longitude":"-0.049361"},"context":"","outcome_status":null,"persistent_id":"","id":74276087,"location_subtype":"","month":"2019-05"},{"category":"anti-social-behaviour","location_type":"Force","location":{"latitude":"51.547532","street":{"id":968712,"name":"On or near Link Street"},"longitude":"-0.049361"},"context":"","outcome_status":null,"persistent_id":"","id":74276089,"location_subtype":"","month":"2019-05"},{"category":"anti-social-behaviour","location_type":"Force","location":{"latitude":"51.558002","street":{"id":971649,"name":"On or near Fletching Road"},"longitude":"-0.049548"},"context":"","outcome_status":null,"persistent_id":"","id":74276090,"location_subtype":"","month":"2019-05"},{"category":"anti-social-behaviour","location_type":"Force","location":{"latitude":"51.549933","street":{"id":923595,"name":"On or near Urswick Road"},"longitude":"-0.051033"},"context":"","outcome_status":null,"persistent_id":"","id":74276092,"location_subtype":"","month":"2019-05"},{"category":"anti-social-behaviour","location_type":"Force","location":{"latitude":"51.545541","street":{"id":968867,"name":"On or near Rivaz Place"},"longitude":"-0.049692"},"context":"","outcome_status":null,"persistent_id":"","id":74276093,"location_subtype":"","month":"2019-05"},{"category":"anti-social-behaviour","location_type":"Force","location":{"latitude":"51.540187","street":{"id":964123,"name":"On or near Kingshold Road"},"longitude":"-0.050050"},"context":"","outcome_status":null,"persistent_id":"","id":74276094,"location_subtype":"","month":"2019-05"},{"category":"anti-social-behaviour","location_type":"Force","location":{"latitude":"51.556121","street":{"id":968736,"name":"On or near Saratoga Road"},"longitude":"-0.049470"},"context":"","outcome_status":null,"persistent_id":"","id":74276095,"location_subtype":"","month":"2019-05"},{"category":"anti-social-behaviour","location_type":"Force","location":{"latitude":"51.547031","street":{"id":968709,"name":"On or near Morning Lane"},"longitude":"-0.051143"},"context":"","outcome_status":null,"persistent_id":"","id":74276096,"location_subtype":"","month":"2019-05"},{"category":"anti-social-behaviour","location_type":"Force","location":{"latitude":"51.547031","street":{"id":968709,"name":"On or near Morning Lane"},"longitude":"-0.051143"},"context":"","outcome_status":null,"persistent_id":"","id":74276097,"location_subtype":"","month":"2019-05"},{"category":"anti-social-behaviour","location_type":"Force","location":{"latitude":"51.554431","street":{"id":968737,"name":"On or near Rushmore Road"},"longitude":"-0.049499"},"context":"","outcome_status":null,"persistent_id":"","id":74276100,"location_subtype":"","month":"2019-05"},{"category":"anti-social-behaviour","location_type":"Force","location":{"latitude":"51.539614","street":{"id":964151,"name":"On or near Ainsworth Road"},"longitude":"-0.050724"},"context":"","outcome_status":null,"persistent_id":"","id":74276101,"location_subtype":"","month":"2019-05"},{"category":"anti-social-behaviour","location_type":"Force","location":{"latitude":"51.539614","street":{"id":964151,"name":"On or near Ainsworth Road"},"longitude":"-0.050724"},"context":"","outcome_status":null,"persistent_id":"","id":74276102,"location_subtype":"","month":"2019-05"},{"category":"anti-social-behaviour","location_type":"Force","location":{"latitude":"51.551711","street":{"id":968748,"name":"On or near Median Road"},"longitude":"-0.050322"},"context":"","outcome_status":null,"persistent_id":"","id":74276109,"location_subtype":"","month":"2019-05"},{"category":"anti-social-behaviour","location_type":"Force","location":{"latitude":"51.551711","street":{"id":968748,"name":"On or near Median Road"},"longitude":"-0.050322"},"context":"","outcome_status":null,"persistent_id":"","id":74276110,"location_subtype":"","month":"2019-05"},{"category":"anti-social-behaviour","location_type":"Force","location":{"latitude":"51.545352","street":{"id":968880,"name":"On or near Chatham Place"},"longitude":"-0.050782"},"context":"","outcome_status":null,"persistent_id":"","id":74276111,"location_subtype":"","month":"2019-05"},{"category":"anti-social-behaviour","location_type":"Force","location":{"latitude":"51.545352","street":{"id":968880,"name":"On or near Chatham Place"},"longitude":"-0.050782"},"context":"","outcome_status":null,"persistent_id":"","id":74276112,"location_subtype":"","month":"2019-05"},{"category":"anti-social-behaviour","location_type":"Force","location":{"latitude":"51.542685","street":{"id":964119,"name":"On or near Loddiges Road"},"longitude":"-0.051545"},"context":"","outcome_status":null,"persistent_id":"","id":74276113,"location_subtype":"","month":"2019-05"},{"category":"anti-social-behaviour","location_type":"Force","location":{"latitude":"51.540785","street":{"id":964079,"name":"On or near Parking Area"},"longitude":"-0.052448"},"context":"","outcome_status":null,"persistent_id":"","id":74276115,"location_subtype":"","month":"2019-05"},{"category":"anti-social-behaviour","location_type":"Force","location":{"latitude":"51.541988","street":{"id":964133,"name":"On or near Frampton Park Road"},"longitude":"-0.051834"},"context":"","outcome_status":null,"persistent_id":"","id":74276116,"location_subtype":"","month":"2019-05"},{"category":"anti-social-behaviour","location_type":"Force","location":{"latitude":"51.544805","street":{"id":968852,"name":"On or near Paragon Road"},"longitude":"-0.053055"},"context":"","outcome_status":null,"persistent_id":"","id":74276117,"location_subtype":"","month":"2019-05"},{"category":"anti-social-behaviour","location_type":"Force","location":{"latitude":"51.542685","street":{"id":964119,"name":"On or near Loddiges Road"},"longitude":"-0.051545"},"context":"","outcome_status":null,"persistent_id":"","id":74276118,"location_subtype":"","month":"2019-05"},{"category":"anti-social-behaviour","location_type":"Force","location":{"latitude":"51.558826","street":{"id":971651,"name":"On or near Cotesbach Road"},"longitude":"-0.051533"},"context":"","outcome_status":null,"persistent_id":"","id":74276119,"location_subtype":"","month":"2019-05"},{"category":"anti-social-behaviour","location_type":"Force","location":{"latitude":"51.557060","street":{"id":971648,"name":"On or near Mildenhall Road"},"longitude":"-0.050757"},"context":"","outcome_status":null,"persistent_id":"","id":74276120,"location_subtype":"","month":"2019-05"},{"category":"anti-social-behaviour","location_type":"Force","location":{"latitude":"51.560616","street":{"id":971605,"name":"On or near Casimir Road"},"longitude":"-0.053159"},"context":"","outcome_status":null,"persistent_id":"","id":74276121,"location_subtype":"","month":"2019-05"},{"category":"anti-social-behaviour","location_type":"Force","location":{"latitude":"51.560616","street":{"id":971605,"name":"On or near Casimir Road"},"longitude":"-0.053159"},"context":"","outcome_status":null,"persistent_id":"","id":74276122,"location_subtype":"","month":"2019-05"},{"category":"anti-social-behaviour","location_type":"Force","location":{"latitude":"51.560616","street":{"id":971605,"name":"On or near Casimir Road"},"longitude":"-0.053159"},"context":"","outcome_status":null,"persistent_id":"","id":74276123,"location_subtype":"","month":"2019-05"},{"category":"anti-social-behaviour","location_type":"Force","location":{"latitude":"51.560616","street":{"id":971605,"name":"On or near Casimir Road"},"longitude":"-0.053159"},"context":"","outcome_status":null,"persistent_id":"","id":74276124,"location_subtype":"","month":"2019-05"},{"category":"anti-social-behaviour","location_type":"Force","location":{"latitude":"51.546020","street":{"id":968885,"name":"On or near Belsham Street"},"longitude":"-0.052037"},"context":"","outcome_status":null,"persistent_id":"","id":74276127,"location_subtype":"","month":"2019-05"},{"category":"anti-social-behaviour","location_type":"Force","location":{"latitude":"51.539510","street":{"id":964030,"name":"On or near Shore Road"},"longitude":"-0.053137"},"context":"","outcome_status":null,"persistent_id":"","id":74276128,"location_subtype":"","month":"2019-05"},{"category":"anti-social-behaviour","location_type":"Force","location":{"latitude":"51.539510","street":{"id":964030,"name":"On or near Shore Road"},"longitude":"-0.053137"},"context":"","outcome_status":null,"persistent_id":"","id":74276129,"location_subtype":"","month":"2019-05"},{"category":"anti-social-behaviour","location_type":"Force","location":{"latitude":"51.553009","street":{"id":968844,"name":"On or near Petrol Station"},"longitude":"-0.053743"},"context":"","outcome_status":null,"persistent_id":"","id":74276130,"location_subtype":"","month":"2019-05"},{"category":"anti-social-behaviour","location_type":"Force","location":{"latitude":"51.553009","street":{"id":968844,"name":"On or near Petrol Station"},"longitude":"-0.053743"},"context":"","outcome_status":null,"persistent_id":"","id":74276131,"location_subtype":"","month":"2019-05"},{"category":"anti-social-behaviour","location_type":"Force","location":{"latitude":"51.553009","street":{"id":968844,"name":"On or near Petrol Station"},"longitude":"-0.053743"},"context":"","outcome_status":null,"persistent_id":"","id":74276132,"location_subtype":"","month":"2019-05"},{"category":"anti-social-behaviour","location_type":"Force","location":{"latitude":"51.553009","street":{"id":968844,"name":"On or near Petrol Station"},"longitude":"-0.053743"},"context":"","outcome_status":null,"persistent_id":"","id":74276133,"location_subtype":"","month":"2019-05"},{"category":"anti-social-behaviour","location_type":"Force","location":{"latitude":"51.560616","street":{"id":971605,"name":"On or near Casimir Road"},"longitude":"-0.053159"},"context":"","outcome_status":null,"persistent_id":"","id":74276138,"location_subtype":"","month":"2019-05"},{"category":"anti-social-behaviour","location_type":"Force","location":{"latitude":"51.560616","street":{"id":971605,"name":"On or near Casimir Road"},"longitude":"-0.053159"},"context":"","outcome_status":null,"persistent_id":"","id":74276139,"location_subtype":"","month":"2019-05"},{"category":"anti-social-behaviour","location_type":"Force","location":{"latitude":"51.540218","street":{"id":964013,"name":"On or near Weston Walk"},"longitude":"-0.055183"},"context":"","outcome_status":null,"persistent_id":"","id":74276141,"location_subtype":"","month":"2019-05"},{"category":"anti-social-behaviour","location_type":"Force","location":{"latitude":"51.540218","street":{"id":964013,"name":"On or near Weston Walk"},"longitude":"-0.055183"},"context":"","outcome_status":null,"persistent_id":"","id":74276142,"location_subtype":"","month":"2019-05"},{"category":"anti-social-behaviour","location_type":"Force","location":{"latitude":"51.540218","street":{"id":964013,"name":"On or near Weston Walk"},"longitude":"-0.055183"},"context":"","outcome_status":null,"persistent_id":"","id":74276143,"location_subtype":"","month":"2019-05"},{"category":"anti-social-behaviour","location_type":"Force","location":{"latitude":"51.540218","street":{"id":964013,"name":"On or near Weston Walk"},"longitude":"-0.055183"},"context":"","outcome_status":null,"persistent_id":"","id":74276144,"location_subtype":"","month":"2019-05"},{"category":"anti-social-behaviour","location_type":"Force","location":{"latitude":"51.550913","street":{"id":968838,"name":"On or near Clapton Square"},"longitude":"-0.054236"},"context":"","outcome_status":null,"persistent_id":"","id":74276145,"location_subtype":"","month":"2019-05"},{"category":"anti-social-behaviour","location_type":"Force","location":{"latitude":"51.538694","street":{"id":964021,"name":"On or near Tudor Road"},"longitude":"-0.054902"},"context":"","outcome_status":null,"persistent_id":"","id":74276146,"location_subtype":"","month":"2019-05"},{"category":"anti-social-behaviour","location_type":"Force","location":{"latitude":"51.562539","street":{"id":971586,"name":"On or near Southwold Road"},"longitude":"-0.053077"},"context":"","outcome_status":null,"persistent_id":"","id":74276148,"location_subtype":"","month":"2019-05"},{"category":"anti-social-behaviour","location_type":"Force","location":{"latitude":"51.552878","street":{"id":968824,"name":"On or near Hana Mews"},"longitude":"-0.054499"},"context":"","outcome_status":null,"persistent_id":"","id":74276149,"location_subtype":"","month":"2019-05"},{"category":"anti-social-behaviour","location_type":"Force","location":{"latitude":"51.551539","street":{"id":968836,"name":"On or near Clarence Place"},"longitude":"-0.055133"},"context":"","outcome_status":null,"persistent_id":"","id":74276151,"location_subtype":"","month":"2019-05"},{"category":"anti-social-behaviour","location_type":"Force","location":{"latitude":"51.547623","street":{"id":968794,"name":"On or near Mare Street"},"longitude":"-0.054882"},"context":"","outcome_status":null,"persistent_id":"","id":74276153,"location_subtype":"","month":"2019-05"},{"category":"anti-social-behaviour","location_type":"Force","location":{"latitude":"51.547623","street":{"id":968794,"name":"On or near Mare Street"},"longitude":"-0.054882"},"context":"","outcome_status":null,"persistent_id":"","id":74276154,"location_subtype":"","month":"2019-05"},{"category":"anti-social-behaviour","location_type":"Force","location":{"latitude":"51.547623","street":{"id":968794,"name":"On or near Mare Street"},"longitude":"-0.054882"},"context":"","outcome_status":null,"persistent_id":"","id":74276155,"location_subtype":"","month":"2019-05"},{"category":"anti-social-behaviour","location_type":"Force","location":{"latitude":"51.546949","street":{"id":968804,"name":"On or near Supermarket"},"longitude":"-0.055415"},"context":"","outcome_status":null,"persistent_id":"","id":74277229,"location_subtype":"","month":"2019-05"},{"category":"anti-social-behaviour","location_type":"Force","location":{"latitude":"51.546782","street":{"id":968787,"name":"On or near Parking Area"},"longitude":"-0.054586"},"context":"","outcome_status":null,"persistent_id":"","id":74277231,"location_subtype":"","month":"2019-05"},{"category":"anti-social-behaviour","location_type":"Force","location":{"latitude":"51.546782","street":{"id":968787,"name":"On or near Parking Area"},"longitude":"-0.054586"},"context":"","outcome_status":null,"persistent_id":"","id":74277232,"location_subtype":"","month":"2019-05"},{"category":"anti-social-behaviour","location_type":"Force","location":{"latitude":"51.561592","street":{"id":971599,"name":"On or near Gunton Road"},"longitude":"-0.054531"},"context":"","outcome_status":null,"persistent_id":"","id":74277233,"location_subtype":"","month":"2019-05"},{"category":"anti-social-behaviour","location_type":"Force","location":{"latitude":"51.561592","street":{"id":971599,"name":"On or near Gunton Road"},"longitude":"-0.054531"},"context":"","outcome_status":null,"persistent_id":"","id":74277234,"location_subtype":"","month":"2019-05"},{"category":"anti-social-behaviour","location_type":"Force","location":{"latitude":"51.548461","street":{"id":968800,"name":"On or near Gould Terrace"},"longitude":"-0.055495"},"context":"","outcome_status":null,"persistent_id":"","id":74277237,"location_subtype":"","month":"2019-05"},{"category":"anti-social-behaviour","location_type":"Force","location":{"latitude":"51.548461","street":{"id":968800,"name":"On or near Gould Terrace"},"longitude":"-0.055495"},"context":"","outcome_status":null,"persistent_id":"","id":74277238,"location_subtype":"","month":"2019-05"},{"category":"anti-social-behaviour","location_type":"Force","location":{"latitude":"51.548461","street":{"id":968800,"name":"On or near Gould Terrace"},"longitude":"-0.055495"},"context":"","outcome_status":null,"persistent_id":"","id":74277239,"location_subtype":"","month":"2019-05"},{"category":"anti-social-behaviour","location_type":"Force","location":{"latitude":"51.548461","street":{"id":968800,"name":"On or near Gould Terrace"},"longitude":"-0.055495"},"context":"","outcome_status":null,"persistent_id":"","id":74277240,"location_subtype":"","month":"2019-05"},{"category":"anti-social-behaviour","location_type":"Force","location":{"latitude":"51.548461","street":{"id":968800,"name":"On or near Gould Terrace"},"longitude":"-0.055495"},"context":"","outcome_status":null,"persistent_id":"","id":74277241,"location_subtype":"","month":"2019-05"},{"category":"anti-social-behaviour","location_type":"Force","location":{"latitude":"51.548461","street":{"id":968800,"name":"On or near Gould Terrace"},"longitude":"-0.055495"},"context":"","outcome_status":null,"persistent_id":"","id":74277242,"location_subtype":"","month":"2019-05"},{"category":"anti-social-behaviour","location_type":"Force","location":{"latitude":"51.548461","street":{"id":968800,"name":"On or near Gould Terrace"},"longitude":"-0.055495"},"context":"","outcome_status":null,"persistent_id":"","id":74277244,"location_subtype":"","month":"2019-05"},{"category":"anti-social-behaviour","location_type":"Force","location":{"latitude":"51.544297","street":{"id":968854,"name":"On or near Mare Street"},"longitude":"-0.055471"},"context":"","outcome_status":null,"persistent_id":"","id":74277245,"location_subtype":"","month":"2019-05"},{"category":"anti-social-behaviour","location_type":"Force","location":{"latitude":"51.544297","street":{"id":968854,"name":"On or near Mare Street"},"longitude":"-0.055471"},"context":"","outcome_status":null,"persistent_id":"","id":74277246,"location_subtype":"","month":"2019-05"},{"category":"anti-social-behaviour","location_type":"Force","location":{"latitude":"51.544297","street":{"id":968854,"name":"On or near Mare Street"},"longitude":"-0.055471"},"context":"","outcome_status":null,"persistent_id":"","id":74277247,"location_subtype":"","month":"2019-05"},{"category":"anti-social-behaviour","location_type":"Force","location":{"latitude":"51.544297","street":{"id":968854,"name":"On or near Mare Street"},"longitude":"-0.055471"},"context":"","outcome_status":null,"persistent_id":"","id":74277248,"location_subtype":"","month":"2019-05"},{"category":"anti-social-behaviour","location_type":"Force","location":{"latitude":"51.544297","street":{"id":968854,"name":"On or near Mare Street"},"longitude":"-0.055471"},"context":"","outcome_status":null,"persistent_id":"","id":74277249,"location_subtype":"","month":"2019-05"},{"category":"anti-social-behaviour","location_type":"Force","location":{"latitude":"51.544297","street":{"id":968854,"name":"On or near Mare Street"},"longitude":"-0.055471"},"context":"","outcome_status":null,"persistent_id":"","id":74277250,"location_subtype":"","month":"2019-05"},{"category":"anti-social-behaviour","location_type":"Force","location":{"latitude":"51.544297","street":{"id":968854,"name":"On or near Mare Street"},"longitude":"-0.055471"},"context":"","outcome_status":null,"persistent_id":"","id":74277251,"location_subtype":"","month":"2019-05"},{"category":"anti-social-behaviour","location_type":"Force","location":{"latitude":"51.544297","street":{"id":968854,"name":"On or near Mare Street"},"longitude":"-0.055471"},"context":"","outcome_status":null,"persistent_id":"","id":74277252,"location_subtype":"","month":"2019-05"},{"category":"anti-social-behaviour","location_type":"Force","location":{"latitude":"51.544297","street":{"id":968854,"name":"On or near Mare Street"},"longitude":"-0.055471"},"context":"","outcome_status":null,"persistent_id":"","id":74277253,"location_subtype":"","month":"2019-05"},{"category":"anti-social-behaviour","location_type":"Force","location":{"latitude":"51.556564","street":{"id":968819,"name":"On or near Lower Clapton Road"},"longitude":"-0.055019"},"context":"","outcome_status":null,"persistent_id":"","id":74277254,"location_subtype":"","month":"2019-05"},{"category":"anti-social-behaviour","location_type":"Force","location":{"latitude":"51.559631","street":{"id":971588,"name":"On or near Prout Road"},"longitude":"-0.055033"},"context":"","outcome_status":null,"persistent_id":"","id":74277256,"location_subtype":"","month":"2019-05"},{"category":"anti-social-behaviour","location_type":"Force","location":{"latitude":"51.559631","street":{"id":971588,"name":"On or near Prout Road"},"longitude":"-0.055033"},"context":"","outcome_status":null,"persistent_id":"","id":74277257,"location_subtype":"","month":"2019-05"},{"category":"anti-social-behaviour","location_type":"Force","location":{"latitude":"51.556564","street":{"id":968819,"name":"On or near Lower Clapton Road"},"longitude":"-0.055019"},"context":"","outcome_status":null,"persistent_id":"","id":74277259,"location_subtype":"","month":"2019-05"},{"category":"anti-social-behaviour","location_type":"Force","location":{"latitude":"51.556564","street":{"id":968819,"name":"On or near Lower Clapton Road"},"longitude":"-0.055019"},"context":"","outcome_status":null,"persistent_id":"","id":74277260,"location_subtype":"","month":"2019-05"},{"category":"anti-social-behaviour","location_type":"Force","location":{"latitude":"51.556564","street":{"id":968819,"name":"On or near Lower Clapton Road"},"longitude":"-0.055019"},"context":"","outcome_status":null,"persistent_id":"","id":74277261,"location_subtype":"","month":"2019-05"},{"category":"anti-social-behaviour","location_type":"Force","location":{"latitude":"51.556564","street":{"id":968819,"name":"On or near Lower Clapton Road"},"longitude":"-0.055019"},"context":"","outcome_status":null,"persistent_id":"","id":74277262,"location_subtype":"","month":"2019-05"},{"category":"anti-social-behaviour","location_type":"Force","location":{"latitude":"51.558218","street":{"id":971659,"name":"On or near Pedestrian Subway"},"longitude":"-0.055497"},"context":"","outcome_status":null,"persistent_id":"","id":74277269,"location_subtype":"","month":"2019-05"},{"category":"anti-social-behaviour","location_type":"Force","location":{"latitude":"51.546368","street":{"id":968793,"name":"On or near Marvin Street"},"longitude":"-0.056738"},"context":"","outcome_status":null,"persistent_id":"","id":74277271,"location_subtype":"","month":"2019-05"},{"category":"anti-social-behaviour","location_type":"Force","location":{"latitude":"51.544370","street":{"id":968856,"name":"On or near Florfield Road"},"longitude":"-0.057198"},"context":"","outcome_status":null,"persistent_id":"","id":74277272,"location_subtype":"","month":"2019-05"},{"category":"anti-social-behaviour","location_type":"Force","location":{"latitude":"51.541962","street":{"id":964042,"name":"On or near London Lane"},"longitude":"-0.056753"},"context":"","outcome_status":null,"persistent_id":"","id":74277274,"location_subtype":"","month":"2019-05"},{"category":"anti-social-behaviour","location_type":"Force","location":{"latitude":"51.541962","street":{"id":964042,"name":"On or near London Lane"},"longitude":"-0.056753"},"context":"","outcome_status":null,"persistent_id":"","id":74277275,"location_subtype":"","month":"2019-05"},{"category":"anti-social-behaviour","location_type":"Force","location":{"latitude":"51.537964","street":{"id":964015,"name":"On or near Westgate Street"},"longitude":"-0.056981"},"context":"","outcome_status":null,"persistent_id":"","id":74277276,"location_subtype":"","month":"2019-05"},{"category":"anti-social-behaviour","location_type":"Force","location":{"latitude":"51.537964","street":{"id":964015,"name":"On or near Westgate Street"},"longitude":"-0.056981"},