[{"category":"anti-social-behaviour","location_type":"Force","location":{"latitude":"51.470361","street":{"id":944232,"name":"On or near Airport\/airfield"},"longitude":"-0.458471"},"context":"","outcome_status":null,"persistent_id":"","id":74286218,"location_subtype":"","month":"2019-05"},{"category":"anti-social-behaviour","location_type":"Force","location":{"latitude":"51.470361","street":{"id":944232,"name":"On or near Airport\/airfield"},"longitude":"-0.458471"},"context":"","outcome_status":null,"persistent_id":"","id":74286220,"location_subtype":"","month":"2019-05"},{"category":"anti-social-behaviour","location_type":"Force","location":{"latitude":"51.470361","street":{"id":944232,"name":"On or near Airport\/airfield"},"longitude":"-0.458471"},"context":"","outcome_status":null,"persistent_id":"","id":74286221,"location_subtype":"","month":"2019-05"},{"category":"anti-social-behaviour","location_type":"Force","location":{"latitude":"51.470361","street":{"id":944232,"name":"On or near Airport\/airfield"},"longitude":"-0.458471"},"context":"","outcome_status":null,"persistent_id":"","id":74286222,"location_subtype":"","month":"2019-05"},{"category":"anti-social-behaviour","location_type":"Force","location":{"latitude":"51.470361","street":{"id":944232,"name":"On or near Airport\/airfield"},"longitude":"-0.458471"},"context":"","outcome_status":null,"persistent_id":"","id":74286223,"location_subtype":"","month":"2019-05"},{"category":"anti-social-behaviour","location_type":"Force","location":{"latitude":"51.472106","street":{"id":944296,"name":"On or near Airport\/airfield"},"longitude":"-0.459147"},"context":"","outcome_status":null,"persistent_id":"","id":74286225,"location_subtype":"","month":"2019-05"},{"category":"anti-social-behaviour","location_type":"Force","location":{"latitude":"51.472106","street":{"id":944296,"name":"On or near Airport\/airfield"},"longitude":"-0.459147"},"context":"","outcome_status":null,"persistent_id":"","id":74286226,"location_subtype":"","month":"2019-05"},{"category":"anti-social-behaviour","location_type":"Force","location":{"latitude":"51.451699","street":{"id":938525,"name":"On or near Imperial Road"},"longitude":"-0.429078"},"context":"","outcome_status":null,"persistent_id":"","id":74288105,"location_subtype":"","month":"2019-05"},{"category":"anti-social-behaviour","location_type":"Force","location":{"latitude":"51.456535","street":{"id":938577,"name":"On or near Peninsular Close"},"longitude":"-0.432309"},"context":"","outcome_status":null,"persistent_id":"","id":74288107,"location_subtype":"","month":"2019-05"},{"category":"anti-social-behaviour","location_type":"Force","location":{"latitude":"51.454985","street":{"id":938581,"name":"On or near New Road"},"longitude":"-0.432031"},"context":"","outcome_status":null,"persistent_id":"","id":74288108,"location_subtype":"","month":"2019-05"},{"category":"anti-social-behaviour","location_type":"Force","location":{"latitude":"51.454985","street":{"id":938581,"name":"On or near New Road"},"longitude":"-0.432031"},"context":"","outcome_status":null,"persistent_id":"","id":74288109,"location_subtype":"","month":"2019-05"},{"category":"anti-social-behaviour","location_type":"Force","location":{"latitude":"51.453975","street":{"id":938578,"name":"On or near Page Road"},"longitude":"-0.432526"},"context":"","outcome_status":null,"persistent_id":"","id":74288111,"location_subtype":"","month":"2019-05"},{"category":"anti-social-behaviour","location_type":"Force","location":{"latitude":"51.453975","street":{"id":938578,"name":"On or near Page Road"},"longitude":"-0.432526"},"context":"","outcome_status":null,"persistent_id":"","id":74288113,"location_subtype":"","month":"2019-05"},{"category":"anti-social-behaviour","location_type":"Force","location":{"latitude":"51.453975","street":{"id":938578,"name":"On or near Page Road"},"longitude":"-0.432526"},"context":"","outcome_status":null,"persistent_id":"","id":74288114,"location_subtype":"","month":"2019-05"},{"category":"anti-social-behaviour","location_type":"Force","location":{"latitude":"51.453975","street":{"id":938578,"name":"On or near Page Road"},"longitude":"-0.432526"},"context":"","outcome_status":null,"persistent_id":"","id":74288115,"location_subtype":"","month":"2019-05"},{"category":"anti-social-behaviour","location_type":"Force","location":{"latitude":"51.453975","street":{"id":938578,"name":"On or near Page Road"},"longitude":"-0.432526"},"context":"","outcome_status":null,"persistent_id":"","id":74288116,"location_subtype":"","month":"2019-05"},{"category":"anti-social-behaviour","location_type":"Force","location":{"latitude":"51.459363","street":{"id":944227,"name":"On or near Stratford Road"},"longitude":"-0.446808"},"context":"","outcome_status":null,"persistent_id":"","id":74286192,"location_subtype":"","month":"2019-05"},{"category":"anti-social-behaviour","location_type":"Force","location":{"latitude":"51.459363","street":{"id":944227,"name":"On or near Stratford Road"},"longitude":"-0.446808"},"context":"","outcome_status":null,"persistent_id":"","id":74286194,"location_subtype":"","month":"2019-05"},{"category":"anti-social-behaviour","location_type":"Force","location":{"latitude":"51.459363","street":{"id":944227,"name":"On or near Stratford Road"},"longitude":"-0.446808"},"context":"","outcome_status":null,"persistent_id":"","id":74286195,"location_subtype":"","month":"2019-05"},{"category":"anti-social-behaviour","location_type":"Force","location":{"latitude":"51.459363","street":{"id":944227,"name":"On or near Stratford Road"},"longitude":"-0.446808"},"context":"","outcome_status":null,"persistent_id":"","id":74286196,"location_subtype":"","month":"2019-05"},{"category":"anti-social-behaviour","location_type":"Force","location":{"latitude":"51.459363","street":{"id":944227,"name":"On or near Stratford Road"},"longitude":"-0.446808"},"context":"","outcome_status":null,"persistent_id":"","id":74286197,"location_subtype":"","month":"2019-05"},{"category":"anti-social-behaviour","location_type":"Force","location":{"latitude":"51.459363","street":{"id":944227,"name":"On or near Stratford Road"},"longitude":"-0.446808"},"context":"","outcome_status":null,"persistent_id":"","id":74286198,"location_subtype":"","month":"2019-05"},{"category":"anti-social-behaviour","location_type":"Force","location":{"latitude":"51.469708","street":{"id":944231,"name":"On or near Airport\/airfield"},"longitude":"-0.451842"},"context":"","outcome_status":null,"persistent_id":"","id":74286201,"location_subtype":"","month":"2019-05"},{"category":"anti-social-behaviour","location_type":"Force","location":{"latitude":"51.469708","street":{"id":944231,"name":"On or near Airport\/airfield"},"longitude":"-0.451842"},"context":"","outcome_status":null,"persistent_id":"","id":74286202,"location_subtype":"","month":"2019-05"},{"category":"anti-social-behaviour","location_type":"Force","location":{"latitude":"51.469708","street":{"id":944231,"name":"On or near Airport\/airfield"},"longitude":"-0.451842"},"context":"","outcome_status":null,"persistent_id":"","id":74286203,"location_subtype":"","month":"2019-05"},{"category":"anti-social-behaviour","location_type":"Force","location":{"latitude":"51.469708","street":{"id":944231,"name":"On or near Airport\/airfield"},"longitude":"-0.451842"},"context":"","outcome_status":null,"persistent_id":"","id":74286204,"location_subtype":"","month":"2019-05"},{"category":"anti-social-behaviour","location_type":"Force","location":{"latitude":"51.469708","street":{"id":944231,"name":"On or near Airport\/airfield"},"longitude":"-0.451842"},"context":"","outcome_status":null,"persistent_id":"","id":74286205,"location_subtype":"","month":"2019-05"},{"category":"anti-social-behaviour","location_type":"Force","location":{"latitude":"51.469708","street":{"id":944231,"name":"On or near Airport\/airfield"},"longitude":"-0.451842"},"context":"","outcome_status":null,"persistent_id":"","id":74286206,"location_subtype":"","month":"2019-05"},{"category":"anti-social-behaviour","location_type":"Force","location":{"latitude":"51.472100","street":{"id":944280,"name":"On or near Parking Area"},"longitude":"-0.451861"},"context":"","outcome_status":null,"persistent_id":"","id":74286207,"location_subtype":"","month":"2019-05"},{"category":"anti-social-behaviour","location_type":"Force","location":{"latitude":"51.470876","street":{"id":944287,"name":"On or near Control Tower Road"},"longitude":"-0.453155"},"context":"","outcome_status":null,"persistent_id":"","id":74286208,"location_subtype":"","month":"2019-05"},{"category":"anti-social-behaviour","location_type":"Force","location":{"latitude":"51.470876","street":{"id":944287,"name":"On or near Control Tower Road"},"longitude":"-0.453155"},"context":"","outcome_status":null,"persistent_id":"","id":74286209,"location_subtype":"","month":"2019-05"},{"category":"anti-social-behaviour","location_type":"Force","location":{"latitude":"51.470876","street":{"id":944287,"name":"On or near Control Tower Road"},"longitude":"-0.453155"},"context":"","outcome_status":null,"persistent_id":"","id":74286211,"location_subtype":"","month":"2019-05"},{"category":"anti-social-behaviour","location_type":"Force","location":{"latitude":"51.470876","street":{"id":944287,"name":"On or near Control Tower Road"},"longitude":"-0.453155"},"context":"","outcome_status":null,"persistent_id":"","id":74286212,"location_subtype":"","month":"2019-05"},{"category":"anti-social-behaviour","location_type":"Force","location":{"latitude":"51.469778","street":{"id":944224,"name":"On or near Parking Area"},"longitude":"-0.454445"},"context":"","outcome_status":null,"persistent_id":"","id":74286213,"location_subtype":"","month":"2019-05"},{"category":"anti-social-behaviour","location_type":"Force","location":{"latitude":"51.455409","street":{"id":938511,"name":"On or near Sanctuary Road"},"longitude":"-0.455218"},"context":"","outcome_status":null,"persistent_id":"","id":74286214,"location_subtype":"","month":"2019-05"},{"category":"anti-social-behaviour","location_type":"Force","location":{"latitude":"51.470361","street":{"id":944232,"name":"On or near Airport\/airfield"},"longitude":"-0.458471"},"context":"","outcome_status":null,"persistent_id":"","id":74286215,"location_subtype":"","month":"2019-05"},{"category":"anti-social-behaviour","location_type":"Force","location":{"latitude":"51.470361","street":{"id":944232,"name":"On or near Airport\/airfield"},"longitude":"-0.458471"},"context":"","outcome_status":null,"persistent_id":"","id":74286216,"location_subtype":"","month":"2019-05"},{"category":"anti-social-behaviour","location_type":"Force","location":{"latitude":"51.470361","street":{"id":944232,"name":"On or near Airport\/airfield"},"longitude":"-0.458471"},"context":"","outcome_status":null,"persistent_id":"","id":74286219,"location_subtype":"","month":"2019-05"},{"category":"anti-social-behaviour","location_type":"Force","location":{"latitude":"51.459363","street":{"id":944227,"name":"On or near Stratford Road"},"longitude":"-0.446808"},"context":"","outcome_status":null,"persistent_id":"","id":74286193,"location_subtype":"","month":"2019-05"},{"category":"anti-social-behaviour","location_type":"Force","location":{"latitude":"51.469708","street":{"id":944231,"name":"On or near Airport\/airfield"},"longitude":"-0.451842"},"context":"","outcome_status":null,"persistent_id":"","id":74286199,"location_subtype":"","month":"2019-05"},{"category":"anti-social-behaviour","location_type":"Force","location":{"latitude":"51.469708","street":{"id":944231,"name":"On or near Airport\/airfield"},"longitude":"-0.451842"},"context":"","outcome_status":null,"persistent_id":"","id":74286200,"location_subtype":"","month":"2019-05"},{"category":"anti-social-behaviour","location_type":"Force","location":{"latitude":"51.470876","street":{"id":944287,"name":"On or near Control Tower Road"},"longitude":"-0.453155"},"context":"","outcome_status":null,"persistent_id":"","id":74286210,"location_subtype":"","month":"2019-05"},{"category":"anti-social-behaviour","location_type":"Force","location":{"latitude":"51.470361","street":{"id":944232,"name":"On or near Airport\/airfield"},"longitude":"-0.458471"},"context":"","outcome_status":null,"persistent_id":"","id":74286217,"location_subtype":"","month":"2019-05"},{"category":"anti-social-behaviour","location_type":"Force","location":{"latitude":"51.457453","street":{"id":1160874,"name":"On or near Bedfont Road"},"longitude":"-0.465009"},"context":"","outcome_status":null,"persistent_id":"","id":74286227,"location_subtype":"","month":"2019-05"},{"category":"anti-social-behaviour","location_type":"Force","location":{"latitude":"51.453975","street":{"id":938578,"name":"On or near Page Road"},"longitude":"-0.432526"},"context":"","outcome_status":null,"persistent_id":"","id":74288110,"location_subtype":"","month":"2019-05"},{"category":"anti-social-behaviour","location_type":"Force","location":{"latitude":"51.453975","street":{"id":938578,"name":"On or near Page Road"},"longitude":"-0.432526"},"context":"","outcome_status":null,"persistent_id":"","id":74288112,"location_subtype":"","month":"2019-05"},{"category":"anti-social-behaviour","location_type":"Force","location":{"latitude":"51.453863","street":{"id":938583,"name":"On or near Lewin Terrace"},"longitude":"-0.433581"},"context":"","outcome_status":null,"persistent_id":"","id":74288118,"location_subtype":"","month":"2019-05"},{"category":"anti-social-behaviour","location_type":"Force","location":{"latitude":"51.453863","street":{"id":938583,"name":"On or near Lewin Terrace"},"longitude":"-0.433581"},"context":"","outcome_status":null,"persistent_id":"","id":74288120,"location_subtype":"","month":"2019-05"},{"category":"anti-social-behaviour","location_type":"Force","location":{"latitude":"51.447982","street":{"id":938548,"name":"On or near Woolridge Close"},"longitude":"-0.443640"},"context":"","outcome_status":null,"persistent_id":"","id":74288131,"location_subtype":"","month":"2019-05"},{"category":"anti-social-behaviour","location_type":"Force","location":{"latitude":"51.447982","street":{"id":938548,"name":"On or near Woolridge Close"},"longitude":"-0.443640"},"context":"","outcome_status":null,"persistent_id":"","id":74288130,"location_subtype":"","month":"2019-05"},{"category":"anti-social-behaviour","location_type":"Force","location":{"latitude":"51.455434","street":{"id":938579,"name":"On or near North Road"},"longitude":"-0.435384"},"context":"","outcome_status":null,"persistent_id":"","id":74288124,"location_subtype":"","month":"2019-05"},{"category":"anti-social-behaviour","location_type":"Force","location":{"latitude":"51.450181","street":{"id":938568,"name":"On or near Elm Road"},"longitude":"-0.437247"},"context":"","outcome_status":null,"persistent_id":"","id":74288125,"location_subtype":"","month":"2019-05"},{"category":"anti-social-behaviour","location_type":"Force","location":{"latitude":"51.450688","street":{"id":938558,"name":"On or near Natalie Close"},"longitude":"-0.438885"},"context":"","outcome_status":null,"persistent_id":"","id":74288126,"location_subtype":"","month":"2019-05"},{"category":"anti-social-behaviour","location_type":"Force","location":{"latitude":"51.452529","street":{"id":938550,"name":"On or near Staines Road"},"longitude":"-0.433295"},"context":"","outcome_status":null,"persistent_id":"","id":74288123,"location_subtype":"","month":"2019-05"},{"category":"anti-social-behaviour","location_type":"Force","location":{"latitude":"51.457221","street":{"id":944219,"name":"On or near Marriott Close"},"longitude":"-0.433149"},"context":"","outcome_status":null,"persistent_id":"","id":74288122,"location_subtype":"","month":"2019-05"},{"category":"anti-social-behaviour","location_type":"Force","location":{"latitude":"51.453863","street":{"id":938583,"name":"On or near Lewin Terrace"},"longitude":"-0.433581"},"context":"","outcome_status":null,"persistent_id":"","id":74288121,"location_subtype":"","month":"2019-05"},{"category":"anti-social-behaviour","location_type":"Force","location":{"latitude":"51.453863","street":{"id":938583,"name":"On or near Lewin Terrace"},"longitude":"-0.433581"},"context":"","outcome_status":null,"persistent_id":"","id":74288119,"location_subtype":"","month":"2019-05"},{"category":"anti-social-behaviour","location_type":"Force","location":{"latitude":"51.453975","street":{"id":938578,"name":"On or near Page Road"},"longitude":"-0.432526"},"context":"","outcome_status":null,"persistent_id":"","id":74288117,"location_subtype":"","month":"2019-05"},{"category":"anti-social-behaviour","location_type":"Force","location":{"latitude":"51.457814","street":{"id":944217,"name":"On or near Swansea Road"},"longitude":"-0.440556"},"context":"","outcome_status":null,"persistent_id":"","id":74286183,"location_subtype":"","month":"2019-05"},{"category":"anti-social-behaviour","location_type":"Force","location":{"latitude":"51.457814","street":{"id":944217,"name":"On or near Swansea Road"},"longitude":"-0.440556"},"context":"","outcome_status":null,"persistent_id":"","id":74286187,"location_subtype":"","month":"2019-05"},{"category":"anti-social-behaviour","location_type":"Force","location":{"latitude":"51.459363","street":{"id":944227,"name":"On or near Stratford Road"},"longitude":"-0.446808"},"context":"","outcome_status":null,"persistent_id":"","id":74286191,"location_subtype":"","month":"2019-05"},{"category":"bicycle-theft","location_type":"Force","location":{"latitude":"51.447982","street":{"id":938548,"name":"On or near Woolridge Close"},"longitude":"-0.443640"},"context":"","outcome_status":{"category":"Status update unavailable","date":"2019-09"},"persistent_id":"6659398a78a96bc75f1e1b56c5f4d498bee6a099e8707cd8f8786371524f4e62","id":74372043,"location_subtype":"","month":"2019-05"},{"category":"burglary","location_type":"Force","location":{"latitude":"51.455270","street":{"id":938580,"name":"On or near North Close"},"longitude":"-0.435188"},"context":"","outcome_status":{"category":"Status update unavailable","date":"2019-09"},"persistent_id":"9030b99b5a2fc641e448e9a685842b5742c9f49c3be77a6cd5bc06d74e43d1f4","id":74295187,"location_subtype":"","month":"2019-05"},{"category":"burglary","location_type":"Force","location":{"latitude":"51.471113","street":{"id":944290,"name":"On or near Canberra Road"},"longitude":"-0.456819"},"context":"","outcome_status":{"category":"Court result unavailable","date":"2020-01"},"persistent_id":"9bcd3f8482a2982a9f72cf30ee2744d6e08859f44c0fe1482f3011a1479fa155","id":74314708,"location_subtype":"","month":"2019-05"},{"category":"burglary","location_type":"Force","location":{"latitude":"51.462263","street":{"id":944207,"name":"On or near Wellington Road"},"longitude":"-0.428283"},"context":"","outcome_status":{"category":"Status update unavailable","date":"2019-09"},"persistent_id":"659053cc8f467bebafdffe385b3793a6ebf487979944be07b5fd059540cb244c","id":74312736,"location_subtype":"","month":"2019-05"},{"category":"burglary","location_type":"Force","location":{"latitude":"51.459843","street":{"id":944223,"name":"On or near Edward Road"},"longitude":"-0.432239"},"context":"","outcome_status":{"category":"Status update unavailable","date":"2019-09"},"persistent_id":"a09da7db33e675d762b79c5ff99b480c539e75205c8fdd73d268d6908e3f9f6e","id":74357867,"location_subtype":"","month":"2019-05"},{"category":"burglary","location_type":"Force","location":{"latitude":"51.449061","street":{"id":938562,"name":"On or near Hatchett Road"},"longitude":"-0.442337"},"context":"","outcome_status":{"category":"Status update unavailable","date":"2019-09"},"persistent_id":"6c8e4f42649ccea055bc84cc07136412d82f56a2fdca38fd04a81db2c5dd6300","id":74331843,"location_subtype":"","month":"2019-05"},{"category":"burglary","location_type":"Force","location":{"latitude":"51.449061","street":{"id":938562,"name":"On or near Hatchett Road"},"longitude":"-0.442337"},"context":"","outcome_status":{"category":"Status update unavailable","date":"2019-09"},"persistent_id":"2d6a7fa03777629b81d469fa6875c7966c258014afa8923055f1e7ddaa94eedf","id":74295360,"location_subtype":"","month":"2019-05"},{"category":"criminal-damage-arson","location_type":"Force","location":{"latitude":"51.450181","street":{"id":938568,"name":"On or near Elm Road"},"longitude":"-0.437247"},"context":"","outcome_status":{"category":"Status update unavailable","date":"2019-09"},"persistent_id":"0e7da8b6d080808c22507e8fc5d08dce096aff727db7717f68d97348f72c6fe8","id":74294771,"location_subtype":"","month":"2019-05"},{"category":"criminal-damage-arson","location_type":"Force","location":{"latitude":"51.455589","street":{"id":938582,"name":"On or near Montrose Road"},"longitude":"-0.437580"},"context":"","outcome_status":{"category":"Status update unavailable","date":"2019-09"},"persistent_id":"97ec97bf30486b589cbd83c67d9623cfb36857c8cfb60e64f259386e13904f78","id":74292938,"location_subtype":"","month":"2019-05"},{"category":"criminal-damage-arson","location_type":"Force","location":{"latitude":"51.472167","street":{"id":944285,"name":"On or near Cromer Road West"},"longitude":"-0.456280"},"context":"","outcome_status":{"category":"Offender given conditional discharge","date":"2019-05"},"persistent_id":"ade51f647cbac7eec8debf7ec4dc59a542ad09fcaccad1c260704b44b2863d20","id":74350334,"location_subtype":"","month":"2019-05"},{"category":"criminal-damage-arson","location_type":"Force","location":{"latitude":"51.451253","street":{"id":938573,"name":"On or near Petrol Station"},"longitude":"-0.438103"},"context":"","outcome_status":{"category":"Investigation complete; no suspect identified","date":"2019-06"},"persistent_id":"a10e22f629f9a8eb3e87a402bc3f0fbe9835b707d9c3d4149e9300ecd378d989","id":74331162,"location_subtype":"","month":"2019-05"},{"category":"criminal-damage-arson","location_type":"Force","location":{"latitude":"51.455434","street":{"id":938579,"name":"On or near North Road"},"longitude":"-0.435384"},"context":"","outcome_status":{"category":"Status update unavailable","date":"2019-09"},"persistent_id":"bb29a338220542489179744c04302eb88080e4027a5e17b5841d5dd11ea0234d","id":74317801,"location_subtype":"","month":"2019-05"},{"category":"criminal-damage-arson","location_type":"Force","location":{"latitude":"51.456095","street":{"id":938513,"name":"On or near Beacon Road"},"longitude":"-0.454720"},"context":"","outcome_status":{"category":"Status update unavailable","date":"2019-09"},"persistent_id":"b8bf9c7988ef20320b30a71dace1462fa9b19662f5ec342a6c1d121c323b20a7","id":74325459,"location_subtype":"","month":"2019-05"},{"category":"drugs","location_type":"Force","location":{"latitude":"51.453863","street":{"id":938583,"name":"On or near Lewin Terrace"},"longitude":"-0.433581"},"context":"","outcome_status":{"category":"Local resolution","date":"2019-05"},"persistent_id":"4c2648526fae7568c87384d98e5837f3aa5cbd629377d4e7242fffe98eac1094","id":74350573,"location_subtype":"","month":"2019-05"},{"category":"drugs","location_type":"Force","location":{"latitude":"51.447982","street":{"id":938548,"name":"On or near Woolridge Close"},"longitude":"-0.443640"},"context":"","outcome_status":{"category":"Offender given a caution","date":"2019-05"},"persistent_id":"86c214f0fea79a0c72d740b2d2c88d92e24719e659ad76dae94a1ce632b5805d","id":74303423,"location_subtype":"","month":"2019-05"},{"category":"drugs","location_type":"Force","location":{"latitude":"51.453112","street":{"id":938537,"name":"On or near Supermarket"},"longitude":"-0.429850"},"context":"","outcome_status":{"category":"Local resolution","date":"2019-05"},"persistent_id":"043a2c13dd1e21b27181496b756016018d16605fc6e9cc81110529b0a985f445","id":74327403,"location_subtype":"","month":"2019-05"},{"category":"drugs","location_type":"Force","location":{"latitude":"51.453112","street":{"id":938537,"name":"On or near Supermarket"},"longitude":"-0.429850"},"context":"","outcome_status":{"category":"Local resolution","date":"2020-03"},"persistent_id":"37107241346dbd1a20b932f105b71fa64905bc31101028a6be0fdabe28b36118","id":74325359,"location_subtype":"","month":"2019-05"},{"category":"drugs","location_type":"Force","location":{"latitude":"51.453076","street":{"id":938526,"name":"On or near Gould Road"},"longitude":"-0.427836"},"context":"","outcome_status":{"category":"Local resolution","date":"2019-05"},"persistent_id":"b01d4830a58b1c88e795ac607619d19f1e0a417346d401f109ba34eb9bd3ce73","id":74330383,"location_subtype":"","month":"2019-05"},{"category":"drugs","location_type":"Force","location":{"latitude":"51.469708","street":{"id":944231,"name":"On or near Airport\/airfield"},"longitude":"-0.451842"},"context":"","outcome_status":{"category":"Local resolution","date":"2019-05"},"persistent_id":"71a6d4caab7fa5bbaefebff8821817732ffaae97392cf8e94cf56f9d3689d742","id":74292790,"location_subtype":"","month":"2019-05"},{"category":"drugs","location_type":"Force","location":{"latitude":"51.451121","street":{"id":938551,"name":"On or near St Mary's Drive"},"longitude":"-0.441662"},"context":"","outcome_status":{"category":"Local resolution","date":"2019-05"},"persistent_id":"460cdb569466cf8001ac80ce3634cab70790621886aa5c1a888b909c66b2f04b","id":74346267,"location_subtype":"","month":"2019-05"},{"category":"drugs","location_type":"Force","location":{"latitude":"51.453975","street":{"id":938578,"name":"On or near Page Road"},"longitude":"-0.432526"},"context":"","outcome_status":{"category":"Local resolution","date":"2019-05"},"persistent_id":"f6b8de303ff2e200ab10cbb903d26755dae8ae34585b07357072c52e5798cc4f","id":74294791,"location_subtype":"","month":"2019-05"},{"category":"drugs","location_type":"Force","location":{"latitude":"51.452657","street":{"id":938516,"name":"On or near Warfield Road"},"longitude":"-0.428743"},"context":"","outcome_status":{"category":"Offender given penalty notice","date":"2019-05"},"persistent_id":"91ee9c937da8d9f0906c4fed0324cc00e0c0a71c39268daf0a9c3c1dee22bc28","id":74297033,"location_subtype":"","month":"2019-05"},{"category":"other-theft","location_type":"Force","location":{"latitude":"51.469708","street":{"id":944231,"name":"On or near Airport\/airfield"},"longitude":"-0.451842"},"context":"","outcome_status":{"category":"Status update unavailable","date":"2019-09"},"persistent_id":"77a03f5bd4e1b63acad2b9facc69e9c0fae06ea9839b51bceb310c9cf15807c1","id":74334327,"location_subtype":"","month":"2019-05"},{"category":"other-theft","location_type":"Force","location":{"latitude":"51.457453","street":{"id":1160874,"name":"On or near Bedfont Road"},"longitude":"-0.465009"},"context":"","outcome_status":{"category":"Status update unavailable","date":"2019-09"},"persistent_id":"e15e29b16e73a5539521fcece781430e00c6c78c72434c857ad493495e4d5277","id":74304342,"location_subtype":"","month":"2019-05"},{"category":"other-theft","location_type":"Force","location":{"latitude":"51.469708","street":{"id":944231,"name":"On or near Airport\/airfield"},"longitude":"-0.451842"},"context":"","outcome_status":{"category":"Status update unavailable","date":"2019-09"},"persistent_id":"b1740355cd2a739930eee42e1fb7012b5e3580ffb9cf34314cbdd28e588b18e8","id":74306939,"location_subtype":"","month":"2019-05"},{"category":"other-theft","location_type":"Force","location":{"latitude":"51.471113","street":{"id":944290,"name":"On or near Canberra Road"},"longitude":"-0.456819"},"context":"","outcome_status":{"category":"Status update unavailable","date":"2019-09"},"persistent_id":"a957ae0b11c429a04f35b65d38c9ba7df587fe464f8dd913f54ff41415fc01ba","id":74310992,"location_subtype":"","month":"2019-05"},{"category":"other-theft","location_type":"Force","location":{"latitude":"51.469708","street":{"id":944231,"name":"On or near Airport\/airfield"},"longitude":"-0.451842"},"context":"","outcome_status":{"category":"Status update unavailable","date":"2019-09"},"persistent_id":"918f3fbc934685d285e84b2e4d817e2c18b025908d0f26343c6eb7a376c78608","id":74309658,"location_subtype":"","month":"2019-05"},{"category":"other-theft","location_type":"Force","location":{"latitude":"51.469708","street":{"id":944231,"name":"On or near Airport\/airfield"},"longitude":"-0.451842"},"context":"","outcome_status":{"category":"Status update unavailable","date":"2019-09"},"persistent_id":"30c21d7ff0f7d3101154e38eb8646474ae6a442c94d7598a24236f6c0606e24e","id":74342296,"location_subtype":"","month":"2019-05"},{"category":"other-theft","location_type":"Force","location":{"latitude":"51.469708","street":{"id":944231,"name":"On or near Airport\/airfield"},"longitude":"-0.451842"},"context":"","outcome_status":{"category":"Status update unavailable","date":"2019-09"},"persistent_id":"799a3f3665f064c245168bd340c2164344e7c7351d90fdaf5282961b1424ea21","id":74348455,"location_subtype":"","month":"2019-05"},{"category":"other-theft","location_type":"Force","location":{"latitude":"51.469708","street":{"id":944231,"name":"On or near Airport\/airfield"},"longitude":"-0.451842"},"context":"","outcome_status":{"category":"Offender given a caution","date":"2019-06"},"persistent_id":"9834a176b4cd2e7c9348848ae431125ab920657aecd329749bd24c5f663a0ba1","id":74367954,"location_subtype":"","month":"2019-05"},{"category":"other-theft","location_type":"Force","location":{"latitude":"51.451950","street":{"id":1160865,"name":"On or near Sports\/recreation Area"},"longitude":"-0.462272"},"context":"","outcome_status":{"category":"Investigation complete; no suspect identified","date":"2019-05"},"persistent_id":"ecaa4d187c5a54168b278ebeb9acd8aa572ef08832ad48cd752a3407ae23956a","id":74504985,"location_subtype":"","month":"2019-05"},{"category":"other-theft","location_type":"Force","location":{"latitude":"51.469708","street":{"id":944231,"name":"On or near Airport\/airfield"},"longitude":"-0.451842"},"context":"","outcome_status":{"category":"Status update unavailable","date":"2019-09"},"persistent_id":"23efdf615c73da67401d9727c90d93cca9ae86c0ae2b00333c6297cea383c231","id":74308244,"location_subtype":"","month":"2019-05"},{"category":"other-theft","location_type":"Force","location":{"latitude":"51.469708","street":{"id":944231,"name":"On or near Airport\/airfield"},"longitude":"-0.451842"},"context":"","outcome_status":{"category":"Status update unavailable","date":"2019-09"},"persistent_id":"3ebcb563b14e52fc9b34cda70ad95f394ce68c43683f81f3eb429a1ad9c521e1","id":74290509,"location_subtype":"","month":"2019-05"},{"category":"other-theft","location_type":"Force","location":{"latitude":"51.469708","street":{"id":944231,"name":"On or near Airport\/airfield"},"longitude":"-0.451842"},"context":"","outcome_status":{"category":"Status update unavailable","date":"2019-09"},"persistent_id":"4a76f70b661081f82fc0c080e08fc878d333d00368b4aabd0bd7b662a6fea38a","id":74298033,"location_subtype":"","month":"2019-05"},{"category":"other-theft","location_type":"Force","location":{"latitude":"51.469708","street":{"id":944231,"name":"On or near Airport\/airfield"},"longitude":"-0.451842"},"context":"","outcome_status":{"category":"Status update unavailable","date":"2019-09"},"persistent_id":"b74c573b6e034acd331cb8da1239b0ad208ed351e7653afeb557c311a7e629f1","id":74300864,"location_subtype":"","month":"2019-05"},{"category":"other-theft","location_type":"Force","location":{"latitude":"51.460302","street":{"id":944218,"name":"On or near Orchard Avenue"},"longitude":"-0.434253"},"context":"","outcome_status":{"category":"Status update unavailable","date":"2019-09"},"persistent_id":"2031f2ce8e6290e2900f4195bcaf1928c22d505a9aee1090d1a68afc6100c3cf","id":74293109,"location_subtype":"","month":"2019-05"},{"category":"other-theft","location_type":"Force","location":{"latitude":"51.470924","street":{"id":944281,"name":"On or near Parking Area"},"longitude":"-0.456782"},"context":"","outcome_status":{"category":"Status update unavailable","date":"2019-09"},"persistent_id":"a02336d2b396cf6090a5365d2a110d9677e1c8faf5870cbe8e7a8234c79795a8","id":74293544,"location_subtype":"","month":"2019-05"},{"category":"other-theft","location_type":"Force","location":{"latitude":"51.453669","street":{"id":938587,"name":"On or near Benedict Drive"},"longitude":"-0.437862"},"context":"","outcome_status":{"category":"Status update unavailable","date":"2019-09"},"persistent_id":"cd56d5c3976e865d3ce90a9b267b79e13c10217899920d480a8214a3fb98ad20","id":74319834,"location_subtype":"","month":"2019-05"},{"category":"other-theft","location_type":"Force","location":{"latitude":"51.469708","street":{"id":944231,"name":"On or near Airport\/airfield"},"longitude":"-0.451842"},"context":"","outcome_status":{"category":"Status update unavailable","date":"2019-09"},"persistent_id":"fe80492eeddc7049051ef85a14f3c2fa5499f60f2ab699bec27fc505f51e29a0","id":74325187,"location_subtype":"","month":"2019-05"},{"category":"other-theft","location_type":"Force","location":{"latitude":"51.448356","street":{"id":938507,"name":"On or near Petrol Station"},"longitude":"-0.447484"},"context":"","outcome_status":{"category":"Status update unavailable","date":"2019-09"},"persistent_id":"dbb22301cb9f56deab85a9c909a4ec6b007b2ddb466091395b8e486402c72d63","id":74314666,"location_subtype":"","month":"2019-05"},{"category":"other-theft","location_type":"Force","location":{"latitude":"51.469708","street":{"id":944231,"name":"On or near Airport\/airfield"},"longitude":"-0.451842"},"context":"","outcome_status":{"category":"Status update unavailable","date":"2019-09"},"persistent_id":"905f4c028348295ef5141cf1dc69b7995fc9f51b2f8a60a6ff6fa2855d89f09e","id":74315455,"location_subtype":"","month":"2019-05"},{"category":"other-theft","location_type":"Force","location":{"latitude":"51.469708","street":{"id":944231,"name":"On or near Airport\/airfield"},"longitude":"-0.451842"},"context":"","outcome_status":{"category":"Status update unavailable","date":"2019-09"},"persistent_id":"34b95d97ffd3afdeed2a0104bf78a7ce2164640761e8dc59d4c33c6995f780c6","id":74313945,"location_subtype":"","month":"2019-05"},{"category":"other-theft","location_type":"Force","location":{"latitude":"51.449079","street":{"id":938506,"name":"On or near Bedfont Road"},"longitude":"-0.446409"},"context":"","outcome_status":{"category":"Status update unavailable","date":"2019-09"},"persistent_id":"1ad8274283831a88717b460434b539a67ab1eb1a43731c2b531d0d58c438a774","id":74318407,"location_subtype":"","month":"2019-05"},{"category":"other-theft","location_type":"Force","location":{"latitude":"51.453076","street":{"id":938526,"name":"On or near Gould Road"},"longitude":"-0.427836"},"context":"","outcome_status":{"category":"Status update unavailable","date":"2019-09"},"persistent_id":"104cdbe2549f002d20b227871e1acbc2a7e1a65706f21bbe39a60285b132f9bf","id":74329526,"location_subtype":"","month":"2019-05"},{"category":"other-theft","location_type":"Force","location":{"latitude":"51.469708","street":{"id":944231,"name":"On or near Airport\/airfield"},"longitude":"-0.451842"},"context":"","outcome_status":{"category":"Status update unavailable","date":"2019-09"},"persistent_id":"88e9f11392efd0a65ae327e5c1f0c31c259701f847473c068398e1b17354ab04","id":74328978,"location_subtype":"","month":"2019-05"},{"category":"other-theft","location_type":"Force","location":{"latitude":"51.448356","street":{"id":938507,"name":"On or near Petrol Station"},"longitude":"-0.447484"},"context":"","outcome_status":{"category":"Status update unavailable","date":"2019-09"},"persistent_id":"e65ea3fc990fb6f8858396a6e4a765598eec7e6f5ea5cf8675e4ef4f75415a0d","id":74336792,"location_subtype":"","month":"2019-05"},{"category":"other-theft","location_type":"Force","location":{"latitude":"51.471113","street":{"id":944290,"name":"On or near Canberra Road"},"longitude":"-0.456819"},"context":"","outcome_status":{"category":"Status update unavailable","date":"2019-09"},"persistent_id":"468e1a1032c8b6d4f087a29363e102e2f41dd873a75e486733da3aad01f9ee91","id":74331551,"location_subtype":"","month":"2019-05"},{"category":"other-theft","location_type":"Force","location":{"latitude":"51.470924","street":{"id":944281,"name":"On or near Parking Area"},"longitude":"-0.456782"},"context":"","outcome_status":{"category":"Status update unavailable","date":"2019-09"},"persistent_id":"0b8447bcc3cb7e3f11589723d779e8981d4edbd28a3cebf827ada34bd2b38d44","id":74334326,"location_subtype":"","month":"2019-05"},{"category":"other-theft","location_type":"Force","location":{"latitude":"51.471932","street":{"id":944294,"name":"On or near Camberley Road"},"longitude":"-0.455481"},"context":"","outcome_status":{"category":"Status update unavailable","date":"2019-09"},"persistent_id":"3384044f29748c3f10eab2bf89daf76ecd622f866a1c0f7e6178c2c7a38c0e60","id":74334654,"location_subtype":"","month":"2019-05"},{"category":"other-theft","location_type":"Force","location":{"latitude":"51.469708","street":{"id":944231,"name":"On or near Airport\/airfield"},"longitude":"-0.451842"},"context":"","outcome_status":{"category":"Status update unavailable","date":"2019-09"},"persistent_id":"fc1a5a9e43d6c36dbb15630363b54e3f87ab17262632b966283fe7cb182e4590","id":74334807,"location_subtype":"","month":"2019-05"},{"category":"other-theft","location_type":"Force","location":{"latitude":"51.473005","street":{"id":944279,"name":"On or near Pedestrian Subway"},"longitude":"-0.452968"},"context":"","outcome_status":{"category":"Status update unavailable","date":"2019-09"},"persistent_id":"df6ee2d3c8b50e83241ed01fd6fd76202b86d8f876f8b87f9bf7d047088257b0","id":74340676,"location_subtype":"","month":"2019-05"},{"category":"other-theft","location_type":"Force","location":{"latitude":"51.469708","street":{"id":944231,"name":"On or near Airport\/airfield"},"longitude":"-0.451842"},"context":"","outcome_status":{"category":"Status update unavailable","date":"2019-09"},"persistent_id":"0fe8a30c4829695b5dcd9b3290d7787220b7fab8ea131043f72bc2c6174f05b3","id":74340677,"location_subtype":"","month":"2019-05"},{"category":"other-theft","location_type":"Force","location":{"latitude":"51.471113","street":{"id":944290,"name":"On or near Canberra Road"},"longitude":"-0.456819"},"context":"","outcome_status":{"category":"Status update unavailable","date":"2019-09"},"persistent_id":"3cc33a421cfec00a9992c3dab3e815547a05f40a9bb55bea0dd366090105333d","id":74341616,"location_subtype":"","month":"2019-05"},{"category":"other-theft","location_type":"Force","location":{"latitude":"51.457814","street":{"id":944217,"name":"On or near Swansea Road"},"longitude":"-0.440556"},"context":"","outcome_status":{"category":"Status update unavailable","date":"2019-09"},"persistent_id":"98c480f61eb0a931a16ecbdf5b8282eba5391b4ac89c6ecbb291f7dbd4854832","id":74342163,"location_subtype":"","month":"2019-05"},{"category":"other-theft","location_type":"Force","location":{"latitude":"51.470132","street":{"id":944226,"name":"On or near Camborne Close"},"longitude":"-0.456103"},"context":"","outcome_status":{"category":"Status update unavailable","date":"2019-09"},"persistent_id":"c5b9cd6e916996d51892d8615f0f7d0cc6876f38cc91991d0b6d49c5455eae9c","id":74338783,"location_subtype":"","month":"2019-05"},{"category":"other-theft","location_type":"Force","location":{"latitude":"51.448356","street":{"id":938507,"name":"On or near Petrol Station"},"longitude":"-0.447484"},"context":"","outcome_status":{"category":"Status update unavailable","date":"2019-09"},"persistent_id":"69c06c89d21763a166d0ab795fc92dec3abd28c01cdb58311b1269e77caaeb65","id":74340305,"location_subtype":"","month":"2019-05"},{"category":"other-theft","location_type":"Force","location":{"latitude":"51.469708","street":{"id":944231,"name":"On or near Airport\/airfield"},"longitude":"-0.451842"},"context":"","outcome_status":{"category":"Status update unavailable","date":"2019-09"},"persistent_id":"6fb7fc8be9a388f67b67e44f3275e2ff52643e37e045dc9481b675ac1caae6b6","id":74340403,"location_subtype":"","month":"2019-05"},{"category":"other-theft","location_type":"Force","location":{"latitude":"51.470361","street":{"id":944232,"name":"On or near Airport\/airfield"},"longitude":"-0.458471"},"context":"","outcome_status":{"category":"Status update unavailable","date":"2019-09"},"persistent_id":"934c8483a271a8819f55c100c74c20c8e32d995b4787b1bbc3029ec197a1c46c","id":74345972,"location_subtype":"","month":"2019-05"},{"category":"other-theft","location_type":"Force","location":{"latitude":"51.469708","street":{"id":944231,"name":"On or near Airport\/airfield"},"longitude":"-0.451842"},"context":"","outcome_status":{"category":"Status update unavailable","date":"2019-09"},"persistent_id":"805f238cda183f67c4ef71b0e2c5ca1de5b8d3db2be1086c028f897c87f60faf","id":74346209,"location_subtype":"","month":"2019-05"},{"category":"other-theft","location_type":"Force","location":{"latitude":"51.447982","street":{"id":938548,"name":"On or near Woolridge Close"},"longitude":"-0.443640"},"context":"","outcome_status":{"category":"Status update unavailable","date":"2019-09"},"persistent_id":"4b716a56820e5cfc15a0fe02dccc796629f394d882628d7556604e805d6b67e8","id":74347108,"location_subtype":"","month":"2019-05"},{"category":"other-theft","location_type":"Force","location":{"latitude":"51.470876","street":{"id":944287,"name":"On or near Control Tower Road"},"longitude":"-0.453155"},"context":"","outcome_status":{"category":"Status update unavailable","date":"2019-09"},"persistent_id":"7c78be4bf095b663415f49483b407038d1d778d8b73d33d1c97267c3725ea48d","id":74343671,"location_subtype":"","month":"2019-05"},{"category":"other-theft","location_type":"Force","location":{"latitude":"51.457573","street":{"id":944214,"name":"On or near Scarborough Road"},"longitude":"-0.445415"},"context":"","outcome_status":{"category":"Status update unavailable","date":"2019-09"},"persistent_id":"322ece2dc8f710011cdabf2b0ae931510f36a6910b532bc51edca3f809f108b1","id":74348912,"location_subtype":"","month":"2019-05"},{"category":"other-theft","location_type":"Force","location":{"latitude":"51.472167","street":{"id":944285,"name":"On or near Cromer Road West"},"longitude":"-0.456280"},"context":"","outcome_status":{"category":"Status update unavailable","date":"2019-09"},"persistent_id":"ade51f647cbac7eec8debf7ec4dc59a542ad09fcaccad1c260704b44b2863d20","id":74348930,"location_subtype":"","month":"2019-05"},{"category":"other-theft","location_type":"Force","location":{"latitude":"51.470924","street":{"id":944281,"name":"On or near Parking Area"},"longitude":"-0.456782"},"context":"","outcome_status":{"category":"Status update unavailable","date":"2019-09"},"persistent_id":"34613802b7f68ff359831bcc64e243f989bf27462b792b662371c92ad3b41483","id":74362763,"location_subtype":"","month":"2019-05"},{"category":"other-theft","location_type":"Force","location":{"latitude":"51.457814","street":{"id":944217,"name":"On or near Swansea Road"},"longitude":"-0.440556"},"context":"","outcome_status":{"category":"Status update unavailable","date":"2019-09"},"persistent_id":"f424daeb85072c8c0048ceecd303ec4f2f5d0a65dcc7ee311fb22dc025f4e38b","id":74364921,"location_subtype":"","month":"2019-05"},{"category":"other-theft","location_type":"Force","location":{"latitude":"51.471113","street":{"id":944290,"name":"On or near Canberra Road"},"longitude":"-0.456819"},"context":"","outcome_status":{"category":"Status update unavailable","date":"2019-09"},"persistent_id":"96be1c28cde236f32e13a0138466272da494293c6d045e0816797e69d6054fdd","id":74365546,"location_subtype":"","month":"2019-05"},{"category":"other-theft","location_type":"Force","location":{"latitude":"51.470132","street":{"id":944226,"name":"On or near Camborne Close"},"longitude":"-0.456103"},"context":"","outcome_status":{"category":"Offender fined","date":"2019-05"},"persistent_id":"d0b90aacc335530254e803c343c1d5812b475074f86bc6fa8252c98bb87f275b","id":74367166,"location_subtype":"","month":"2019-05"},{"category":"other-theft","location_type":"Force","location":{"latitude":"51.470361","street":{"id":944232,"name":"On or near Airport\/airfield"},"longitude":"-0.458471"},"context":"","outcome_status":{"category":"Offender given a caution","date":"2019-05"},"persistent_id":"6d580f15a983e6e1efb1b9245cfab95efd7278071043b7467c45add3be920db5","id":74343672,"location_subtype":"","month":"2019-05"},{"category":"other-theft","location_type":"BTP","location":{"latitude":"51.471000","street":{"id":1486810,"name":"Heathrow Terminals 123 (lu Station)"},"longitude":"-0.454000"},"context":"","outcome_status":{"category":"Status update unavailable","date":"2019-09"},"persistent_id":"","id":88720949,"location_subtype":"STATION","month":"2019-05"},{"category":"other-theft","location_type":"Force","location":{"latitude":"51.448356","street":{"id":938507,"name":"On or near Petrol Station"},"longitude":"-0.447484"},"context":"","outcome_status":{"category":"Investigation complete; no suspect identified","date":"2020-03"},"persistent_id":"7e7e66137ed2cb835fc4b79b75f5a4c0cddccbda9f6490aaa0b45aa58d7e825c","id":74337860,"location_subtype":"","month":"2019-05"},{"category":"other-theft","location_type":"Force","location":{"latitude":"51.470924","street":{"id":944281,"name":"On or near Parking Area"},"longitude":"-0.456782"},"context":"","outcome_status":{"category":"Court result unavailable","date":"2020-01"},"persistent_id":"e6f34b98edc847fe69217faa41391e99cc65bcc5fb9b55f9088b8a28112af37a","id":74340509,"location_subtype":"","month":"2019-05"},{"category":"possession-of-weapons","location_type":"Force","location":{"latitude":"51.450181","street":{"id":938568,"name":"On or near Elm Road"},"longitude":"-0.437247"},"context":"","outcome_status":{"category":"Status update unavailable","date":"2019-09"},"persistent_id":"5b85e258e8bf811a61e921a74f02bf3d4c43c540a7ed5b4c03705eefa061206a","id":74328428,"location_subtype":"","month":"2019-05"},{"category":"possession-of-weapons","location_type":"Force","location":{"latitude":"51.449011","street":{"id":938557,"name":"On or near Padbury Close"},"longitude":"-0.433185"},"context":"","outcome_status":{"category":"Offender given suspended prison sentence","date":"2019-05"},"persistent_id":"ca445fffc27e547ac42f80f670c871bdd68af7ae3e560e963d4504a5fb268283","id":74343597,"location_subtype":"","month":"2019-05"},{"category":"public-order","location_type":"Force","location":{"latitude":"51.469708","street":{"id":944231,"name":"On or near Airport\/airfield"},"longitude":"-0.451842"},"context":"","outcome_status":{"category":"Status update unavailable","date":"2019-09"},"persistent_id":"d4fe9b7daf06bf0c8ec983051d58fe2c4d1438fcf0dcd33b9bb41f5779e9f57a","id":74301848,"location_subtype":"","month":"2019-05"},{"category":"public-order","location_type":"Force","location":{"latitude":"51.448356","street":{"id":938507,"name":"On or near Petrol Station"},"longitude":"-0.447484"},"context":"","outcome_status":{"category":"Investigation complete; no suspect identified","date":"2020-03"},"persistent_id":"33650706272ceef9a3c0093d8a60f45526a21aba5b41555876405d0e22b2c9c6","id":74341191,"location_subtype":"","month":"2019-05"},{"category":"public-order","location_type":"Force","location":{"latitude":"51.470132","street":{"id":944226,"name":"On or near Camborne Close"},"longitude":"-0.456103"},"context":"","outcome_status":{"category":"Court result unavailable","date":"2019-11"},"persistent_id":"8ad8b03b03cd06533a05b623367742495d67f0bad03c1be1d023e723b5a5c7bc","id":74345219,"location_subtype":"","month":"2019-05"},{"category":"public-order","location_type":"Force","location":{"latitude":"51.451253","street":{"id":938573,"name":"On or near Petrol Station"},"longitude":"-0.438103"},"context":"","outcome_status":{"category":"Investigation complete; no suspect identified","date":"2020-03"},"persistent_id":"1a98b35883d271e84bea200995148764d3aee7dc376350573740faf699818fcf","id":74359170,"location_subtype":"","month":"2019-05"},{"category":"public-order","location_type":"Force","location":{"latitude":"51.449061","street":{"id":938562,"name":"On or near Hatchett Road"},"longitude":"-0.442337"},"context":"","outcome_status":{"category":"Status update unavailable","date":"2019-09"},"persistent_id":"a92ce13c0bcb200d2a33349f5500f0ef4929bef144c360d7dbf3dc47ad24578c","id":74303046,"location_subtype":"","month":"2019-05"},{"category":"public-order","location_type":"Force","location":{"latitude":"51.472968","street":{"id":944286,"name":"On or near Courtney Way"},"longitude":"-0.455677"},"context":"","outcome_status":{"category":"Status update unavailable","date":"2019-09"},"persistent_id":"9c774f993ade28e7ad7dd908cf0f4b7f6a360dd667ac701216d216bc89d86714","id":74323871,"location_subtype":"","month":"2019-05"},{"category":"public-order","location_type":"Force","location":{"latitude":"51.470924","street":{"id":944281,"name":"On or near Parking Area"},"longitude":"-0.456782"},"context":"","outcome_status":{"category":"Status update unavailable","date":"2019-09"},"persistent_id":"22aba818b3da72638052a4214e8a249947a1d179751d8f61a44e1fed2461fd44","id":74341913,"location_subtype":"","month":"2019-05"},{"category":"public-order","location_type":"Force","location":{"latitude":"51.448356","street":{"id":938507,"name":"On or near Petrol Station"},"longitude":"-0.447484"},"context":"","outcome_status":{"category":"Status update unavailable","date":"2019-09"},"persistent_id":"33650706272ceef9a3c0093d8a60f45526a21aba5b41555876405d0e22b2c9c6","id":74341190,"location_subtype":"","month":"2019-05"},{"category":"public-order","location_type":"Force","location":{"latitude":"51.450181","street":{"id":938568,"name":"On or near Elm Road"},"longitude":"-0.437247"},"context":"","outcome_status":{"category":"Status update unavailable","date":"2019-09"},"persistent_id":"c364e9bfb46a35d576b0eae0808d9e922c26c5b544564e02895fb3c19d9fdb61","id":74295068,"location_subtype":"","month":"2019-05"},{"category":"shoplifting","location_type":"Force","location":{"latitude":"51.471113","street":{"id":944290,"name":"On or near Canberra Road"},"longitude":"-0.456819"},"context":"","outcome_status":{"category":"Status update unavailable","date":"2019-09"},"persistent_id":"c8e2c45f1d961ccb2c9a67511f604c30a6669d2208436fa93e417e1c4816ab56","id":74313689,"location_subtype":"","month":"2019-05"},{"category":"shoplifting","location_type":"Force","location":{"latitude":"51.469708","street":{"id":944231,"name":"On or near Airport\/airfield"},"longitude":"-0.451842"},"context":"","outcome_status":{"category":"Status update unavailable","date":"2019-09"},"persistent_id":"d7789439422b070b61d49190fa1476330979fc6e46ea58a587b3f2584ec288d2","id":74290815,"location_subtype":"","month":"2019-05"},{"category":"shoplifting","location_type":"Force","location":{"latitude":"51.471113","street":{"id":944290,"name":"On or near Canberra Road"},"longitude":"-0.456819"},"context":"","outcome_status":{"category":"Status update unavailable","date":"2019-09"},"persistent_id":"4b2c2a5549db8cf1abdeb90437fe3d4be8d8304dd2a64183029c9470145ff682","id":74290467,"location_subtype":"","month":"2019-05"},{"category":"shoplifting","location_type":"Force","location":{"latitude":"51.471113","street":{"id":944290,"name":"On or near Canberra Road"},"longitude":"-0.456819"},"context":"","outcome_status":{"category":"Status update unavailable","date":"2019-09"},"persistent_id":"b251ac7acf51a61cd52e3848149cf2c0f2848368f28ae834523a09d001fb936f","id":74351328,"location_subtype":"","month":"2019-05"},{"category":"shoplifting","location_type":"Force","location":{"latitude":"51.469708","street":{"id":944231,"name":"On or near Airport\/airfield"},"longitude":"-0.451842"},"context":"","outcome_status":{"category":"Court result unavailable","date":"2019-11"},"persistent_id":"b3960b3a796124559fc6cdac2e1e4a81a9fd6cbf47830b68b6380996aff23a36","id":74318434,"location_subtype":"","month":"2019-05"},{"category":"shoplifting","location_type":"Force","location":{"latitude":"51.471113","street":{"id":944290,"name":"On or near Canberra Road"},"longitude":"-0.456819"},"context":"","outcome_status":{"category":"Status update unavailable","date":"2019-09"},"persistent_id":"e9be467816135e19b2291c1921403187e56c62b54db3b9ddb3782f76d16e465d","id":74340510,"location_subtype":"","month":"2019-05"},{"category":"shoplifting","location_type":"Force","location":{"latitude":"51.471113","street":{"id":944290,"name":"On or near Canberra Road"},"longitude":"-0.456819"},"context":"","outcome_status":{"category":"Status update unavailable","date":"2019-09"},"persistent_id":"a8cf7b083c370232f7b5b1e44e8ee1c92b1024e295ec51b0999b2b210c88db51","id":74301161,"location_subtype":"","month":"2019-05"},{"category":"shoplifting","location_type":"Force","location":{"latitude":"51.470361","street":{"id":944232,"name":"On or near Airport\/airfield"},"longitude":"-0.458471"},"context":"","outcome_status":{"category":"Status update unavailable","date":"2019-09"},"persistent_id":"e21919118fb10a3f4fe7a736f5a5d38160ca62f51b8c0e61bc853f983dcd9894","id":74311008,"location_subtype":"","month":"2019-05"},{"category":"shoplifting","location_type":"Force","location":{"latitude":"51.469708","street":{"id":944231,"name":"On or near Airport\/airfield"},"longitude":"-0.451842"},"context":"","outcome_status":{"category":"Status update unavailable","date":"2019-09"},"persistent_id":"3b65259437e0a19c859385de6850175039252533c86efd0c418bd48d721240c2","id":74310759,"location_subtype":"","month":"2019-05"},{"category":"shoplifting","location_type":"Force","location":{"latitude":"51.471113","street":{"id":944290,"name":"On or near Canberra Road"},"longitude":"-0.456819"},"context":"","outcome_status":{"category":"Status update unavailable","date":"2019-09"},"persistent_id":"4f18822d1ddec652d996c2dc82e8cd2d312e8b6188b1033e73b412e81c3fbe2a","id":74310642,"location_subtype":"","month":"2019-05"},{"category":"shoplifting","location_type":"Force","location":{"latitude":"51.471113","street":{"id":944290,"name":"On or near Canberra Road"},"longitude":"-0.456819"},"context":"","outcome_status":{"category":"Status update unavailable","date":"2019-09"},"persistent_id":"4b2c2a5549db8cf1abdeb90437fe3d4be8d8304dd2a64183029c9470145ff682","id":74290468,"location_subtype":"","month":"2019-05"},{"category":"theft-from-the-person","location_type":"Force","location":{"latitude":"51.453112","street":{"id":938537,"name":"On or near Supermarket"},"longitude":"-0.429850"},"context":"","outcome_status":{"category":"Status update unavailable","date":"2019-09"},"persistent_id":"48f52fe42b0290c403e2055cb3c64ca57d4d1336d60b4ebc69f182b7af477a6b","id":74341233,"location_subtype":"","month":"2019-05"},{"category":"theft-from-the-person","location_type":"BTP","location":{"latitude":"51.471000","street":{"id":1486810,"name":"Heathrow Terminals 123 (lu Station)"},"longitude":"-0.454000"},"context":"","outcome_status":{"category":"Status update unavailable","date":"2019-09"},"persistent_id":"","id":88720950,"location_subtype":"STATION","month":"2019-05"},{"category":"vehicle-crime","location_type":"Force","location":{"latitude":"51.454658","street":{"id":938545,"name":"On or near Dorchester Drive"},"longitude":"-0.431164"},"context":"","outcome_status":{"category":"Status update unavailable","date":"2019-09"},"persistent_id":"23c3c755a99bec95b165f9ea05c5ed883a2343449af2c20c0086bb083c761902","id":74347807,"location_subtype":"","month":"2019-05"},{"category":"vehicle-crime","location_type":"Force","location":{"latitude":"51.447982","street":{"id":938548,"name":"On or near Woolridge Close"},"longitude":"-0.443640"},"context":"","outcome_status":{"category":"Status update unavailable","date":"2019-09"},"persistent_id":"424fe045109d46ca91a9aa88e99f36c71375e21c1066ecc9ff27af7d2635bf90","id":74371622,"location_subtype":"","month":"2019-05"},{"category":"vehicle-crime","location_type":"Force","location":{"latitude":"51.458941","street":{"id":944222,"name":"On or near Hatton Road"},"longitude":"-0.431982"},"context":"","outcome_status":{"category":"Status update unavailable","date":"2019-09"},"persistent_id":"a3a5f368e0a759b242ce76fe6474a250b8c850743033b850bf3dccf3ac837f70","id":74317806,"location_subtype":"","month":"2019-05"},{"category":"vehicle-crime","location_type":"Force","location":{"latitude":"51.450786","street":{"id":938563,"name":"On or near Grovestile Waye"},"longitude":"-0.434118"},"context":"","outcome_status":{"category":"Status update unavailable","date":"2019-09"},"persistent_id":"82eda411dcf5fc867e745c6ff5be2cbdc78c749a74c2468e03a92c17aece77f2","id":74299214,"location_subtype":"","month":"2019-05"},{"category":"vehicle-crime","location_type":"Force","location":{"latitude":"51.454733","street":{"id":938594,"name":"On or near Bedfont Close"},"longitude":"-0.440776"},"context":"","outcome_status":{"category":"Investigation complete; no suspect identified","date":"2020-03"},"persistent_id":"4c2266c2143cf39af118d21fd6e10235889eebb16514843be3a97259390081e1","id":74299440,"location_subtype":"","month":"2019-05"},{"category":"vehicle-crime","location_type":"Force","location":{"latitude":"51.450265","street":{"id":938531,"name":"On or near Bridlepath Way"},"longitude":"-0.430768"},"context":"","outcome_status":{"category":"Status update unavailable","date":"2019-09"},"persistent_id":"1c71c2bc6b157c783724e059d301e2fc91b98244110b0c2677a6e500b354bfe1","id":74333241,"location_subtype":"","month":"2019-05"},{"category":"vehicle-crime","location_type":"Force","location":{"latitude":"51.453112","street":{"id":938537,"name":"On or near Supermarket"},"longitude":"-0.429850"},"context":"","outcome_status":{"category":"Status update unavailable","date":"2019-09"},"persistent_id":"650f436b478028764eb4d3522271a74167d47ebfbaab67b56fc56113dfc7a0ef","id":74342774,"location_subtype":"","month":"2019-05"},{"category":"vehicle-crime","location_type":"Force","location":{"latitude":"51.460302","street":{"id":944218,"name":"On or near Orchard Avenue"},"longitude":"-0.434253"},"context":"","outcome_status":{"category":"Status update unavailable","date":"2019-09"},"persistent_id":"d834cf7aa73bcabca4d8be08a00b01d4dc6e93235283b0cceb2f6dd5ca065c2a","id":74347331,"location_subtype":"","month":"2019-05"},{"category":"vehicle-crime","location_type":"Force","location":{"latitude":"51.455589","street":{"id":938582,"name":"On or near Montrose Road"},"longitude":"-0.437580"},"context":"","outcome_status":{"category":"Court result unavailable","date":"2020-04"},"persistent_id":"97ec97bf30486b589cbd83c67d9623cfb36857c8cfb60e64f259386e13904f78","id":74293533,"location_subtype":"","month":"2019-05"},{"category":"vehicle-crime","location_type":"Force","location":{"latitude":"51.449357","street":{"id":938572,"name":"On or near Bedfont Green Close"},"longitude":"-0.440931"},"context":"","outcome_status":{"category":"Status update unavailable","date":"2019-09"},"persistent_id":"58e203f22409c9fd03197eae0f04b2b68a9f760f463ae5d69f46a8b48e06b30a","id":74329395,"location_subtype":"","month":"2019-05"},{"category":"vehicle-crime","location_type":"Force","location":{"latitude":"51.455434","street":{"id":938579,"name":"On or near North Road"},"longitude":"-0.435384"},"context":"","outcome_status":{"category":"Status update unavailable","date":"2019-09"},"persistent_id":"2f87c3640bd9aac5daece65fc6d8f5277ab73c36ea67959bef9e8cb0393f9696","id":74364780,"location_subtype":"","month":"2019-05"},{"category":"vehicle-crime","location_type":"Force","location":{"latitude":"51.453669","street":{"id":938587,"name":"On or near Benedict Drive"},"longitude":"-0.437862"},"context":"","outcome_status":{"category":"Status update unavailable","date":"2019-09"},"persistent_id":"a09be837465b7e4ef104bdb92dcf6e8047ededb4f981a3e388fe033f5e42d197","id":74329347,"location_subtype":"","month":"2019-05"},{"category":"violent-crime","location_type":"Force","location":{"latitude":"51.469708","street":{"id":944231,"name":"On or near Airport\/airfield"},"longitude":"-0.451842"},"context":"","outcome_status":{"category":"Status update unavailable","date":"2019-09"},"persistent_id":"174ac40b3738e008ec1292fb70395d01174b047a687200ee597253a832083abd","id":74367164,"location_subtype":"","month":"2019-05"},{"category":"violent-crime","location_type":"Force","location":{"latitude":"51.451699","street":{"id":938525,"name":"On or near Imperial Road"},"longitude":"-0.429078"},"context":"","outcome_status":{"category":"Investigation complete; no suspect identified","date":"2020-03"},"persistent_id":"24bb227cf499bdb3dfa040e05018a7d6ed73858f41f0e03df85bbc755232af98","id":74337031,"location_subtype":"","month":"2019-05"},{"category":"violent-crime","location_type":"Force","location":{"latitude":"51.469708","street":{"id":944231,"name":"On or near Airport\/airfield"},"longitude":"-0.451842"},"context":"","outcome_status":{"category":"Status update unavailable","date":"2019-09"},"persistent_id":"6bb4f44f31128fdc989ece898140973a4d2ea679f72b2a28c7c43f29b9a095e0","id":74330600,"location_subtype":"","month":"2019-05"},{"category":"violent-crime","location_type":"Force","location":{"latitude":"51.450181","street":{"id":938568,"name":"On or near Elm Road"},"longitude":"-0.437247"},"context":"","outcome_status":{"category":"Court result unavailable","date":"2019-12"},"persistent_id":"5b85e258e8bf811a61e921a74f02bf3d4c43c540a7ed5b4c03705eefa061206a","id":74330842,"location_subtype":"","month":"2019-05"},{"category":"violent-crime","location_type":"Force","location":{"latitude":"51.448356","street":{"id":938507,"name":"On or near Petrol Station"},"longitude":"-0.447484"},"context":"","outcome_status":{"category":"Status update unavailable","date":"2019-09"},"persistent_id":"33650706272ceef9a3c0093d8a60f45526a21aba5b41555876405d0e22b2c9c6","id":74341018,"location_subtype":"","month":"2019-05"},{"category":"violent-crime","location_type":"Force","location":{"latitude":"51.453112","street":{"id":938537,"name":"On or near Supermarket"},"longitude":"-0.429850"},"context":"","outcome_status":{"category":"Investigation complete; no suspect identified","date":"2020-03"},"persistent_id":"ef78288f353c63e6c92fefda0fad22802bb6fa3452449a87c69908a8edd5108f","id":74302044,"location_subtype":"","month":"2019-05"},{"category":"violent-crime","location_type":"Force","location":{"latitude":"51.469708","street":{"id":944231,"name":"On or near Airport\/airfield"},"longitude":"-0.451842"},"context":"","outcome_status":{"category":"Status update unavailable","date":"2019-09"},"persistent_id":"3075f7eab4b0dbd684f6058f96f13d483582afbfabb05f89bf281c448844e5f5","id":74344778,"location_subtype":"","month":"2019-05"},{"category":"violent-crime","location_type":"Force","location":{"latitude":"51.456535","street":{"id":938577,"name":"On or near Peninsular Close"},"longitude":"-0.432309"},"context":"","outcome_status":{"category":"Status update unavailable","date":"2019-09"},"persistent_id":"5eec0e8dc6258ebac1f0f6fff1d10f27fa839a6c743edf97238d2289a14d14d2","id":74353739,"location_subtype":"","month":"2019-05"},{"category":"violent-crime","location_type":"Force","location":{"latitude":"51.449079","street":{"id":938506,"name":"On or near Bedfont Road"},"longitude":"-0.446409"},"context":"","outcome_status":{"category":"Investigation complete; no suspect identified","date":"2020-03"},"persistent_id":"0b4fbf7a0e172472a7cff48ab4354e00d88bc3d426e8e96852b722c63f165fbb","id":74309822,"location_subtype":"","month":"2019-05"},{"category":"violent-crime","location_type":"Force","location":{"latitude":"51.449357","street":{"id":938572,"name":"On or near Bedfont Green Close"},"longitude":"-0.440931"},"context":"","outcome_status":{"category":"Investigation complete; no suspect identified","date":"2020-03"},"persistent_id":"d4fe4d772efe4d020416f7dd035fb4c94a353298c54b824b354ad9a5332c6989","id":74312751,"location_subtype":"","month":"2019-05"},{"category":"violent-crime","location_type":"Force","location":{"latitude":"51.470361","street":{"id":944232,"name":"On or near Airport\/airfield"},"longitude":"-0.458471"},"context":"","outcome_status":{"category":"Status update unavailable","date":"2019-09"},"persistent_id":"5063ce9642174c4505890dcf099bb6eca2b6834e080287b70217f7915d344a71","id":74290268,"location_subtype":"","month":"2019-05"},{"category":"violent-crime","location_type":"Force","location":{"latitude":"51.449061","street":{"id":938562,"name":"On or near Hatchett Road"},"longitude":"-0.442337"},"context":"","outcome_status":{"category":"Court result unavailable","date":"2019-11"},"persistent_id":"223b46ef2fdca63f9fda143f15ace099a5374fad511989920fc25b46b0729d07","id":74301780,"location_subtype":"","month":"2019-05"},{"category":"violent-crime","location_type":"Force","location":{"latitude":"51.454985","street":{"id":938581,"name":"On or near New Road"},"longitude":"-0.432031"},"context":"","outcome_status":{"category":"Status update unavailable","date":"2019-09"},"persistent_id":"c2e9865589398a6eec882be1095282ddd9d9f1cf1f647fbd49ad423809d27f61","id":74355737,"location_subtype":"","month":"2019-05"},{"category":"violent-crime","location_type":"Force","location":{"latitude":"51.461013","street":{"id":944206,"name":"On or near Cain's Lane"},"longitude":"-0.431637"},"context":"","outcome_status":{"category":"Investigation complete; no suspect identified","date":"2020-03"},"persistent_id":"45d172822d8824dde873c0dfd763dd648d7cec685b593f83b6b647e00473ffa3","id":74323811,"location_subtype":"","month":"2019-05"},{"category":"violent-crime","location_type":"Force","location":{"latitude":"51.454267","street":{"id":938546,"name":"On or near Bethany Waye"},"longitude":"-0.430141"},"context":"","outcome_status":{"category":"Investigation complete; no suspect identified","date":"2020-03"},"persistent_id":"c5767ccaa559f6a998e0a65be02c38d0c95bf0d6122d98b83884716defa425f5","id":74341732,"location_subtype":"","month":"2019-05"},{"category":"violent-crime","location_type":"Force","location":{"latitude":"51.471113","street":{"id":944290,"name":"On or near Canberra Road"},"longitude":"-0.456819"},"context":"","outcome_status":{"category":"Status update unavailable","date":"2019-09"},"persistent_id":"2747e8abc3edda59c10e988d7d32b121909173d895cf9898920c9cc79c16c8a3","id":74309420,"location_subtype":"","month":"2019-05"},{"category":"violent-crime","location_type":"Force","location":{"latitude":"51.453863","street":{"id":938583,"name":"On or near Lewin Terrace"},"longitude":"-0.433581"},"context":"","outcome_status":{"category":"Status update unavailable","date":"2019-09"},"persistent_id":"4681b4069c1e74682ce4197aa392daceb50cb0d2e8533665319e1245775c959e","id":74303981,"location_subtype":"","month":"2019-05"},{"category":"violent-crime","location_type":"Force","location":{"latitude":"51.469708","street":{"id":944231,"name":"On or near Airport\/airfield"},"longitude":"-0.451842"},"context":"","outcome_status":{"category":"Court result unavailable","date":"2020-01"},"persistent_id":"31a7bc3c815a99545c7e5b1c782fc2d53c824a2121a214232f68c49404243e6f","id":74309813,"location_subtype":"","month":"2019-05"},{"category":"violent-crime","location_type":"Force","location":{"latitude":"51.453975","street":{"id":938578,"name":"On or near Page Road"},"longitude":"-0.432526"},"context":"","outcome_status":{"category":"Status update unavailable","date":"2019-09"},"persistent_id":"9b30d1d6f964b5336509db8fd876fff2806c284d4ad09197dbf04a4ab7f244a3","id":74326463,"location_subtype":"","month":"2019-05"},{"category":"violent-crime","location_type":"Force","location":{"latitude":"51.469708","street":{"id":944231,"name":"On or near Airport\/airfield"},"longitude":"-0.451842"},"context":"","outcome_status":{"category":"Status update unavailable","date":"2019-09"},"persistent_id":"91ebbb2e3656fdd71054e8acb4e7f3c6ccf1375b9519d8ada897eec2a5edd001","id":74305756,"location_subtype":"","month":"2019-05"},{"category":"violent-crime","location_type":"Force","location":{"latitude":"51.455197","street":{"id":938586,"name":"On or near Bishops Drive"},"longitude":"-0.437839"},"context":"","outcome_status":{"category":"Status update unavailable","date":"2019-09"},"persistent_id":"ea979e9af9a0574e3a44306f907220f32bebe1f97a6b562fc8c2e9eb11fe43c5","id":74366767,"location_subtype":"","month":"2019-05"},{"category":"violent-crime","location_type":"Force","location":{"latitude":"51.453112","street":{"id":938537,"name":"On or near Supermarket"},"longitude":"-0.429850"},"context":"","outcome_status":{"category":"Status update unavailable","date":"2019-09"},"persistent_id":"ef78288f353c63e6c92fefda0fad22802bb6fa3452449a87c69908a8edd5108f","id":74302043,"location_subtype":"","month":"2019-05"},{"category":"violent-crime","location_type":"Force","location":{"latitude":"51.470924","street":{"id":944281,"name":"On or near Parking Area"},"longitude":"-0.456782"},"context":"","outcome_status":{"category":"Status update unavailable","date":"2019-09"},"persistent_id":"22aba818b3da72638052a4214e8a249947a1d179751d8f61a44e1fed2461fd44","id":74339798,"location_subtype":"","month":"2019-05"},{"category":"other-crime","location_type":"Force","location":{"latitude":"51.470132","street":{"id":944226,"name":"On or near Camborne Close"},"longitude":"-0.456103"},"context":"","outcome_status":{"category":"Local resolution","date":"2019-05"},"persistent_id":"023e309e3b10ed87dbbfad2f91c27203461bdda4505db8453d936b5fcd097870","id":74310758,"location_subtype":"","month":"2019-05"},{"category":"other-crime","location_type":"Force","location":{"latitude":"51.459123","street":{"id":944229,"name":"On or near Salisbury Road"},"longitude":"-0.446341"},"context":"","outcome_status":{"category":"Status update unavailable","date":"2019-09"},"persistent_id":"1611a0b2389af7596235061ed71f74464c5ac09a88245c3d0c6e6ff40c61662c","id":74290230,"location_subtype":"","month":"2019-05"},{"category":"other-crime","location_type":"Force","location":{"latitude":"51.470132","street":{"id":944226,"name":"On or near Camborne Close"},"longitude":"-0.456103"},"context":"","outcome_status":{"category":"Status update unavailable","date":"2019-09"},"persistent_id":"2819030ea4e918bf395c038faf4650bf1942c0340f5e11c806cf62d509f4d87b","id":74320836,"location_subtype":"","month":"2019-05"},{"category":"other-crime","location_type":"Force","location":{"latitude":"51.470361","street":{"id":944232,"name":"On or near Airport\/airfield"},"longitude":"-0.458471"},"context":"","outcome_status":{"category":"Status update unavailable","date":"2019-09"},"persistent_id":"13fa7a1b5f1aa978db46b3ae966dffcd057e301be49e5c32dfaa699b57cab592","id":74332789,"location_subtype":"","month":"2019-05"},{"category":"other-crime","location_type":"Force","location":{"latitude":"51.471113","street":{"id":944290,"name":"On or near Canberra Road"},"longitude":"-0.456819"},"context":"","outcome_status":{"category":"Local resolution","date":"2019-05"},"persistent_id":"c222970d51052e858b2a7c830c7cfeec2bd723135bf6500a04fd6c08da31b4d0","id":74295320,"location_subtype":"","month":"2019-05"},{"category":"other-crime","location_type":"Force","location":{"latitude":"51.471113","street":{"id":944290,"name":"On or near Canberra Road"},"longitude":"-0.456819"},"context":"","outcome_status":{"category":"Status update unavailable","date":"2019-09"},"persistent_id":"4d0cea10cc9c1c5aaeb16036976101f6ce96d3f1d230e8a254345261bd3ad5fb","id":74300307,"location_subtype":"","month":"2019-05"},{"category":"other-crime","location_type":"Force","location":{"latitude":"51.471113","street":{"id":944290,"name":"On or near Canberra Road"},"longitude":"-0.456819"},"context":"","outcome_status":{"category":"Status update unavailable","date":"2019-09"},"persistent_id":"cfc89ff5e8baf5f35260e35105b506623d8e4a5bcde710a88261c9d4d44e2f02","id":74290066,"location_subtype":"","month":"2019-05"},{"category":"other-crime","location_type":"Force","location":{"latitude":"51.469708","street":{"id":944231,"name":"On or near Airport\/airfield"},"longitude":"-0.451842"},"context":"","outcome_status":{"category":"Status update unavailable","date":"2019-09"},"persistent_id":"2bea436a65ecd75547b9ae8bd553255346e671641046c60c98743641723c7a5d","id":74295325,"location_subtype":"","month":"2019-05"},{"category":"other-crime","location_type":"Force","location":{"latitude":"51.470132","street":{"id":944226,"name":"On or near Camborne Close"},"longitude":"-0.456103"},"context":"","outcome_status":{"category":"Local resolution","date":"2019-05"},"persistent_id":"3a57ed085a0bd73be54db98b04da9cc25195087d02be2cef3b85071b84fdcd52","id":74295110,"location_subtype":"","month":"2019-05"},{"category":"other-crime","location_type":"Force","location":{"latitude":"51.471113","street":{"id":944290,"name":"On or near Canberra Road"},"longitude":"-0.456819"},"context":"","outcome_status":{"category":"Local resolution","date":"2019-05"},"persistent_id":"6273229999386fa7f8a20400f577a041643cd9ebdf86ca39d2a9cdd402fdfa47","id":74312778,"location_subtype":"","month":"2019-05"},{"category":"other-crime","location_type":"Force","location":{"latitude":"51.469708","street":{"id":944231,"name":"On or near Airport\/airfield"},"longitude":"-0.451842"},"context":"","outcome_status":{"category":"Status update unavailable","date":"2019-09"},"persistent_id":"9a1ac36fa131e1ddcabf754d50ed4d2da91b71ff6c3300bfe95b919be09625ca","id":74291924,"location_subtype":"","month":"2019-05"},{"category":"other-crime","location_type":"Force","location":{"latitude":"51.469708","street":{"id":944231,"name":"On or near Airport\/airfield"},"longitude":"-0.451842"},"context":"","outcome_status":{"category":"Local resolution","date":"2019-05"},"persistent_id":"da7b62477b4d9e146fdaf7e50b60bce3a8602cd07fd9ac170f04d77a664ce13a","id":74296833,"location_subtype":"","month":"2019-05"},{"category":"other-crime","location_type":"Force","location":{"latitude":"51.470924","street":{"id":944281,"name":"On or near Parking Area"},"longitude":"-0.456782"},"context":"","outcome_status":{"category":"Status update unavailable","date":"2019-09"},"persistent_id":"3a99569c7ace8db3884cb4b80fb63de81fd1d0ae7e2d1523e3bc4f6a03e5a5cd","id":74342727,"location_subtype":"","month":"2019-05"},{"category":"other-crime","location_type":"Force","location":{"latitude":"51.470361","street":{"id":944232,"name":"On or near Airport\/airfield"},"longitude":"-0.458471"},"context":"","outcome_status":{"category":"Status update unavailable","date":"2019-09"},"persistent_id":"229304f817572c083eb0e413c6ada9ed117f0bc11944d86c661124b4806f00a8","id":74341643,"location_subtype":"","month":"2019-05"},{"category":"other-crime","location_type":"Force","location":{"latitude":"51.469708","street":{"id":944231,"name":"On or near Airport\/airfield"},"longitude":"-0.451842"},"context":"","outcome_status":{"category":"Status update unavailable","date":"2019-09"},"persistent_id":"798a11e993ab76efc7d91ac24e784a9c130ec03e798384f4d672186c2a8348cb","id":74352952,"location_subtype":"","month":"2019-05"},{"category":"other-crime","location_type":"Force","location":{"latitude":"51.469708","street":{"id":944231,"name":"On or near Airport\/airfield"},"longitude":"-0.451842"},"context":"","outcome_status":{"category":"Status update unavailable","date":"2019-09"},"persistent_id":"a18fcbcc235a94af25669bf960b607a01885f3cb732ee44da5eaa6d95040fd78","id":74302703,"location_subtype":"","month":"2019-05"},{"category":"other-crime","location_type":"Force","location":{"latitude":"51.470924","street":{"id":944281,"name":"On or near Parking Area"},"longitude":"-0.456782"},"context":"","outcome_status":{"category":"Status update unavailable","date":"2019-09"},"persistent_id":"bfc3b19189b34ee5a819fc9ef38174cef4fe1a74c2de58f4a2de7ff2bea19cc9","id":74310412,"location_subtype":"","month":"2019-05"},{"category":"other-crime","location_type":"Force","location":{"latitude":"51.471113","street":{"id":944290,"name":"On or near Canberra Road"},"longitude":"-0.456819"},"context":"","outcome_status":{"category":"Local resolution","date":"2019-05"},"persistent_id":"433a52557a4bc8b12ae0fcdc6c0fc014eccaa9f189150c6b8b7490723473089c","id":74341126,"location_subtype":"","month":"2019-05"},{"category":"other-crime","location_type":"Force","location":{"latitude":"51.470132","street":{"id":944226,"name":"On or near Camborne Close"},"longitude":"-0.456103"},"context":"","outcome_status":{"category":"Local resolution","date":"2019-05"},"persistent_id":"0347fb1ed39de4c9e5f095c4748fe6c27f1084f0bf39675d08f7d33fc93ebd34","id":74339796,"location_subtype":"","month":"2019-05"},{"category":"other-crime","location_type":"Force","location":{"latitude":"51.469708","street":{"id":944231,"name":"On or near Airport\/airfield"},"longitude":"-0.451842"},"context":"","outcome_status":{"category":"Status update unavailable","date":"2019-09"},"persistent_id":"de68b921b558d13f48a8fb1ef4f1b8ebc8ff847d0068edf4d596dfb43ffba6b5","id":74310896,"location_subtype":"","month":"2019-05"},{"category":"other-crime","location_type":"Force","location":{"latitude":"51.470132","street":{"id":944226,"name":"On or near Camborne Close"},"longitude":"-0.456103"},"context":"","outcome_status":{"category":"Court result unavailable","date":"2019-11"},"persistent_id":"44310b95931a8f7a95ac54d713001431d9d76718e2461e2e4b59e7bbbd1be8f4","id":74338948,"location_subtype":"","month":"2019-05"},{"category":"other-crime","location_type":"Force","location":{"latitude":"51.471932","street":{"id":944294,"name":"On or near Camberley Road"},"longitude":"-0.455481"},"context":"","outcome_status":{"category":"Court result unavailable","date":"2019-11"},"persistent_id":"b93ae9fd1ce4c5872af8043a48362a66ddba84294d7292072d6df3a89842c394","id":74353092,"location_subtype":"","month":"2019-05"},{"category":"other-crime","location_type":"Force","location":{"latitude":"51.469708","street":{"id":944231,"name":"On or near Airport\/airfield"},"longitude":"-0.451842"},"context":"","outcome_status":{"category":"Local resolution","date":"2019-05"},"persistent_id":"9ba783f5ebc2f023474aed464eddf3178ed5287d83ba89a19faa281994b17493","id":74338947,"location_subtype":"","month":"2019-05"},{"category":"other-crime","location_type":"Force","location":{"latitude":"51.469708","street":{"id":944231,"name":"On or near Airport\/airfield"},"longitude":"-0.451842"},"context":"","outcome_status":{"category":"Status update unavailable","date":"2019-09"},"persistent_id":"0e95036de893e0615bcd6cc5be1cbf3f8f7e2182ec572a454ee5089046ce7a23","id":74290306,"location_subtype":"","month":"2019-05"},{"category":"other-crime","location_type":"Force","location":{"latitude":"51.471113","street":{"id":944290,"name":"On or near Canberra Road"},"longitude":"-0.456819"},"context":"","outcome_status":{"category":"Local resolution","date":"2019-05"},"persistent_id":"270e4700c348d52d9e5de586580718692844462aa8457c55d44a6be13fb09488","id":74356565,"location_subtype":"","month":"2019-05"},{"category":"other-crime","location_type":"Force","location":{"latitude":"51.470361","street":{"id":944232,"name":"On or near Airport\/airfield"},"longitude":"-0.458471"},"context":"","outcome_status":{"category":"Status update unavailable","date":"2019-09"},"persistent_id":"973e2552586bd1431008e2e31a4b0ce69cd8df85cdf384725944c8041b9bf793","id":74305790,"location_subtype":"","month":"2019-05"},{"category":"other-crime","location_type":"Force","location":{"latitude":"51.469708","street":{"id":944231,"name":"On or near Airport\/airfield"},"longitude":"-0.451842"},"context":"","outcome_status":{"category":"Local resolution","date":"2019-05"},"persistent_id":"93a61d73c5edd7226be52ded7ddbaddc1e153592e22f9a4d6e859dccf75efdf0","id":74294847,"location_subtype":"","month":"2019-05"},{"category":"other-crime","location_type":"Force","location":{"latitude":"51.471113","street":{"id":944290,"name":"On or near Canberra Road"},"longitude":"-0.456819"},"context":"","outcome_status":{"category":"Local resolution","date":"2019-05"},"persistent_id":"9a0a0d80ee45baa19aabcc3b1ad38606d1f4a799091959a56504c4d1bff1339b","id":74332419,"location_subtype":"","month":"2019-05"},{"category":"other-crime","location_type":"Force","location":{"latitude":"51.469708","street":{"id":944231,"name":"On or near Airport\/airfield"},"longitude":"-0.451842"},"context":"","outcome_status":{"category":"Local resolution","date":"2019-05"},"persistent_id":"c167c3772c0fc5e035d0874c6005b08544e66777cff78499a01ecb3fe646901e","id":74323006,"location_subtype":"","month":"2019-05"},{"category":"other-crime","location_type":"Force","location":{"latitude":"51.470132","street":{"id":944226,"name":"On or near Camborne Close"},"longitude":"-0.456103"},"context":"","outcome_status":{"category":"Local resolution","date":"2019-05"},"persistent_id":"4e4e97b53e4e485bc5e6352055f547ef7825f9de6afeb0fda9c761d94997e76b","id":74318577,"location_subtype":"","month":"2019-05"},{"category":"other-crime","location_type":"Force","location":{"latitude":"51.471113","street":{"id":944290,"name":"On or near Canberra Road"},"longitude":"-0.456819"},"context":"","outcome_status":{"category":"Status update unavailable","date":"2019-09"},"persistent_id":"93f5f6d390ebea3818c4191fbcf9d45302672e84279dee18080c892376910d6f","id":74331138,"location_subtype":"","month":"2019-05"},{"category":"other-crime","location_type":"Force","location":{"latitude":"51.470924","street":{"id":944281,"name":"On or near Parking Area"},"longitude":"-0.456782"},"context":"","outcome_status":{"category":"Local resolution","date":"2019-05"},"persistent_id":"15bcbf0c8a56cad883b2cbb3e5d2eec5c2dd904aca619c23dbffff8177addd7a","id":74292737,"location_subtype":"","month":"2019-05"},{"category":"other-crime","location_type":"Force","location":{"latitude":"51.459780","street":{"id":944230,"name":"On or near Airport\/airfield"},"longitude":"-0.447730"},"context":"","outcome_status":{"category":"Local resolution","date":"2019-05"},"persistent_id":"2136e5786f0dd4cd7619e648cddb808b026dc9a56b3fb86dfef0253da55a1c95","id":74343990,"location_subtype":"","month":"2019-05"},{"category":"other-crime","location_type":"Force","location":{"latitude":"51.470132","street":{"id":944226,"name":"On or near Camborne Close"},"longitude":"-0.456103"},"context":"","outcome_status":{"category":"Local resolution","date":"2019-05"},"persistent_id":"454da40714fcb957a4622a8cc99f8abb91e529194313a5d5e03a0103d81128c1","id":74321657,"location_subtype":"","month":"2019-05"},{"category":"other-crime","location_type":"Force","location":{"latitude":"51.471113","street":{"id":944290,"name":"On or near Canberra Road"},"longitude":"-0.456819"},"context":"","outcome_status":{"category":"Local resolution","date":"2019-05"},"persistent_id":"fa4de4b9a47472fe10a356c6e71661f37a92688f979986b7fb2124e893db72d6","id":74332392,"location_subtype":"","month":"2019-05"},{"category":"other-crime","location_type":"Force","location":{"latitude":"51.471113","street":{"id":944290,"name":"On or near Canberra Road"},"longitude":"-0.456819"},"context":"","outcome_status":{"category":"Local resolution","date":"2019-05"},"persistent_id":"639a539aad2bc3aa8cf861547f651136244487258947e5f70be91280847690d4","id":74300709,"location_subtype":"","month":"2019-05"},{"category":"other-crime","location_type":"Force","location":{"latitude":"51.471113","street":{"id":944290,"name":"On or near Canberra Road"},"longitude":"-0.456819"},"context":"","outcome_status":{"category":"Local resolution","date":"2019-05"},"persistent_id":"588a49709ec59928148de61d5e955d05eca64e19c67869009874334fbb9caf4c","id":74360391,"location_subtype":"","month":"2019-05"},{"category":"other-crime","location_type":"Force","location":{"latitude":"51.470361","street":{"id":944232,"name":"On or near Airport\/airfield"},"longitude":"-0.458471"},"context":"","outcome_status":{"category":"Local resolution","date":"2019-05"},"persistent_id":"60efb1503a6d8d277c70d1bed151706fce40452d5e951c469a8e76f15770a32d","id":74368092,"location_subtype":"","month":"2019-05"}]