[{"category":"anti-social-behaviour","location_type":"Force","location":{"latitude":"51.515658","street":{"id":956392,"name":"On or near Shopping Area"},"longitude":"-0.143888"},"context":"","outcome_status":null,"persistent_id":"","id":74282205,"location_subtype":"","month":"2019-05"},{"category":"anti-social-behaviour","location_type":"Force","location":{"latitude":"51.514538","street":{"id":956335,"name":"On or near Little Argyll Street"},"longitude":"-0.141282"},"context":"","outcome_status":null,"persistent_id":"","id":74282168,"location_subtype":"","month":"2019-05"},{"category":"anti-social-behaviour","location_type":"Force","location":{"latitude":"51.514538","street":{"id":956335,"name":"On or near Little Argyll Street"},"longitude":"-0.141282"},"context":"","outcome_status":null,"persistent_id":"","id":74282167,"location_subtype":"","month":"2019-05"},{"category":"anti-social-behaviour","location_type":"Force","location":{"latitude":"51.514538","street":{"id":956335,"name":"On or near Little Argyll Street"},"longitude":"-0.141282"},"context":"","outcome_status":null,"persistent_id":"","id":74282166,"location_subtype":"","month":"2019-05"},{"category":"anti-social-behaviour","location_type":"Force","location":{"latitude":"51.497905","street":{"id":953327,"name":"On or near Grosvenor Gardens Mews East"},"longitude":"-0.146050"},"context":"","outcome_status":null,"persistent_id":"","id":74282219,"location_subtype":"","month":"2019-05"},{"category":"anti-social-behaviour","location_type":"Force","location":{"latitude":"51.509475","street":{"id":956390,"name":"On or near Berkeley Square"},"longitude":"-0.146402"},"context":"","outcome_status":null,"persistent_id":"","id":74282218,"location_subtype":"","month":"2019-05"},{"category":"anti-social-behaviour","location_type":"Force","location":{"latitude":"51.489321","street":{"id":949631,"name":"On or near Sutherland Row"},"longitude":"-0.146255"},"context":"","outcome_status":null,"persistent_id":"","id":74282217,"location_subtype":"","month":"2019-05"},{"category":"anti-social-behaviour","location_type":"Force","location":{"latitude":"51.498328","street":{"id":953294,"name":"On or near Abbey Orchard Street"},"longitude":"-0.131338"},"context":"","outcome_status":null,"persistent_id":"","id":74283406,"location_subtype":"","month":"2019-05"},{"category":"anti-social-behaviour","location_type":"Force","location":{"latitude":"51.489321","street":{"id":949631,"name":"On or near Sutherland Row"},"longitude":"-0.146255"},"context":"","outcome_status":null,"persistent_id":"","id":74282216,"location_subtype":"","month":"2019-05"},{"category":"anti-social-behaviour","location_type":"Force","location":{"latitude":"51.489321","street":{"id":949631,"name":"On or near Sutherland Row"},"longitude":"-0.146255"},"context":"","outcome_status":null,"persistent_id":"","id":74282215,"location_subtype":"","month":"2019-05"},{"category":"anti-social-behaviour","location_type":"Force","location":{"latitude":"51.515886","street":{"id":956813,"name":"On or near Welbeck Street"},"longitude":"-0.148621"},"context":"","outcome_status":null,"persistent_id":"","id":74289291,"location_subtype":"","month":"2019-05"},{"category":"anti-social-behaviour","location_type":"Force","location":{"latitude":"51.514044","street":{"id":956807,"name":"On or near Parking Area"},"longitude":"-0.157257"},"context":"","outcome_status":null,"persistent_id":"","id":74289319,"location_subtype":"","month":"2019-05"},{"category":"anti-social-behaviour","location_type":"Force","location":{"latitude":"51.490158","street":{"id":949624,"name":"On or near Parking Area"},"longitude":"-0.146307"},"context":"","outcome_status":null,"persistent_id":"","id":74282213,"location_subtype":"","month":"2019-05"},{"category":"anti-social-behaviour","location_type":"Force","location":{"latitude":"51.490158","street":{"id":949624,"name":"On or near Parking Area"},"longitude":"-0.146307"},"context":"","outcome_status":null,"persistent_id":"","id":74282212,"location_subtype":"","month":"2019-05"},{"category":"anti-social-behaviour","location_type":"Force","location":{"latitude":"51.497905","street":{"id":953327,"name":"On or near Grosvenor Gardens Mews East"},"longitude":"-0.146050"},"context":"","outcome_status":null,"persistent_id":"","id":74282211,"location_subtype":"","month":"2019-05"},{"category":"anti-social-behaviour","location_type":"Force","location":{"latitude":"51.513761","street":{"id":956391,"name":"On or near Nightclub"},"longitude":"-0.145637"},"context":"","outcome_status":null,"persistent_id":"","id":74282221,"location_subtype":"","month":"2019-05"},{"category":"anti-social-behaviour","location_type":"Force","location":{"latitude":"51.515658","street":{"id":956392,"name":"On or near Shopping Area"},"longitude":"-0.143888"},"context":"","outcome_status":null,"persistent_id":"","id":74282209,"location_subtype":"","month":"2019-05"},{"category":"anti-social-behaviour","location_type":"Force","location":{"latitude":"51.515658","street":{"id":956392,"name":"On or near Shopping Area"},"longitude":"-0.143888"},"context":"","outcome_status":null,"persistent_id":"","id":74282208,"location_subtype":"","month":"2019-05"},{"category":"anti-social-behaviour","location_type":"Force","location":{"latitude":"51.515658","street":{"id":956392,"name":"On or near Shopping Area"},"longitude":"-0.143888"},"context":"","outcome_status":null,"persistent_id":"","id":74282207,"location_subtype":"","month":"2019-05"},{"category":"anti-social-behaviour","location_type":"Force","location":{"latitude":"51.496231","street":{"id":953342,"name":"On or near Terminus Place"},"longitude":"-0.144245"},"context":"","outcome_status":null,"persistent_id":"","id":74282203,"location_subtype":"","month":"2019-05"},{"category":"anti-social-behaviour","location_type":"Force","location":{"latitude":"51.511694","street":{"id":956389,"name":"On or near Bloomfield Place"},"longitude":"-0.144554"},"context":"","outcome_status":null,"persistent_id":"","id":74282202,"location_subtype":"","month":"2019-05"},{"category":"anti-social-behaviour","location_type":"Force","location":{"latitude":"51.496231","street":{"id":953342,"name":"On or near Terminus Place"},"longitude":"-0.144245"},"context":"","outcome_status":null,"persistent_id":"","id":74282197,"location_subtype":"","month":"2019-05"},{"category":"anti-social-behaviour","location_type":"Force","location":{"latitude":"51.496231","street":{"id":953342,"name":"On or near Terminus Place"},"longitude":"-0.144245"},"context":"","outcome_status":null,"persistent_id":"","id":74282196,"location_subtype":"","month":"2019-05"},{"category":"anti-social-behaviour","location_type":"Force","location":{"latitude":"51.496231","street":{"id":953342,"name":"On or near Terminus Place"},"longitude":"-0.144245"},"context":"","outcome_status":null,"persistent_id":"","id":74282195,"location_subtype":"","month":"2019-05"},{"category":"anti-social-behaviour","location_type":"Force","location":{"latitude":"51.507569","street":{"id":956649,"name":"On or near Waterloo Place"},"longitude":"-0.132833"},"context":"","outcome_status":null,"persistent_id":"","id":74281203,"location_subtype":"","month":"2019-05"},{"category":"anti-social-behaviour","location_type":"Force","location":{"latitude":"51.495736","street":{"id":953332,"name":"On or near Shopping Area"},"longitude":"-0.144755"},"context":"","outcome_status":null,"persistent_id":"","id":74282193,"location_subtype":"","month":"2019-05"},{"category":"anti-social-behaviour","location_type":"Force","location":{"latitude":"51.491055","street":{"id":949642,"name":"On or near Warwick Way"},"longitude":"-0.143908"},"context":"","outcome_status":null,"persistent_id":"","id":74282191,"location_subtype":"","month":"2019-05"},{"category":"anti-social-behaviour","location_type":"Force","location":{"latitude":"51.506930","street":{"id":956706,"name":"On or near Clarges Street"},"longitude":"-0.145252"},"context":"","outcome_status":null,"persistent_id":"","id":74282214,"location_subtype":"","month":"2019-05"},{"category":"anti-social-behaviour","location_type":"Force","location":{"latitude":"51.491055","street":{"id":949642,"name":"On or near Warwick Way"},"longitude":"-0.143908"},"context":"","outcome_status":null,"persistent_id":"","id":74282190,"location_subtype":"","month":"2019-05"},{"category":"anti-social-behaviour","location_type":"Force","location":{"latitude":"51.512908","street":{"id":956378,"name":"On or near New Bond Street"},"longitude":"-0.145110"},"context":"","outcome_status":null,"persistent_id":"","id":74282210,"location_subtype":"","month":"2019-05"},{"category":"anti-social-behaviour","location_type":"Force","location":{"latitude":"51.491055","street":{"id":949642,"name":"On or near Warwick Way"},"longitude":"-0.143908"},"context":"","outcome_status":null,"persistent_id":"","id":74282189,"location_subtype":"","month":"2019-05"},{"category":"anti-social-behaviour","location_type":"Force","location":{"latitude":"51.492426","street":{"id":953401,"name":"On or near Vauxhall Bridge Road"},"longitude":"-0.137341"},"context":"","outcome_status":null,"persistent_id":"","id":74281300,"location_subtype":"","month":"2019-05"},{"category":"anti-social-behaviour","location_type":"Force","location":{"latitude":"51.491055","street":{"id":949642,"name":"On or near Warwick Way"},"longitude":"-0.143908"},"context":"","outcome_status":null,"persistent_id":"","id":74282188,"location_subtype":"","month":"2019-05"},{"category":"anti-social-behaviour","location_type":"Force","location":{"latitude":"51.495340","street":{"id":953395,"name":"On or near Race Track"},"longitude":"-0.142466"},"context":"","outcome_status":null,"persistent_id":"","id":74281366,"location_subtype":"","month":"2019-05"},{"category":"anti-social-behaviour","location_type":"Force","location":{"latitude":"51.492658","street":{"id":953389,"name":"On or near Guildhouse Street"},"longitude":"-0.141798"},"context":"","outcome_status":null,"persistent_id":"","id":74281369,"location_subtype":"","month":"2019-05"},{"category":"anti-social-behaviour","location_type":"Force","location":{"latitude":"51.507758","street":{"id":956692,"name":"On or near Nightclub"},"longitude":"-0.141284"},"context":"","outcome_status":null,"persistent_id":"","id":74281356,"location_subtype":"","month":"2019-05"},{"category":"anti-social-behaviour","location_type":"Force","location":{"latitude":"51.512659","street":{"id":956333,"name":"On or near Maddox Street"},"longitude":"-0.143045"},"context":"","outcome_status":null,"persistent_id":"","id":74282186,"location_subtype":"","month":"2019-05"},{"category":"anti-social-behaviour","location_type":"Force","location":{"latitude":"51.489487","street":{"id":949669,"name":"On or near Alderney Street"},"longitude":"-0.143698"},"context":"","outcome_status":null,"persistent_id":"","id":74282183,"location_subtype":"","month":"2019-05"},{"category":"anti-social-behaviour","location_type":"Force","location":{"latitude":"51.515658","street":{"id":956392,"name":"On or near Shopping Area"},"longitude":"-0.143888"},"context":"","outcome_status":null,"persistent_id":"","id":74282206,"location_subtype":"","month":"2019-05"},{"category":"anti-social-behaviour","location_type":"Force","location":{"latitude":"51.514983","street":{"id":956949,"name":"On or near Shopping Area"},"longitude":"-0.147822"},"context":"","outcome_status":null,"persistent_id":"","id":74282239,"location_subtype":"","month":"2019-05"},{"category":"anti-social-behaviour","location_type":"Force","location":{"latitude":"51.493904","street":{"id":953396,"name":"On or near Conference\/exhibition Centre"},"longitude":"-0.142655"},"context":"","outcome_status":null,"persistent_id":"","id":74282181,"location_subtype":"","month":"2019-05"},{"category":"anti-social-behaviour","location_type":"Force","location":{"latitude":"51.515744","street":{"id":956337,"name":"On or near John Prince's Street"},"longitude":"-0.143078"},"context":"","outcome_status":null,"persistent_id":"","id":74282175,"location_subtype":"","month":"2019-05"},{"category":"anti-social-behaviour","location_type":"Force","location":{"latitude":"51.513075","street":{"id":956330,"name":"On or near Mason's Arms Mews"},"longitude":"-0.142624"},"context":"","outcome_status":null,"persistent_id":"","id":74282174,"location_subtype":"","month":"2019-05"},{"category":"anti-social-behaviour","location_type":"Force","location":{"latitude":"51.513075","street":{"id":956330,"name":"On or near Mason's Arms Mews"},"longitude":"-0.142624"},"context":"","outcome_status":null,"persistent_id":"","id":74282173,"location_subtype":"","month":"2019-05"},{"category":"anti-social-behaviour","location_type":"Force","location":{"latitude":"51.512494","street":{"id":956329,"name":"On or near Mill Street"},"longitude":"-0.142259"},"context":"","outcome_status":null,"persistent_id":"","id":74282172,"location_subtype":"","month":"2019-05"},{"category":"anti-social-behaviour","location_type":"Force","location":{"latitude":"51.514538","street":{"id":956335,"name":"On or near Little Argyll Street"},"longitude":"-0.141282"},"context":"","outcome_status":null,"persistent_id":"","id":74282170,"location_subtype":"","month":"2019-05"},{"category":"anti-social-behaviour","location_type":"Force","location":{"latitude":"51.514538","street":{"id":956335,"name":"On or near Little Argyll Street"},"longitude":"-0.141282"},"context":"","outcome_status":null,"persistent_id":"","id":74282169,"location_subtype":"","month":"2019-05"},{"category":"anti-social-behaviour","location_type":"Force","location":{"latitude":"51.514605","street":{"id":956883,"name":"On or near Shopping Area"},"longitude":"-0.150662"},"context":"","outcome_status":null,"persistent_id":"","id":74282263,"location_subtype":"","month":"2019-05"},{"category":"anti-social-behaviour","location_type":"Force","location":{"latitude":"51.514605","street":{"id":956883,"name":"On or near Shopping Area"},"longitude":"-0.150662"},"context":"","outcome_status":null,"persistent_id":"","id":74282264,"location_subtype":"","month":"2019-05"},{"category":"anti-social-behaviour","location_type":"Force","location":{"latitude":"51.514605","street":{"id":956883,"name":"On or near Shopping Area"},"longitude":"-0.150662"},"context":"","outcome_status":null,"persistent_id":"","id":74282265,"location_subtype":"","month":"2019-05"},{"category":"anti-social-behaviour","location_type":"Force","location":{"latitude":"51.490731","street":{"id":949861,"name":"On or near Pimlico Road"},"longitude":"-0.152406"},"context":"","outcome_status":null,"persistent_id":"","id":74282271,"location_subtype":"","month":"2019-05"},{"category":"anti-social-behaviour","location_type":"Force","location":{"latitude":"51.513234","street":{"id":956857,"name":"On or near Duke Street"},"longitude":"-0.150934"},"context":"","outcome_status":null,"persistent_id":"","id":74282272,"location_subtype":"","month":"2019-05"},{"category":"anti-social-behaviour","location_type":"Force","location":{"latitude":"51.512719","street":{"id":956806,"name":"On or near Parking Area"},"longitude":"-0.151387"},"context":"","outcome_status":null,"persistent_id":"","id":74282273,"location_subtype":"","month":"2019-05"},{"category":"anti-social-behaviour","location_type":"Force","location":{"latitude":"51.509692","street":{"id":956839,"name":"On or near Mount Street"},"longitude":"-0.151048"},"context":"","outcome_status":null,"persistent_id":"","id":74282274,"location_subtype":"","month":"2019-05"},{"category":"anti-social-behaviour","location_type":"Force","location":{"latitude":"51.502958","street":{"id":953060,"name":"On or near Pedestrian Subway"},"longitude":"-0.152257"},"context":"","outcome_status":null,"persistent_id":"","id":74282276,"location_subtype":"","month":"2019-05"},{"category":"anti-social-behaviour","location_type":"Force","location":{"latitude":"51.490731","street":{"id":949861,"name":"On or near Pimlico Road"},"longitude":"-0.152406"},"context":"","outcome_status":null,"persistent_id":"","id":74282277,"location_subtype":"","month":"2019-05"},{"category":"anti-social-behaviour","location_type":"Force","location":{"latitude":"51.490731","street":{"id":949861,"name":"On or near Pimlico Road"},"longitude":"-0.152406"},"context":"","outcome_status":null,"persistent_id":"","id":74282278,"location_subtype":"","month":"2019-05"},{"category":"anti-social-behaviour","location_type":"Force","location":{"latitude":"51.490731","street":{"id":949861,"name":"On or near Pimlico Road"},"longitude":"-0.152406"},"context":"","outcome_status":null,"persistent_id":"","id":74282279,"location_subtype":"","month":"2019-05"},{"category":"anti-social-behaviour","location_type":"Force","location":{"latitude":"51.500227","street":{"id":953076,"name":"On or near Montrose Place"},"longitude":"-0.151863"},"context":"","outcome_status":null,"persistent_id":"","id":74282280,"location_subtype":"","month":"2019-05"},{"category":"anti-social-behaviour","location_type":"Force","location":{"latitude":"51.510725","street":{"id":956868,"name":"On or near Blackburne's Mews"},"longitude":"-0.152649"},"context":"","outcome_status":null,"persistent_id":"","id":74282281,"location_subtype":"","month":"2019-05"},{"category":"anti-social-behaviour","location_type":"Force","location":{"latitude":"51.508201","street":{"id":956935,"name":"On or near Park Lane"},"longitude":"-0.154019"},"context":"","outcome_status":null,"persistent_id":"","id":74282282,"location_subtype":"","month":"2019-05"},{"category":"anti-social-behaviour","location_type":"Force","location":{"latitude":"51.496450","street":{"id":953048,"name":"On or near Chesham Street"},"longitude":"-0.155834"},"context":"","outcome_status":null,"persistent_id":"","id":74282292,"location_subtype":"","month":"2019-05"},{"category":"anti-social-behaviour","location_type":"Force","location":{"latitude":"51.508201","street":{"id":956935,"name":"On or near Park Lane"},"longitude":"-0.154019"},"context":"","outcome_status":null,"persistent_id":"","id":74282283,"location_subtype":"","month":"2019-05"},{"category":"anti-social-behaviour","location_type":"Force","location":{"latitude":"51.508201","street":{"id":956935,"name":"On or near Park Lane"},"longitude":"-0.154019"},"context":"","outcome_status":null,"persistent_id":"","id":74282284,"location_subtype":"","month":"2019-05"},{"category":"anti-social-behaviour","location_type":"Force","location":{"latitude":"51.490536","street":{"id":949864,"name":"On or near Holbein Place"},"longitude":"-0.155482"},"context":"","outcome_status":null,"persistent_id":"","id":74282285,"location_subtype":"","month":"2019-05"},{"category":"anti-social-behaviour","location_type":"Force","location":{"latitude":"51.510365","street":{"id":956816,"name":"On or near Upper Grosvenor Street"},"longitude":"-0.154364"},"context":"","outcome_status":null,"persistent_id":"","id":74282286,"location_subtype":"","month":"2019-05"},{"category":"anti-social-behaviour","location_type":"Force","location":{"latitude":"51.514341","street":{"id":956850,"name":"On or near Granville Place"},"longitude":"-0.155558"},"context":"","outcome_status":null,"persistent_id":"","id":74282287,"location_subtype":"","month":"2019-05"},{"category":"anti-social-behaviour","location_type":"Force","location":{"latitude":"51.514341","street":{"id":956850,"name":"On or near Granville Place"},"longitude":"-0.155558"},"context":"","outcome_status":null,"persistent_id":"","id":74282288,"location_subtype":"","month":"2019-05"},{"category":"anti-social-behaviour","location_type":"Force","location":{"latitude":"51.514341","street":{"id":956850,"name":"On or near Granville Place"},"longitude":"-0.155558"},"context":"","outcome_status":null,"persistent_id":"","id":74282289,"location_subtype":"","month":"2019-05"},{"category":"anti-social-behaviour","location_type":"Force","location":{"latitude":"51.514341","street":{"id":956850,"name":"On or near Granville Place"},"longitude":"-0.155558"},"context":"","outcome_status":null,"persistent_id":"","id":74282290,"location_subtype":"","month":"2019-05"},{"category":"anti-social-behaviour","location_type":"Force","location":{"latitude":"51.496450","street":{"id":953048,"name":"On or near Chesham Street"},"longitude":"-0.155834"},"context":"","outcome_status":null,"persistent_id":"","id":74282291,"location_subtype":"","month":"2019-05"},{"category":"anti-social-behaviour","location_type":"Force","location":{"latitude":"51.496450","street":{"id":953048,"name":"On or near Chesham Street"},"longitude":"-0.155834"},"context":"","outcome_status":null,"persistent_id":"","id":74282293,"location_subtype":"","month":"2019-05"},{"category":"anti-social-behaviour","location_type":"Force","location":{"latitude":"51.512672","street":{"id":956889,"name":"On or near Further\/higher Educational Building"},"longitude":"-0.156980"},"context":"","outcome_status":null,"persistent_id":"","id":74282294,"location_subtype":"","month":"2019-05"},{"category":"anti-social-behaviour","location_type":"Force","location":{"latitude":"51.501815","street":{"id":953070,"name":"On or near William Street"},"longitude":"-0.158470"},"context":"","outcome_status":null,"persistent_id":"","id":74282295,"location_subtype":"","month":"2019-05"},{"category":"anti-social-behaviour","location_type":"Force","location":{"latitude":"51.511924","street":{"id":956805,"name":"On or near Pedestrian Subway"},"longitude":"-0.158005"},"context":"","outcome_status":null,"persistent_id":"","id":74282296,"location_subtype":"","month":"2019-05"},{"category":"anti-social-behaviour","location_type":"Force","location":{"latitude":"51.512465","street":{"id":956715,"name":"On or near Pedestrian Subway"},"longitude":"-0.158661"},"context":"","outcome_status":null,"persistent_id":"","id":74282297,"location_subtype":"","month":"2019-05"},{"category":"anti-social-behaviour","location_type":"Force","location":{"latitude":"51.501017","street":{"id":953161,"name":"On or near Raphael Street"},"longitude":"-0.163243"},"context":"","outcome_status":null,"persistent_id":"","id":74282298,"location_subtype":"","month":"2019-05"},{"category":"anti-social-behaviour","location_type":"Force","location":{"latitude":"51.500333","street":{"id":953164,"name":"On or near Lancelot Place"},"longitude":"-0.163774"},"context":"","outcome_status":null,"persistent_id":"","id":74282299,"location_subtype":"","month":"2019-05"},{"category":"anti-social-behaviour","location_type":"Force","location":{"latitude":"51.501240","street":{"id":953154,"name":"On or near Trevor Street"},"longitude":"-0.164833"},"context":"","outcome_status":null,"persistent_id":"","id":74282300,"location_subtype":"","month":"2019-05"},{"category":"anti-social-behaviour","location_type":"Force","location":{"latitude":"51.500160","street":{"id":952870,"name":"On or near Ennismore Gardens"},"longitude":"-0.170553"},"context":"","outcome_status":null,"persistent_id":"","id":74282301,"location_subtype":"","month":"2019-05"},{"category":"anti-social-behaviour","location_type":"Force","location":{"latitude":"51.501667","street":{"id":952878,"name":"On or near Kensington Road"},"longitude":"-0.175478"},"context":"","outcome_status":null,"persistent_id":"","id":74282302,"location_subtype":"","month":"2019-05"},{"category":"anti-social-behaviour","location_type":"Force","location":{"latitude":"51.496231","street":{"id":953342,"name":"On or near Terminus Place"},"longitude":"-0.144245"},"context":"","outcome_status":null,"persistent_id":"","id":74282204,"location_subtype":"","month":"2019-05"},{"category":"anti-social-behaviour","location_type":"Force","location":{"latitude":"51.513459","street":{"id":956735,"name":"On or near Stanhope Place"},"longitude":"-0.163002"},"context":"","outcome_status":null,"persistent_id":"","id":74289671,"location_subtype":"","month":"2019-05"},{"category":"anti-social-behaviour","location_type":"Force","location":{"latitude":"51.513064","street":{"id":956762,"name":"On or near Cumberland Gate"},"longitude":"-0.161908"},"context":"","outcome_status":null,"persistent_id":"","id":74289665,"location_subtype":"","month":"2019-05"},{"category":"anti-social-behaviour","location_type":"Force","location":{"latitude":"51.514062","street":{"id":956737,"name":"On or near Seymour Street"},"longitude":"-0.162459"},"context":"","outcome_status":null,"persistent_id":"","id":74289662,"location_subtype":"","month":"2019-05"},{"category":"anti-social-behaviour","location_type":"Force","location":{"latitude":"51.514847","street":{"id":956756,"name":"On or near Great Cumberland Mews"},"longitude":"-0.160870"},"context":"","outcome_status":null,"persistent_id":"","id":74289653,"location_subtype":"","month":"2019-05"},{"category":"anti-social-behaviour","location_type":"Force","location":{"latitude":"51.513846","street":{"id":956779,"name":"On or near Supermarket"},"longitude":"-0.160118"},"context":"","outcome_status":null,"persistent_id":"","id":74289644,"location_subtype":"","month":"2019-05"},{"category":"anti-social-behaviour","location_type":"Force","location":{"latitude":"51.513846","street":{"id":956779,"name":"On or near Supermarket"},"longitude":"-0.160118"},"context":"","outcome_status":null,"persistent_id":"","id":74289643,"location_subtype":"","month":"2019-05"},{"category":"anti-social-behaviour","location_type":"Force","location":{"latitude":"51.515265","street":{"id":956748,"name":"On or near New Quebec Street"},"longitude":"-0.158288"},"context":"","outcome_status":null,"persistent_id":"","id":74289323,"location_subtype":"","month":"2019-05"},{"category":"anti-social-behaviour","location_type":"Force","location":{"latitude":"51.514044","street":{"id":956807,"name":"On or near Parking Area"},"longitude":"-0.157257"},"context":"","outcome_status":null,"persistent_id":"","id":74289318,"location_subtype":"","month":"2019-05"},{"category":"anti-social-behaviour","location_type":"Force","location":{"latitude":"51.514397","street":{"id":956827,"name":"On or near Portman Street"},"longitude":"-0.156277"},"context":"","outcome_status":null,"persistent_id":"","id":74289317,"location_subtype":"","month":"2019-05"},{"category":"anti-social-behaviour","location_type":"Force","location":{"latitude":"51.514724","street":{"id":956832,"name":"On or near Portman Mews South"},"longitude":"-0.155341"},"context":"","outcome_status":null,"persistent_id":"","id":74289310,"location_subtype":"","month":"2019-05"},{"category":"anti-social-behaviour","location_type":"Force","location":{"latitude":"51.516065","street":{"id":956822,"name":"On or near Seymour Mews"},"longitude":"-0.153701"},"context":"","outcome_status":null,"persistent_id":"","id":74289307,"location_subtype":"","month":"2019-05"},{"category":"anti-social-behaviour","location_type":"Force","location":{"latitude":"51.515736","street":{"id":956880,"name":"On or near Conference\/exhibition Centre"},"longitude":"-0.153383"},"context":"","outcome_status":null,"persistent_id":"","id":74289306,"location_subtype":"","month":"2019-05"},{"category":"anti-social-behaviour","location_type":"Force","location":{"latitude":"51.515308","street":{"id":956834,"name":"On or near Picton Place"},"longitude":"-0.151354"},"context":"","outcome_status":null,"persistent_id":"","id":74289297,"location_subtype":"","month":"2019-05"},{"category":"anti-social-behaviour","location_type":"Force","location":{"latitude":"51.515584","street":{"id":956849,"name":"On or near Gray's Yard"},"longitude":"-0.151141"},"context":"","outcome_status":null,"persistent_id":"","id":74289296,"location_subtype":"","month":"2019-05"},{"category":"anti-social-behaviour","location_type":"Force","location":{"latitude":"51.514983","street":{"id":956949,"name":"On or near Shopping Area"},"longitude":"-0.147822"},"context":"","outcome_status":null,"persistent_id":"","id":74289292,"location_subtype":"","month":"2019-05"},{"category":"anti-social-behaviour","location_type":"Force","location":{"latitude":"51.515886","street":{"id":956813,"name":"On or near Welbeck Street"},"longitude":"-0.148621"},"context":"","outcome_status":null,"persistent_id":"","id":74289290,"location_subtype":"","month":"2019-05"},{"category":"anti-social-behaviour","location_type":"Force","location":{"latitude":"51.497534","street":{"id":953272,"name":"On or near Old Pye Street"},"longitude":"-0.132278"},"context":"","outcome_status":null,"persistent_id":"","id":74283419,"location_subtype":"","month":"2019-05"},{"category":"anti-social-behaviour","location_type":"Force","location":{"latitude":"51.497534","street":{"id":953272,"name":"On or near Old Pye Street"},"longitude":"-0.132278"},"context":"","outcome_status":null,"persistent_id":"","id":74283418,"location_subtype":"","month":"2019-05"},{"category":"anti-social-behaviour","location_type":"Force","location":{"latitude":"51.498328","street":{"id":953294,"name":"On or near Abbey Orchard Street"},"longitude":"-0.131338"},"context":"","outcome_status":null,"persistent_id":"","id":74283410,"location_subtype":"","month":"2019-05"},{"category":"anti-social-behaviour","location_type":"Force","location":{"latitude":"51.495146","street":{"id":953181,"name":"On or near Pavilion Road"},"longitude":"-0.159272"},"context":"","outcome_status":null,"persistent_id":"","id":74277113,"location_subtype":"","month":"2019-05"},{"category":"anti-social-behaviour","location_type":"Force","location":{"latitude":"51.498328","street":{"id":953294,"name":"On or near Abbey Orchard Street"},"longitude":"-0.131338"},"context":"","outcome_status":null,"persistent_id":"","id":74283409,"location_subtype":"","month":"2019-05"},{"category":"anti-social-behaviour","location_type":"Force","location":{"latitude":"51.498328","street":{"id":953294,"name":"On or near Abbey Orchard Street"},"longitude":"-0.131338"},"context":"","outcome_status":null,"persistent_id":"","id":74283408,"location_subtype":"","month":"2019-05"},{"category":"anti-social-behaviour","location_type":"Force","location":{"latitude":"51.498328","street":{"id":953294,"name":"On or near Abbey Orchard Street"},"longitude":"-0.131338"},"context":"","outcome_status":null,"persistent_id":"","id":74283407,"location_subtype":"","month":"2019-05"},{"category":"anti-social-behaviour","location_type":"Force","location":{"latitude":"51.507097","street":{"id":956648,"name":"On or near Parking Area"},"longitude":"-0.130864"},"context":"","outcome_status":null,"persistent_id":"","id":74283394,"location_subtype":"","month":"2019-05"},{"category":"anti-social-behaviour","location_type":"Force","location":{"latitude":"51.495736","street":{"id":953332,"name":"On or near Shopping Area"},"longitude":"-0.144755"},"context":"","outcome_status":null,"persistent_id":"","id":74282199,"location_subtype":"","month":"2019-05"},{"category":"anti-social-behaviour","location_type":"Force","location":{"latitude":"51.513839","street":{"id":956380,"name":"On or near Hanover Square"},"longitude":"-0.144265"},"context":"","outcome_status":null,"persistent_id":"","id":74282198,"location_subtype":"","month":"2019-05"},{"category":"anti-social-behaviour","location_type":"Force","location":{"latitude":"51.495736","street":{"id":953332,"name":"On or near Shopping Area"},"longitude":"-0.144755"},"context":"","outcome_status":null,"persistent_id":"","id":74282192,"location_subtype":"","month":"2019-05"},{"category":"anti-social-behaviour","location_type":"Force","location":{"latitude":"51.512659","street":{"id":956333,"name":"On or near Maddox Street"},"longitude":"-0.143045"},"context":"","outcome_status":null,"persistent_id":"","id":74282187,"location_subtype":"","month":"2019-05"},{"category":"anti-social-behaviour","location_type":"Force","location":{"latitude":"51.507758","street":{"id":956692,"name":"On or near Nightclub"},"longitude":"-0.141284"},"context":"","outcome_status":null,"persistent_id":"","id":74281357,"location_subtype":"","month":"2019-05"},{"category":"anti-social-behaviour","location_type":"Force","location":{"latitude":"51.514347","street":{"id":956356,"name":"On or near Argyll Street"},"longitude":"-0.140569"},"context":"","outcome_status":null,"persistent_id":"","id":74281355,"location_subtype":"","month":"2019-05"},{"category":"anti-social-behaviour","location_type":"Force","location":{"latitude":"51.493315","street":{"id":953380,"name":"On or near Wilton Road"},"longitude":"-0.141281"},"context":"","outcome_status":null,"persistent_id":"","id":74281350,"location_subtype":"","month":"2019-05"},{"category":"anti-social-behaviour","location_type":"Force","location":{"latitude":"51.493315","street":{"id":953380,"name":"On or near Wilton Road"},"longitude":"-0.141281"},"context":"","outcome_status":null,"persistent_id":"","id":74281349,"location_subtype":"","month":"2019-05"},{"category":"anti-social-behaviour","location_type":"Force","location":{"latitude":"51.493315","street":{"id":953380,"name":"On or near Wilton Road"},"longitude":"-0.141281"},"context":"","outcome_status":null,"persistent_id":"","id":74281348,"location_subtype":"","month":"2019-05"},{"category":"anti-social-behaviour","location_type":"Force","location":{"latitude":"51.508266","street":{"id":956694,"name":"On or near Nightclub"},"longitude":"-0.139866"},"context":"","outcome_status":null,"persistent_id":"","id":74281344,"location_subtype":"","month":"2019-05"},{"category":"anti-social-behaviour","location_type":"Force","location":{"latitude":"51.499044","street":{"id":953140,"name":"On or near Brompton Road"},"longitude":"-0.164705"},"context":"","outcome_status":null,"persistent_id":"","id":74277142,"location_subtype":"","month":"2019-05"},{"category":"anti-social-behaviour","location_type":"Force","location":{"latitude":"51.512098","street":{"id":956308,"name":"On or near Parking Area"},"longitude":"-0.139407"},"context":"","outcome_status":null,"persistent_id":"","id":74281343,"location_subtype":"","month":"2019-05"},{"category":"anti-social-behaviour","location_type":"Force","location":{"latitude":"51.491460","street":{"id":949644,"name":"On or near Warwick Square"},"longitude":"-0.140507"},"context":"","outcome_status":null,"persistent_id":"","id":74281342,"location_subtype":"","month":"2019-05"},{"category":"anti-social-behaviour","location_type":"Force","location":{"latitude":"51.513065","street":{"id":956363,"name":"On or near Nightclub"},"longitude":"-0.139728"},"context":"","outcome_status":null,"persistent_id":"","id":74281341,"location_subtype":"","month":"2019-05"},{"category":"anti-social-behaviour","location_type":"Force","location":{"latitude":"51.492635","street":{"id":953387,"name":"On or near Longmoore Street"},"longitude":"-0.140344"},"context":"","outcome_status":null,"persistent_id":"","id":74281340,"location_subtype":"","month":"2019-05"},{"category":"anti-social-behaviour","location_type":"Force","location":{"latitude":"51.492635","street":{"id":953387,"name":"On or near Longmoore Street"},"longitude":"-0.140344"},"context":"","outcome_status":null,"persistent_id":"","id":74281339,"location_subtype":"","month":"2019-05"},{"category":"anti-social-behaviour","location_type":"Force","location":{"latitude":"51.493123","street":{"id":953385,"name":"On or near Tachbrook Mews"},"longitude":"-0.139920"},"context":"","outcome_status":null,"persistent_id":"","id":74281338,"location_subtype":"","month":"2019-05"},{"category":"anti-social-behaviour","location_type":"Force","location":{"latitude":"51.492187","street":{"id":949670,"name":"On or near Supermarket"},"longitude":"-0.139325"},"context":"","outcome_status":null,"persistent_id":"","id":74281333,"location_subtype":"","month":"2019-05"},{"category":"anti-social-behaviour","location_type":"Force","location":{"latitude":"51.492187","street":{"id":949670,"name":"On or near Supermarket"},"longitude":"-0.139325"},"context":"","outcome_status":null,"persistent_id":"","id":74281332,"location_subtype":"","month":"2019-05"},{"category":"anti-social-behaviour","location_type":"Force","location":{"latitude":"51.493007","street":{"id":953384,"name":"On or near Upper Tachbrook Street"},"longitude":"-0.139378"},"context":"","outcome_status":null,"persistent_id":"","id":74281331,"location_subtype":"","month":"2019-05"},{"category":"anti-social-behaviour","location_type":"Force","location":{"latitude":"51.514289","street":{"id":956341,"name":"On or near Great Marlborough Street"},"longitude":"-0.139231"},"context":"","outcome_status":null,"persistent_id":"","id":74281329,"location_subtype":"","month":"2019-05"},{"category":"anti-social-behaviour","location_type":"Force","location":{"latitude":"51.495745","street":{"id":953256,"name":"On or near Parking Area"},"longitude":"-0.132308"},"context":"","outcome_status":null,"persistent_id":"","id":74280557,"location_subtype":"","month":"2019-05"},{"category":"anti-social-behaviour","location_type":"Force","location":{"latitude":"51.495745","street":{"id":953256,"name":"On or near Parking Area"},"longitude":"-0.132308"},"context":"","outcome_status":null,"persistent_id":"","id":74280556,"location_subtype":"","month":"2019-05"},{"category":"anti-social-behaviour","location_type":"Force","location":{"latitude":"51.505801","street":{"id":956666,"name":"On or near Carlton Gardens"},"longitude":"-0.133583"},"context":"","outcome_status":null,"persistent_id":"","id":74280555,"location_subtype":"","month":"2019-05"},{"category":"anti-social-behaviour","location_type":"Force","location":{"latitude":"51.505801","street":{"id":956666,"name":"On or near Carlton Gardens"},"longitude":"-0.133583"},"context":"","outcome_status":null,"persistent_id":"","id":74280554,"location_subtype":"","month":"2019-05"},{"category":"anti-social-behaviour","location_type":"Force","location":{"latitude":"51.493113","street":{"id":953204,"name":"On or near Shopping Area"},"longitude":"-0.168444"},"context":"","outcome_status":null,"persistent_id":"","id":74277158,"location_subtype":"","month":"2019-05"},{"category":"anti-social-behaviour","location_type":"Force","location":{"latitude":"51.505801","street":{"id":956666,"name":"On or near Carlton Gardens"},"longitude":"-0.133583"},"context":"","outcome_status":null,"persistent_id":"","id":74280553,"location_subtype":"","month":"2019-05"},{"category":"anti-social-behaviour","location_type":"Force","location":{"latitude":"51.505801","street":{"id":956666,"name":"On or near Carlton Gardens"},"longitude":"-0.133583"},"context":"","outcome_status":null,"persistent_id":"","id":74280552,"location_subtype":"","month":"2019-05"},{"category":"anti-social-behaviour","location_type":"Force","location":{"latitude":"51.498918","street":{"id":953287,"name":"On or near Dacre Street"},"longitude":"-0.132798"},"context":"","outcome_status":null,"persistent_id":"","id":74280551,"location_subtype":"","month":"2019-05"},{"category":"anti-social-behaviour","location_type":"Force","location":{"latitude":"51.508220","street":{"id":956663,"name":"On or near Charles Ii Street"},"longitude":"-0.132461"},"context":"","outcome_status":null,"persistent_id":"","id":74280550,"location_subtype":"","month":"2019-05"},{"category":"anti-social-behaviour","location_type":"Force","location":{"latitude":"51.498918","street":{"id":953287,"name":"On or near Dacre Street"},"longitude":"-0.132798"},"context":"","outcome_status":null,"persistent_id":"","id":74280546,"location_subtype":"","month":"2019-05"},{"category":"anti-social-behaviour","location_type":"Force","location":{"latitude":"51.507569","street":{"id":956649,"name":"On or near Waterloo Place"},"longitude":"-0.132833"},"context":"","outcome_status":null,"persistent_id":"","id":74280541,"location_subtype":"","month":"2019-05"},{"category":"anti-social-behaviour","location_type":"Force","location":{"latitude":"51.507569","street":{"id":956649,"name":"On or near Waterloo Place"},"longitude":"-0.132833"},"context":"","outcome_status":null,"persistent_id":"","id":74280540,"location_subtype":"","month":"2019-05"},{"category":"anti-social-behaviour","location_type":"Force","location":{"latitude":"51.507569","street":{"id":956649,"name":"On or near Waterloo Place"},"longitude":"-0.132833"},"context":"","outcome_status":null,"persistent_id":"","id":74280539,"location_subtype":"","month":"2019-05"},{"category":"anti-social-behaviour","location_type":"Force","location":{"latitude":"51.493007","street":{"id":953384,"name":"On or near Upper Tachbrook Street"},"longitude":"-0.139378"},"context":"","outcome_status":null,"persistent_id":"","id":74281328,"location_subtype":"","month":"2019-05"},{"category":"anti-social-behaviour","location_type":"Force","location":{"latitude":"51.510586","street":{"id":956372,"name":"On or near Shopping Area"},"longitude":"-0.138748"},"context":"","outcome_status":null,"persistent_id":"","id":74281324,"location_subtype":"","month":"2019-05"},{"category":"anti-social-behaviour","location_type":"Force","location":{"latitude":"51.491453","street":{"id":949662,"name":"On or near Churton Street"},"longitude":"-0.138951"},"context":"","outcome_status":null,"persistent_id":"","id":74281321,"location_subtype":"","month":"2019-05"},{"category":"anti-social-behaviour","location_type":"Force","location":{"latitude":"51.491453","street":{"id":949662,"name":"On or near Churton Street"},"longitude":"-0.138951"},"context":"","outcome_status":null,"persistent_id":"","id":74281320,"location_subtype":"","month":"2019-05"},{"category":"anti-social-behaviour","location_type":"Force","location":{"latitude":"51.513224","street":{"id":956331,"name":"On or near Marshall Street"},"longitude":"-0.137848"},"context":"","outcome_status":null,"persistent_id":"","id":74281317,"location_subtype":"","month":"2019-05"},{"category":"anti-social-behaviour","location_type":"Force","location":{"latitude":"51.511045","street":{"id":956490,"name":"On or near Lower John Street"},"longitude":"-0.137086"},"context":"","outcome_status":null,"persistent_id":"","id":74281316,"location_subtype":"","month":"2019-05"},{"category":"anti-social-behaviour","location_type":"Force","location":{"latitude":"51.511045","street":{"id":956490,"name":"On or near Lower John Street"},"longitude":"-0.137086"},"context":"","outcome_status":null,"persistent_id":"","id":74281315,"location_subtype":"","month":"2019-05"},{"category":"anti-social-behaviour","location_type":"Force","location":{"latitude":"51.511045","street":{"id":956490,"name":"On or near Lower John Street"},"longitude":"-0.137086"},"context":"","outcome_status":null,"persistent_id":"","id":74281314,"location_subtype":"","month":"2019-05"},{"category":"anti-social-behaviour","location_type":"Force","location":{"latitude":"51.511045","street":{"id":956490,"name":"On or near Lower John Street"},"longitude":"-0.137086"},"context":"","outcome_status":null,"persistent_id":"","id":74281313,"location_subtype":"","month":"2019-05"},{"category":"anti-social-behaviour","location_type":"Force","location":{"latitude":"51.508659","street":{"id":956583,"name":"On or near Conference\/exhibition Centre"},"longitude":"-0.137443"},"context":"","outcome_status":null,"persistent_id":"","id":74281311,"location_subtype":"","month":"2019-05"},{"category":"anti-social-behaviour","location_type":"Force","location":{"latitude":"51.512226","street":{"id":956446,"name":"On or near Upper James Street"},"longitude":"-0.137298"},"context":"","outcome_status":null,"persistent_id":"","id":74281310,"location_subtype":"","month":"2019-05"},{"category":"anti-social-behaviour","location_type":"Force","location":{"latitude":"51.493234","street":{"id":953398,"name":"On or near Walcott Street"},"longitude":"-0.137280"},"context":"","outcome_status":null,"persistent_id":"","id":74281307,"location_subtype":"","month":"2019-05"},{"category":"anti-social-behaviour","location_type":"Force","location":{"latitude":"51.494661","street":{"id":953422,"name":"On or near Coburg Close"},"longitude":"-0.137668"},"context":"","outcome_status":null,"persistent_id":"","id":74281306,"location_subtype":"","month":"2019-05"},{"category":"anti-social-behaviour","location_type":"Force","location":{"latitude":"51.494661","street":{"id":953422,"name":"On or near Coburg Close"},"longitude":"-0.137668"},"context":"","outcome_status":null,"persistent_id":"","id":74281305,"location_subtype":"","month":"2019-05"},{"category":"anti-social-behaviour","location_type":"Force","location":{"latitude":"51.494661","street":{"id":953422,"name":"On or near Coburg Close"},"longitude":"-0.137668"},"context":"","outcome_status":null,"persistent_id":"","id":74281304,"location_subtype":"","month":"2019-05"},{"category":"anti-social-behaviour","location_type":"Force","location":{"latitude":"51.494661","street":{"id":953422,"name":"On or near Coburg Close"},"longitude":"-0.137668"},"context":"","outcome_status":null,"persistent_id":"","id":74281303,"location_subtype":"","month":"2019-05"},{"category":"anti-social-behaviour","location_type":"Force","location":{"latitude":"51.494661","street":{"id":953422,"name":"On or near Coburg Close"},"longitude":"-0.137668"},"context":"","outcome_status":null,"persistent_id":"","id":74281302,"location_subtype":"","month":"2019-05"},{"category":"anti-social-behaviour","location_type":"Force","location":{"latitude":"51.494661","street":{"id":953422,"name":"On or near Coburg Close"},"longitude":"-0.137668"},"context":"","outcome_status":null,"persistent_id":"","id":74281301,"location_subtype":"","month":"2019-05"},{"category":"anti-social-behaviour","location_type":"Force","location":{"latitude":"51.508862","street":{"id":956589,"name":"On or near Sports\/recreation Area"},"longitude":"-0.136657"},"context":"","outcome_status":null,"persistent_id":"","id":74281299,"location_subtype":"","month":"2019-05"},{"category":"anti-social-behaviour","location_type":"Force","location":{"latitude":"51.511394","street":{"id":956491,"name":"On or near Lower James Street"},"longitude":"-0.136424"},"context":"","outcome_status":null,"persistent_id":"","id":74281298,"location_subtype":"","month":"2019-05"},{"category":"anti-social-behaviour","location_type":"Force","location":{"latitude":"51.511394","street":{"id":956491,"name":"On or near Lower James Street"},"longitude":"-0.136424"},"context":"","outcome_status":null,"persistent_id":"","id":74281297,"location_subtype":"","month":"2019-05"},{"category":"anti-social-behaviour","location_type":"Force","location":{"latitude":"51.506695","street":{"id":956942,"name":"On or near Curzon Street"},"longitude":"-0.148028"},"context":"","outcome_status":null,"persistent_id":"","id":74282234,"location_subtype":"","month":"2019-05"},{"category":"anti-social-behaviour","location_type":"Force","location":{"latitude":"51.509929","street":{"id":956469,"name":"On or near Regent Street"},"longitude":"-0.136440"},"context":"","outcome_status":null,"persistent_id":"","id":74281293,"location_subtype":"","month":"2019-05"},{"category":"anti-social-behaviour","location_type":"Force","location":{"latitude":"51.509929","street":{"id":956469,"name":"On or near Regent Street"},"longitude":"-0.136440"},"context":"","outcome_status":null,"persistent_id":"","id":74281292,"location_subtype":"","month":"2019-05"},{"category":"anti-social-behaviour","location_type":"Force","location":{"latitude":"51.508499","street":{"id":956497,"name":"On or near Jermyn Street"},"longitude":"-0.136455"},"context":"","outcome_status":null,"persistent_id":"","id":74281291,"location_subtype":"","month":"2019-05"},{"category":"anti-social-behaviour","location_type":"Force","location":{"latitude":"51.508499","street":{"id":956497,"name":"On or near Jermyn Street"},"longitude":"-0.136455"},"context":"","outcome_status":null,"persistent_id":"","id":74281290,"location_subtype":"","month":"2019-05"},{"category":"anti-social-behaviour","location_type":"Force","location":{"latitude":"51.494972","street":{"id":953418,"name":"On or near Greencoat Place"},"longitude":"-0.136849"},"context":"","outcome_status":null,"persistent_id":"","id":74281289,"location_subtype":"","month":"2019-05"},{"category":"anti-social-behaviour","location_type":"Force","location":{"latitude":"51.494972","street":{"id":953418,"name":"On or near Greencoat Place"},"longitude":"-0.136849"},"context":"","outcome_status":null,"persistent_id":"","id":74281288,"location_subtype":"","month":"2019-05"},{"category":"anti-social-behaviour","location_type":"Force","location":{"latitude":"51.494972","street":{"id":953418,"name":"On or near Greencoat Place"},"longitude":"-0.136849"},"context":"","outcome_status":null,"persistent_id":"","id":74281287,"location_subtype":"","month":"2019-05"},{"category":"anti-social-behaviour","location_type":"Force","location":{"latitude":"51.494972","street":{"id":953418,"name":"On or near Greencoat Place"},"longitude":"-0.136849"},"context":"","outcome_status":null,"persistent_id":"","id":74281286,"location_subtype":"","month":"2019-05"},{"category":"anti-social-behaviour","location_type":"Force","location":{"latitude":"51.492865","street":{"id":953417,"name":"On or near Hatherley Street"},"longitude":"-0.137251"},"context":"","outcome_status":null,"persistent_id":"","id":74281285,"location_subtype":"","month":"2019-05"},{"category":"anti-social-behaviour","location_type":"Force","location":{"latitude":"51.508080","street":{"id":956658,"name":"On or near Duke Of York Street"},"longitude":"-0.136098"},"context":"","outcome_status":null,"persistent_id":"","id":74281284,"location_subtype":"","month":"2019-05"},{"category":"anti-social-behaviour","location_type":"Force","location":{"latitude":"51.495648","street":{"id":953282,"name":"On or near Greencoat Row"},"longitude":"-0.136936"},"context":"","outcome_status":null,"persistent_id":"","id":74281283,"location_subtype":"","month":"2019-05"},{"category":"anti-social-behaviour","location_type":"Force","location":{"latitude":"51.511486","street":{"id":956458,"name":"On or near Smith's Court"},"longitude":"-0.134849"},"context":"","outcome_status":null,"persistent_id":"","id":74281266,"location_subtype":"","month":"2019-05"},{"category":"anti-social-behaviour","location_type":"Force","location":{"latitude":"51.511486","street":{"id":956458,"name":"On or near Smith's Court"},"longitude":"-0.134849"},"context":"","outcome_status":null,"persistent_id":"","id":74281265,"location_subtype":"","month":"2019-05"},{"category":"anti-social-behaviour","location_type":"Force","location":{"latitude":"51.493904","street":{"id":953396,"name":"On or near Conference\/exhibition Centre"},"longitude":"-0.142655"},"context":"","outcome_status":null,"persistent_id":"","id":74281376,"location_subtype":"","month":"2019-05"},{"category":"anti-social-behaviour","location_type":"Force","location":{"latitude":"51.511486","street":{"id":956458,"name":"On or near Smith's Court"},"longitude":"-0.134849"},"context":"","outcome_status":null,"persistent_id":"","id":74281264,"location_subtype":"","month":"2019-05"},{"category":"anti-social-behaviour","location_type":"Force","location":{"latitude":"51.509150","street":{"id":956550,"name":"On or near Theatre\/concert Hall"},"longitude":"-0.134959"},"context":"","outcome_status":null,"persistent_id":"","id":74281263,"location_subtype":"","month":"2019-05"},{"category":"anti-social-behaviour","location_type":"Force","location":{"latitude":"51.496095","street":{"id":953268,"name":"On or near Rochester Row"},"longitude":"-0.135088"},"context":"","outcome_status":null,"persistent_id":"","id":74281262,"location_subtype":"","month":"2019-05"},{"category":"anti-social-behaviour","location_type":"Force","location":{"latitude":"51.506455","street":{"id":956655,"name":"On or near Pall Mall"},"longitude":"-0.134565"},"context":"","outcome_status":null,"persistent_id":"","id":74281261,"location_subtype":"","month":"2019-05"},{"category":"anti-social-behaviour","location_type":"Force","location":{"latitude":"51.498551","street":{"id":953290,"name":"On or near Caxton Street"},"longitude":"-0.135161"},"context":"","outcome_status":null,"persistent_id":"","id":74281251,"location_subtype":"","month":"2019-05"},{"category":"anti-social-behaviour","location_type":"Force","location":{"latitude":"51.510930","street":{"id":956351,"name":"On or near Clifford Street"},"longitude":"-0.141746"},"context":"","outcome_status":null,"persistent_id":"","id":74281375,"location_subtype":"","month":"2019-05"},{"category":"anti-social-behaviour","location_type":"Force","location":{"latitude":"51.495514","street":{"id":953280,"name":"On or near Greycoat Street"},"longitude":"-0.134766"},"context":"","outcome_status":null,"persistent_id":"","id":74281249,"location_subtype":"","month":"2019-05"},{"category":"anti-social-behaviour","location_type":"Force","location":{"latitude":"51.508946","street":{"id":956598,"name":"On or near Supermarket"},"longitude":"-0.134564"},"context":"","outcome_status":null,"persistent_id":"","id":74281248,"location_subtype":"","month":"2019-05"},{"category":"anti-social-behaviour","location_type":"Force","location":{"latitude":"51.511238","street":{"id":956559,"name":"On or near Theatre\/concert Hall"},"longitude":"-0.133922"},"context":"","outcome_status":null,"persistent_id":"","id":74281247,"location_subtype":"","month":"2019-05"},{"category":"anti-social-behaviour","location_type":"Force","location":{"latitude":"51.511238","street":{"id":956559,"name":"On or near Theatre\/concert Hall"},"longitude":"-0.133922"},"context":"","outcome_status":null,"persistent_id":"","id":74281246,"location_subtype":"","month":"2019-05"},{"category":"anti-social-behaviour","location_type":"Force","location":{"latitude":"51.510051","street":{"id":956527,"name":"On or near Coventry Street"},"longitude":"-0.133971"},"context":"","outcome_status":null,"persistent_id":"","id":74281245,"location_subtype":"","month":"2019-05"},{"category":"anti-social-behaviour","location_type":"Force","location":{"latitude":"51.497235","street":{"id":953261,"name":"On or near Strutton Ground"},"longitude":"-0.133860"},"context":"","outcome_status":null,"persistent_id":"","id":74281244,"location_subtype":"","month":"2019-05"},{"category":"anti-social-behaviour","location_type":"Force","location":{"latitude":"51.497235","street":{"id":953261,"name":"On or near Strutton Ground"},"longitude":"-0.133860"},"context":"","outcome_status":null,"persistent_id":"","id":74281243,"location_subtype":"","month":"2019-05"},{"category":"anti-social-behaviour","location_type":"Force","location":{"latitude":"51.497235","street":{"id":953261,"name":"On or near Strutton Ground"},"longitude":"-0.133860"},"context":"","outcome_status":null,"persistent_id":"","id":74281242,"location_subtype":"","month":"2019-05"},{"category":"anti-social-behaviour","location_type":"Force","location":{"latitude":"51.496931","street":{"id":953293,"name":"On or near Artillery Row"},"longitude":"-0.135631"},"context":"","outcome_status":null,"persistent_id":"","id":74281250,"location_subtype":"","month":"2019-05"},{"category":"anti-social-behaviour","location_type":"Force","location":{"latitude":"51.498734","street":{"id":953301,"name":"On or near Police Station"},"longitude":"-0.133122"},"context":"","outcome_status":null,"persistent_id":"","id":74281232,"location_subtype":"","month":"2019-05"},{"category":"anti-social-behaviour","location_type":"Force","location":{"latitude":"51.498734","street":{"id":953301,"name":"On or near Police Station"},"longitude":"-0.133122"},"context":"","outcome_status":null,"persistent_id":"","id":74281231,"location_subtype":"","month":"2019-05"},{"category":"anti-social-behaviour","location_type":"Force","location":{"latitude":"51.498734","street":{"id":953301,"name":"On or near Police Station"},"longitude":"-0.133122"},"context":"","outcome_status":null,"persistent_id":"","id":74281230,"location_subtype":"","month":"2019-05"},{"category":"anti-social-behaviour","location_type":"Force","location":{"latitude":"51.498734","street":{"id":953301,"name":"On or near Police Station"},"longitude":"-0.133122"},"context":"","outcome_status":null,"persistent_id":"","id":74281229,"location_subtype":"","month":"2019-05"},{"category":"anti-social-behaviour","location_type":"Force","location":{"latitude":"51.498734","street":{"id":953301,"name":"On or near Police Station"},"longitude":"-0.133122"},"context":"","outcome_status":null,"persistent_id":"","id":74281228,"location_subtype":"","month":"2019-05"},{"category":"anti-social-behaviour","location_type":"Force","location":{"latitude":"51.509371","street":{"id":956452,"name":"On or near St James's Market"},"longitude":"-0.133033"},"context":"","outcome_status":null,"persistent_id":"","id":74281227,"location_subtype":"","month":"2019-05"},{"category":"anti-social-behaviour","location_type":"Force","location":{"latitude":"51.509371","street":{"id":956452,"name":"On or near St James's Market"},"longitude":"-0.133033"},"context":"","outcome_status":null,"persistent_id":"","id":74281226,"location_subtype":"","month":"2019-05"},{"category":"anti-social-behaviour","location_type":"Force","location":{"latitude":"51.495775","street":{"id":953356,"name":"On or near Theatre\/concert Hall"},"longitude":"-0.142694"},"context":"","outcome_status":null,"persistent_id":"","id":74281374,"location_subtype":"","month":"2019-05"},{"category":"anti-social-behaviour","location_type":"Force","location":{"latitude":"51.509371","street":{"id":956452,"name":"On or near St James's Market"},"longitude":"-0.133033"},"context":"","outcome_status":null,"persistent_id":"","id":74281225,"location_subtype":"","month":"2019-05"},{"category":"anti-social-behaviour","location_type":"Force","location":{"latitude":"51.500556","street":{"id":953307,"name":"On or near Queen Anne's Gate"},"longitude":"-0.132918"},"context":"","outcome_status":null,"persistent_id":"","id":74281223,"location_subtype":"","month":"2019-05"},{"category":"anti-social-behaviour","location_type":"Force","location":{"latitude":"51.507569","street":{"id":956649,"name":"On or near Waterloo Place"},"longitude":"-0.132833"},"context":"","outcome_status":null,"persistent_id":"","id":74281202,"location_subtype":"","month":"2019-05"},{"category":"anti-social-behaviour","location_type":"Force","location":{"latitude":"51.492658","street":{"id":953389,"name":"On or near Guildhouse Street"},"longitude":"-0.141798"},"context":"","outcome_status":null,"persistent_id":"","id":74281373,"location_subtype":"","month":"2019-05"},{"category":"anti-social-behaviour","location_type":"Force","location":{"latitude":"51.492658","street":{"id":953389,"name":"On or near Guildhouse Street"},"longitude":"-0.141798"},"context":"","outcome_status":null,"persistent_id":"","id":74281372,"location_subtype":"","month":"2019-05"},{"category":"anti-social-behaviour","location_type":"Force","location":{"latitude":"51.492658","street":{"id":953389,"name":"On or near Guildhouse Street"},"longitude":"-0.141798"},"context":"","outcome_status":null,"persistent_id":"","id":74281371,"location_subtype":"","month":"2019-05"},{"category":"anti-social-behaviour","location_type":"Force","location":{"latitude":"51.492658","street":{"id":953389,"name":"On or near Guildhouse Street"},"longitude":"-0.141798"},"context":"","outcome_status":null,"persistent_id":"","id":74281370,"location_subtype":"","month":"2019-05"},{"category":"anti-social-behaviour","location_type":"Force","location":{"latitude":"51.495340","street":{"id":953395,"name":"On or near Race Track"},"longitude":"-0.142466"},"context":"","outcome_status":null,"persistent_id":"","id":74281368,"location_subtype":"","month":"2019-05"},{"category":"anti-social-behaviour","location_type":"Force","location":{"latitude":"51.495340","street":{"id":953395,"name":"On or near Race Track"},"longitude":"-0.142466"},"context":"","outcome_status":null,"persistent_id":"","id":74281367,"location_subtype":"","month":"2019-05"},{"category":"anti-social-behaviour","location_type":"Force","location":{"latitude":"51.495340","street":{"id":953395,"name":"On or near Race Track"},"longitude":"-0.142466"},"context":"","outcome_status":null,"persistent_id":"","id":74281365,"location_subtype":"","month":"2019-05"},{"category":"anti-social-behaviour","location_type":"Force","location":{"latitude":"51.508661","street":{"id":956313,"name":"On or near Stafford Street"},"longitude":"-0.141536"},"context":"","outcome_status":null,"persistent_id":"","id":74281364,"location_subtype":"","month":"2019-05"},{"category":"anti-social-behaviour","location_type":"Force","location":{"latitude":"51.514347","street":{"id":956356,"name":"On or near Argyll Street"},"longitude":"-0.140569"},"context":"","outcome_status":null,"persistent_id":"","id":74281361,"location_subtype":"","month":"2019-05"},{"category":"anti-social-behaviour","location_type":"Force","location":{"latitude":"51.514347","street":{"id":956356,"name":"On or near Argyll Street"},"longitude":"-0.140569"},"context":"","outcome_status":null,"persistent_id":"","id":74281360,"location_subtype":"","month":"2019-05"},{"category":"anti-social-behaviour","location_type":"Force","location":{"latitude":"51.492574","street":{"id":950060,"name":"On or near Elystan Street"},"longitude":"-0.169042"},"context":"","outcome_status":null,"persistent_id":"","id":74277166,"location_subtype":"","month":"2019-05"},{"category":"anti-social-behaviour","location_type":"Force","location":{"latitude":"51.492574","street":{"id":950060,"name":"On or near Elystan Street"},"longitude":"-0.169042"},"context":"","outcome_status":null,"persistent_id":"","id":74277165,"location_subtype":"","month":"2019-05"},{"category":"anti-social-behaviour","location_type":"Force","location":{"latitude":"51.492574","street":{"id":950060,"name":"On or near Elystan Street"},"longitude":"-0.169042"},"context":"","outcome_status":null,"persistent_id":"","id":74277164,"location_subtype":"","month":"2019-05"},{"category":"anti-social-behaviour","location_type":"Force","location":{"latitude":"51.492574","street":{"id":950060,"name":"On or near Elystan Street"},"longitude":"-0.169042"},"context":"","outcome_status":null,"persistent_id":"","id":74277163,"location_subtype":"","month":"2019-05"},{"category":"anti-social-behaviour","location_type":"Force","location":{"latitude":"51.514983","street":{"id":956949,"name":"On or near Shopping Area"},"longitude":"-0.147822"},"context":"","outcome_status":null,"persistent_id":"","id":74282238,"location_subtype":"","month":"2019-05"},{"category":"anti-social-behaviour","location_type":"Force","location":{"latitude":"51.492574","street":{"id":950060,"name":"On or near Elystan Street"},"longitude":"-0.169042"},"context":"","outcome_status":null,"persistent_id":"","id":74277162,"location_subtype":"","month":"2019-05"},{"category":"anti-social-behaviour","location_type":"Force","location":{"latitude":"51.502958","street":{"id":953060,"name":"On or near Pedestrian Subway"},"longitude":"-0.152257"},"context":"","outcome_status":null,"persistent_id":"","id":74282275,"location_subtype":"","month":"2019-05"},{"category":"anti-social-behaviour","location_type":"Force","location":{"latitude":"51.492493","street":{"id":949792,"name":"On or near Lucan Place"},"longitude":"-0.167893"},"context":"","outcome_status":null,"persistent_id":"","id":74277161,"location_subtype":"","month":"2019-05"},{"category":"anti-social-behaviour","location_type":"Force","location":{"latitude":"51.492623","street":{"id":949754,"name":"On or near Parking Area"},"longitude":"-0.167009"},"context":"","outcome_status":null,"persistent_id":"","id":74277157,"location_subtype":"","month":"2019-05"},{"category":"anti-social-behaviour","location_type":"Force","location":{"latitude":"51.492623","street":{"id":949754,"name":"On or near Parking Area"},"longitude":"-0.167009"},"context":"","outcome_status":null,"persistent_id":"","id":74277156,"location_subtype":"","month":"2019-05"},{"category":"anti-social-behaviour","location_type":"Force","location":{"latitude":"51.492041","street":{"id":949838,"name":"On or near Police Station"},"longitude":"-0.166571"},"context":"","outcome_status":null,"persistent_id":"","id":74277151,"location_subtype":"","month":"2019-05"},{"category":"anti-social-behaviour","location_type":"Force","location":{"latitude":"51.496938","street":{"id":953103,"name":"On or near Yeoman's Row"},"longitude":"-0.166331"},"context":"","outcome_status":null,"persistent_id":"","id":74277148,"location_subtype":"","month":"2019-05"},{"category":"anti-social-behaviour","location_type":"Force","location":{"latitude":"51.501240","street":{"id":953154,"name":"On or near Trevor Street"},"longitude":"-0.164833"},"context":"","outcome_status":null,"persistent_id":"","id":74277146,"location_subtype":"","month":"2019-05"},{"category":"anti-social-behaviour","location_type":"Force","location":{"latitude":"51.499044","street":{"id":953140,"name":"On or near Brompton Road"},"longitude":"-0.164705"},"context":"","outcome_status":null,"persistent_id":"","id":74277145,"location_subtype":"","month":"2019-05"},{"category":"anti-social-behaviour","location_type":"Force","location":{"latitude":"51.490158","street":{"id":949624,"name":"On or near Parking Area"},"longitude":"-0.146307"},"context":"","outcome_status":null,"persistent_id":"","id":74282222,"location_subtype":"","month":"2019-05"},{"category":"anti-social-behaviour","location_type":"Force","location":{"latitude":"51.499044","street":{"id":953140,"name":"On or near Brompton Road"},"longitude":"-0.164705"},"context":"","outcome_status":null,"persistent_id":"","id":74277144,"location_subtype":"","month":"2019-05"},{"category":"anti-social-behaviour","location_type":"Force","location":{"latitude":"51.499044","street":{"id":953140,"name":"On or near Brompton Road"},"longitude":"-0.164705"},"context":"","outcome_status":null,"persistent_id":"","id":74277143,"location_subtype":"","month":"2019-05"},{"category":"anti-social-behaviour","location_type":"Force","location":{"latitude":"51.493486","street":{"id":953197,"name":"On or near Denyer Street"},"longitude":"-0.165217"},"context":"","outcome_status":null,"persistent_id":"","id":74277141,"location_subtype":"","month":"2019-05"},{"category":"anti-social-behaviour","location_type":"Force","location":{"latitude":"51.493486","street":{"id":953197,"name":"On or near Denyer Street"},"longitude":"-0.165217"},"context":"","outcome_status":null,"persistent_id":"","id":74277140,"location_subtype":"","month":"2019-05"},{"category":"anti-social-behaviour","location_type":"Force","location":{"latitude":"51.490738","street":{"id":949802,"name":"On or near Elystan Place"},"longitude":"-0.164347"},"context":"","outcome_status":null,"persistent_id":"","id":74277139,"location_subtype":"","month":"2019-05"},{"category":"anti-social-behaviour","location_type":"Force","location":{"latitude":"51.495755","street":{"id":953187,"name":"On or near Lennox Gardens"},"longitude":"-0.163714"},"context":"","outcome_status":null,"persistent_id":"","id":74277138,"location_subtype":"","month":"2019-05"},{"category":"anti-social-behaviour","location_type":"Force","location":{"latitude":"51.498497","street":{"id":953132,"name":"On or near Hans Road"},"longitude":"-0.163056"},"context":"","outcome_status":null,"persistent_id":"","id":74277137,"location_subtype":"","month":"2019-05"},{"category":"anti-social-behaviour","location_type":"Force","location":{"latitude":"51.498497","street":{"id":953132,"name":"On or near Hans Road"},"longitude":"-0.163056"},"context":"","outcome_status":null,"persistent_id":"","id":74277136,"location_subtype":"","month":"2019-05"},{"category":"anti-social-behaviour","location_type":"Force","location":{"latitude":"51.499943","street":{"id":953086,"name":"On or near Grosvenor Place"},"longitude":"-0.148662"},"context":"","outcome_status":null,"persistent_id":"","id":74282242,"location_subtype":"","month":"2019-05"},{"category":"anti-social-behaviour","location_type":"Force","location":{"latitude":"51.499584","street":{"id":953148,"name":"On or near Shopping Area"},"longitude":"-0.163041"},"context":"","outcome_status":null,"persistent_id":"","id":74277132,"location_subtype":"","month":"2019-05"},{"category":"anti-social-behaviour","location_type":"Force","location":{"latitude":"51.492253","street":{"id":949843,"name":"On or near Parking Area"},"longitude":"-0.149723"},"context":"","outcome_status":null,"persistent_id":"","id":74282248,"location_subtype":"","month":"2019-05"},{"category":"anti-social-behaviour","location_type":"Force","location":{"latitude":"51.492773","street":{"id":953178,"name":"On or near Rosemoor Street"},"longitude":"-0.163934"},"context":"","outcome_status":null,"persistent_id":"","id":74277131,"location_subtype":"","month":"2019-05"},{"category":"anti-social-behaviour","location_type":"Force","location":{"latitude":"51.492773","street":{"id":953178,"name":"On or near Rosemoor Street"},"longitude":"-0.163934"},"context":"","outcome_status":null,"persistent_id":"","id":74277128,"location_subtype":"","month":"2019-05"},{"category":"anti-social-behaviour","location_type":"Force","location":{"latitude":"51.492253","street":{"id":949843,"name":"On or near Parking Area"},"longitude":"-0.149723"},"context":"","outcome_status":null,"persistent_id":"","id":74282249,"location_subtype":"","month":"2019-05"},{"category":"anti-social-behaviour","location_type":"Force","location":{"latitude":"51.492773","street":{"id":953178,"name":"On or near Rosemoor Street"},"longitude":"-0.163934"},"context":"","outcome_status":null,"persistent_id":"","id":74277127,"location_subtype":"","month":"2019-05"},{"category":"anti-social-behaviour","location_type":"Force","location":{"latitude":"51.498936","street":{"id":953129,"name":"On or near Landon Place"},"longitude":"-0.161237"},"context":"","outcome_status":null,"persistent_id":"","id":74277123,"location_subtype":"","month":"2019-05"},{"category":"anti-social-behaviour","location_type":"Force","location":{"latitude":"51.491622","street":{"id":949827,"name":"On or near Blacklands Terrace"},"longitude":"-0.161071"},"context":"","outcome_status":null,"persistent_id":"","id":74277122,"location_subtype":"","month":"2019-05"},{"category":"anti-social-behaviour","location_type":"Force","location":{"latitude":"51.497128","street":{"id":953116,"name":"On or near Pont Street"},"longitude":"-0.159538"},"context":"","outcome_status":null,"persistent_id":"","id":74277121,"location_subtype":"","month":"2019-05"},{"category":"anti-social-behaviour","location_type":"Force","location":{"latitude":"51.497128","street":{"id":953116,"name":"On or near Pont Street"},"longitude":"-0.159538"},"context":"","outcome_status":null,"persistent_id":"","id":74277120,"location_subtype":"","month":"2019-05"},{"category":"anti-social-behaviour","location_type":"Force","location":{"latitude":"51.492253","street":{"id":949843,"name":"On or near Parking Area"},"longitude":"-0.149723"},"context":"","outcome_status":null,"persistent_id":"","id":74282251,"location_subtype":"","month":"2019-05"},{"category":"anti-social-behaviour","location_type":"Force","location":{"latitude":"51.497592","street":{"id":953131,"name":"On or near Hans Street"},"longitude":"-0.159822"},"context":"","outcome_status":null,"persistent_id":"","id":74277119,"location_subtype":"","month":"2019-05"},{"category":"anti-social-behaviour","location_type":"Force","location":{"latitude":"51.499505","street":{"id":953108,"name":"On or near Sloane Street"},"longitude":"-0.159673"},"context":"","outcome_status":null,"persistent_id":"","id":74277118,"location_subtype":"","month":"2019-05"},{"category":"anti-social-behaviour","location_type":"Force","location":{"latitude":"51.494522","street":{"id":953242,"name":"On or near Cadogan Gate"},"longitude":"-0.159052"},"context":"","outcome_status":null,"persistent_id":"","id":74277117,"location_subtype":"","month":"2019-05"},{"category":"anti-social-behaviour","location_type":"Force","location":{"latitude":"51.494522","street":{"id":953242,"name":"On or near Cadogan Gate"},"longitude":"-0.159052"},"context":"","outcome_status":null,"persistent_id":"","id":74277116,"location_subtype":"","month":"2019-05"},{"category":"anti-social-behaviour","location_type":"Force","location":{"latitude":"51.494522","street":{"id":953242,"name":"On or near Cadogan Gate"},"longitude":"-0.159052"},"context":"","outcome_status":null,"persistent_id":"","id":74277115,"location_subtype":"","month":"2019-05"},{"category":"anti-social-behaviour","location_type":"Force","location":{"latitude":"51.492561","street":{"id":949848,"name":"On or near Symons Street"},"longitude":"-0.159016"},"context":"","outcome_status":null,"persistent_id":"","id":74277114,"location_subtype":"","month":"2019-05"},{"category":"anti-social-behaviour","location_type":"Force","location":{"latitude":"51.495146","street":{"id":953181,"name":"On or near Pavilion Road"},"longitude":"-0.159272"},"context":"","outcome_status":null,"persistent_id":"","id":74277112,"location_subtype":"","month":"2019-05"},{"category":"anti-social-behaviour","location_type":"Force","location":{"latitude":"51.497975","street":{"id":953052,"name":"On or near Cadogan Place"},"longitude":"-0.157890"},"context":"","outcome_status":null,"persistent_id":"","id":74277111,"location_subtype":"","month":"2019-05"},{"category":"anti-social-behaviour","location_type":"Force","location":{"latitude":"51.497975","street":{"id":953052,"name":"On or near Cadogan Place"},"longitude":"-0.157890"},"context":"","outcome_status":null,"persistent_id":"","id":74277110,"location_subtype":"","month":"2019-05"},{"category":"anti-social-behaviour","location_type":"Force","location":{"latitude":"51.493613","street":{"id":953214,"name":"On or near Sloane Terrace"},"longitude":"-0.157259"},"context":"","outcome_status":null,"persistent_id":"","id":74277109,"location_subtype":"","month":"2019-05"},{"category":"anti-social-behaviour","location_type":"Force","location":{"latitude":"51.490576","street":{"id":949867,"name":"On or near Holbein Mews"},"longitude":"-0.156316"},"context":"","outcome_status":null,"persistent_id":"","id":74277108,"location_subtype":"","month":"2019-05"},{"category":"anti-social-behaviour","location_type":"Force","location":{"latitude":"51.490576","street":{"id":949867,"name":"On or near Holbein Mews"},"longitude":"-0.156316"},"context":"","outcome_status":null,"persistent_id":"","id":74277107,"location_subtype":"","month":"2019-05"},{"category":"anti-social-behaviour","location_type":"Force","location":{"latitude":"51.496112","street":{"id":953053,"name":"On or near Cadogan Lane"},"longitude":"-0.156669"},"context":"","outcome_status":null,"persistent_id":"","id":74277106,"location_subtype":"","month":"2019-05"},{"category":"anti-social-behaviour","location_type":"Force","location":{"latitude":"51.490576","street":{"id":949867,"name":"On or near Holbein Mews"},"longitude":"-0.156316"},"context":"","outcome_status":null,"persistent_id":"","id":74277105,"location_subtype":"","month":"2019-05"},{"category":"anti-social-behaviour","location_type":"Force","location":{"latitude":"51.490576","street":{"id":949867,"name":"On or near Holbein Mews"},"longitude":"-0.156316"},"context":"","outcome_status":null,"persistent_id":"","id":74277104,"location_subtype":"","month":"2019-05"},{"category":"anti-social-behaviour","location_type":"Force","location":{"latitude":"51.490576","street":{"id":949867,"name":"On or near Holbein Mews"},"longitude":"-0.156316"},"context":"","outcome_status":null,"persistent_id":"","id":74277103,"location_subtype":"","month":"2019-05"},{"category":"anti-social-behaviour","location_type":"Force","location":{"latitude":"51.490576","street":{"id":949867,"name":"On or near Holbein Mews"},"longitude":"-0.156316"},"context":"","outcome_status":null,"persistent_id":"","id":74277102,"location_subtype":"","month":"2019-05"},{"category":"anti-social-behaviour","location_type":"Force","location":{"latitude":"51.508123","street":{"id":956670,"name":"On or near Theatre\/concert Hall"},"longitude":"-0.132032"},"context":"","outcome_status":null,"persistent_id":"","id":74273100,"location_subtype":"","month":"2019-05"},{"category":"anti-social-behaviour","location_type":"Force","location":{"latitude":"51.495085","street":{"id":953392,"name":"On or near Francis Street"},"longitude":"-0.138313"},"context":"","outcome_status":null,"persistent_id":"","id":74281312,"location_subtype":"","month":"2019-05"},{"category":"anti-social-behaviour","location_type":"Force","location":{"latitude":"51.514605","street":{"id":956883,"name":"On or near Shopping Area"},"longitude":"-0.150662"},"context":"","outcome_status":null,"persistent_id":"","id":74282262,"location_subtype":"","month":"2019-05"},{"category":"anti-social-behaviour","location_type":"Force","location":{"latitude":"51.514605","street":{"id":956883,"name":"On or near Shopping Area"},"longitude":"-0.150662"},"context":"","outcome_status":null,"persistent_id":"","id":74282261,"location_subtype":"","month":"2019-05"},{"category":"anti-social-behaviour","location_type":"Force","location":{"latitude":"51.493443","street":{"id":953220,"name":"On or near Gerald Road"},"longitude":"-0.151634"},"context":"","outcome_status":null,"persistent_id":"","id":74282260,"location_subtype":"","month":"2019-05"},{"category":"anti-social-behaviour","location_type":"Force","location":{"latitude":"51.495278","street":{"id":953239,"name":"On or near Chester Square"},"longitude":"-0.149975"},"context":"","outcome_status":null,"persistent_id":"","id":74282258,"location_subtype":"","month":"2019-05"},{"category":"anti-social-behaviour","location_type":"Force","location":{"latitude":"51.492909","street":{"id":953223,"name":"On or near Elizabeth Street"},"longitude":"-0.149149"},"context":"","outcome_status":null,"persistent_id":"","id":74282255,"location_subtype":"","month":"2019-05"},{"category":"anti-social-behaviour","location_type":"Force","location":{"latitude":"51.492909","street":{"id":953223,"name":"On or near Elizabeth Street"},"longitude":"-0.149149"},"context":"","outcome_status":null,"persistent_id":"","id":74282254,"location_subtype":"","month":"2019-05"},{"category":"anti-social-behaviour","location_type":"Force","location":{"latitude":"51.492909","street":{"id":953223,"name":"On or near Elizabeth Street"},"longitude":"-0.149149"},"context":"","outcome_status":null,"persistent_id":"","id":74282253,"location_subtype":"","month":"2019-05"},{"category":"anti-social-behaviour","location_type":"Force","location":{"latitude":"51.494342","street":{"id":953229,"name":"On or near Ebury Mews"},"longitude":"-0.149912"},"context":"","outcome_status":null,"persistent_id":"","id":74282252,"location_subtype":"","month":"2019-05"},{"category":"anti-social-behaviour","location_type":"Force","location":{"latitude":"51.492253","street":{"id":949843,"name":"On or near Parking Area"},"longitude":"-0.149723"},"context":"","outcome_status":null,"persistent_id":"","id":74282250,"location_subtype":"","month":"2019-05"},{"category":"anti-social-behaviour","location_type":"Force","location":{"latitude":"51.492587","street":{"id":953245,"name":"On or near Bus\/coach Station"},"longitude":"-0.149205"},"context":"","outcome_status":null,"persistent_id":"","id":74282247,"location_subtype":"","month":"2019-05"},{"category":"anti-social-behaviour","location_type":"Force","location":{"latitude":"51.492587","street":{"id":953245,"name":"On or near Bus\/coach Station"},"longitude":"-0.149205"},"context":"","outcome_status":null,"persistent_id":"","id":74282246,"location_subtype":"","month":"2019-05"},{"category":"anti-social-behaviour","location_type":"Force","location":{"latitude":"51.492587","street":{"id":953245,"name":"On or near Bus\/coach Station"},"longitude":"-0.149205"},"context":"","outcome_status":null,"persistent_id":"","id":74282245,"location_subtype":"","month":"2019-05"},{"category":"anti-social-behaviour","location_type":"Force","location":{"latitude":"51.504575","street":{"id":953089,"name":"On or near Grantham Place"},"longitude":"-0.149267"},"context":"","outcome_status":null,"persistent_id":"","id":74282257,"location_subtype":"","month":"2019-05"},{"category":"anti-social-behaviour","location_type":"Force","location":{"latitude":"51.492587","street":{"id":953245,"name":"On or near Bus\/coach Station"},"longitude":"-0.149205"},"context":"","outcome_status":null,"persistent_id":"","id":74282244,"location_subtype":"","month":"2019-05"},{"category":"anti-social-behaviour","location_type":"Force","location":{"latitude":"51.492587","street":{"id":953245,"name":"On or near Bus\/coach Station"},"longitude":"-0.149205"},"context":"","outcome_status":null,"persistent_id":"","id":74282243,"location_subtype":"","month":"2019-05"},{"category":"anti-social-behaviour","location_type":"Force","location":{"latitude":"51.491327","street":{"id":949884,"name":"On or near Buckingham Palace Road"},"longitude":"-0.149155"},"context":"","outcome_status":null,"persistent_id":"","id":74282241,"location_subtype":"","month":"2019-05"},{"category":"anti-social-behaviour","location_type":"Force","location":{"latitude":"51.514983","street":{"id":956949,"name":"On or near Shopping Area"},"longitude":"-0.147822"},"context":"","outcome_status":null,"persistent_id":"","id":74282240,"location_subtype":"","month":"2019-05"},{"category":"anti-social-behaviour","location_type":"Force","location":{"latitude":"51.514983","street":{"id":956949,"name":"On or near Shopping Area"},"longitude":"-0.147822"},"context":"","outcome_status":null,"persistent_id":"","id":74282237,"location_subtype":"","month":"2019-05"},{"category":"anti-social-behaviour","location_type":"Force","location":{"latitude":"51.513952","street":{"id":956377,"name":"On or near Woodstock Street"},"longitude":"-0.146883"},"context":"","outcome_status":null,"persistent_id":"","id":74282235,"location_subtype":"","month":"2019-05"},{"category":"anti-social-behaviour","location_type":"Force","location":{"latitude":"51.507877","street":{"id":956708,"name":"On or near Charles Street"},"longitude":"-0.147159"},"context":"","outcome_status":null,"persistent_id":"","id":74282233,"location_subtype":"","month":"2019-05"},{"category":"anti-social-behaviour","location_type":"Force","location":{"latitude":"51.507293","street":{"id":956702,"name":"On or near Queen Street"},"longitude":"-0.147168"},"context":"","outcome_status":null,"persistent_id":"","id":74282232,"location_subtype":"","month":"2019-05"},{"category":"anti-social-behaviour","location_type":"Force","location":{"latitude":"51.494368","street":{"id":953375,"name":"On or near Eccleston Place"},"longitude":"-0.147548"},"context":"","outcome_status":null,"persistent_id":"","id":74282231,"location_subtype":"","month":"2019-05"},{"category":"anti-social-behaviour","location_type":"Force","location":{"latitude":"51.489321","street":{"id":949631,"name":"On or near Sutherland Row"},"longitude":"-0.146255"},"context":"","outcome_status":null,"persistent_id":"","id":74282230,"location_subtype":"","month":"2019-05"},{"category":"anti-social-behaviour","location_type":"Force","location":{"latitude":"51.514304","street":{"id":956381,"name":"On or near Dering Street"},"longitude":"-0.145846"},"context":"","outcome_status":null,"persistent_id":"","id":74282229,"location_subtype":"","month":"2019-05"},{"category":"anti-social-behaviour","location_type":"Force","location":{"latitude":"51.493694","street":{"id":953377,"name":"On or near Buckingham Palace Road"},"longitude":"-0.147014"},"context":"","outcome_status":null,"persistent_id":"","id":74282228,"location_subtype":"","month":"2019-05"},{"category":"anti-social-behaviour","location_type":"Force","location":{"latitude":"51.493694","street":{"id":953377,"name":"On or near Buckingham Palace Road"},"longitude":"-0.147014"},"context":"","outcome_status":null,"persistent_id":"","id":74282227,"location_subtype":"","month":"2019-05"},{"category":"anti-social-behaviour","location_type":"Force","location":{"latitude":"51.493694","street":{"id":953377,"name":"On or near Buckingham Palace Road"},"longitude":"-0.147014"},"context":"","outcome_status":null,"persistent_id":"","id":74282226,"location_subtype":"","month":"2019-05"},{"category":"anti-social-behaviour","location_type":"Force","location":{"latitude":"51.493694","street":{"id":953377,"name":"On or near Buckingham Palace Road"},"longitude":"-0.147014"},"context":"","outcome_status":null,"persistent_id":"","id":74282225,"location_subtype":"","month":"2019-05"},{"category":"anti-social-behaviour","location_type":"Force","location":{"latitude":"51.493694","street":{"id":953377,"name":"On or near Buckingham Palace Road"},"longitude":"-0.147014"},"context":"","outcome_status":null,"persistent_id":"","id":74282224,"location_subtype":"","month":"2019-05"},{"category":"anti-social-behaviour","location_type":"Force","location":{"latitude":"51.514304","street":{"id":956381,"name":"On or near Dering Street"},"longitude":"-0.145846"},"context":"","outcome_status":null,"persistent_id":"","id":74282223,"location_subtype":"","month":"2019-05"},{"category":"anti-social-behaviour","location_type":"Force","location":{"latitude":"51.497905","street":{"id":953327,"name":"On or near Grosvenor Gardens Mews East"},"longitude":"-0.146050"},"context":"","outcome_status":null,"persistent_id":"","id":74282220,"location_subtype":"","month":"2019-05"},{"category":"bicycle-theft","location_type":"Force","location":{"latitude":"51.513467","street":{"id":956520,"name":"On or near Dufour's Place"},"longitude":"-0.137261"},"context":"","outcome_status":{"category":"Status update unavailable","date":"2019-09"},"persistent_id":"e6a0c8361c79106a89e985799e84a596c7b02276b59ccf56f990930fd4e0a589","id":74349899,"location_subtype":"","month":"2019-05"},{"category":"bicycle-theft","location_type":"Force","location":{"latitude":"51.509369","street":{"id":957028,"name":"On or near West Carriage Drive"},"longitude":"-0.170573"},"context":"","outcome_status":{"category":"Status update unavailable","date":"2019-09"},"persistent_id":"89873438b234d39602ca331514fe1e55ab0855f03813559574fb52d179ed3955","id":74349690,"location_subtype":"","month":"2019-05"},{"category":"bicycle-theft","location_type":"Force","location":{"latitude":"51.500237","street":{"id":953312,"name":"On or near Dartmouth Street"},"longitude":"-0.132023"},"context":"","outcome_status":{"category":"Status update unavailable","date":"2019-09"},"persistent_id":"f06e24dcb67f9e737d3af7ba1f98f30b4af912137bc46ca651a0655528935791","id":74362622,"location_subtype":"","month":"2019-05"},{"category":"bicycle-theft","location_type":"Force","location":{"latitude":"51.493486","street":{"id":953197,"name":"On or near Denyer Street"},"longitude":"-0.165217"},"context":"","outcome_status":{"category":"Status update unavailable","date":"2019-09"},"persistent_id":"5ed474f80e98ac468adca4cda4f0c94395e0584e8e7dce739170d63a71d66441","id":74351215,"location_subtype":"","month":"2019-05"},{"category":"bicycle-theft","location_type":"Force","location":{"latitude":"51.499603","street":{"id":952863,"name":"On or near Further\/higher Educational Building"},"longitude":"-0.174624"},"context":"","outcome_status":{"category":"Status update unavailable","date":"2019-09"},"persistent_id":"6cc8a454710f04a76e56068c596e0351ae4611d5c6c20dc6bdd5d72c74def7d9","id":74360585,"location_subtype":"","month":"2019-05"},{"category":"bicycle-theft","location_type":"Force","location":{"latitude":"51.506747","street":{"id":956652,"name":"On or near St James's Square"},"longitude":"-0.134870"},"context":"","outcome_status":{"category":"Status update unavailable","date":"2019-09"},"persistent_id":"e33f324160fbc4aa0c8f7e58e5a9a8df7963464ff55fda020fd18832a2765111","id":74305208,"location_subtype":"","month":"2019-05"},{"category":"bicycle-theft","location_type":"Force","location":{"latitude":"51.514544","street":{"id":956837,"name":"On or near Old Quebec Street"},"longitude":"-0.158216"},"context":"","outcome_status":{"category":"Status update unavailable","date":"2019-09"},"persistent_id":"08a96f964c72a907a25498918ae2102776df0fcc354d2b219a4997f1577a6d35","id":74350408,"location_subtype":"","month":"2019-05"},{"category":"bicycle-theft","location_type":"Force","location":{"latitude":"51.499603","street":{"id":952863,"name":"On or near Further\/higher Educational Building"},"longitude":"-0.174624"},"context":"","outcome_status":{"category":"Status update unavailable","date":"2019-09"},"persistent_id":"4985aa325f52cc5c9df0935d46c77ddd7a9677873b68e0f47d2af6d103e24948","id":74350425,"location_subtype":"","month":"2019-05"},{"category":"bicycle-theft","location_type":"Force","location":{"latitude":"51.513303","street":{"id":956751,"name":"On or near Marble Arch"},"longitude":"-0.159347"},"context":"","outcome_status":{"category":"Status update unavailable","date":"2019-09"},"persistent_id":"3968df1ad5334b249f5210368ab31160de721827d4dcd3fb3ef8ed5fcc379cd3","id":74370857,"location_subtype":"","month":"2019-05"},{"category":"bicycle-theft","location_type":"Force","location":{"latitude":"51.510930","street":{"id":956351,"name":"On or near Clifford Street"},"longitude":"-0.141746"},"context":"","outcome_status":{"category":"Status update unavailable","date":"2019-09"},"persistent_id":"5d7fc69e65e73a1294fdb6322afe021310b08b650292cf4221213cc5933a37ef","id":74315433,"location_subtype":"","month":"2019-05"},{"category":"bicycle-theft","location_type":"Force","location":{"latitude":"51.511288","street":{"id":956350,"name":"On or near Coach And Horses Yard"},"longitude":"-0.142178"},"context":"","outcome_status":{"category":"Status update unavailable","date":"2019-09"},"persistent_id":"0b02c0572767495297a07f1ae0caf22726e610f2a736aba67592a6704cf5c83f","id":74322128,"location_subtype":"","month":"2019-05"},{"category":"bicycle-theft","location_type":"Force","location":{"latitude":"51.502958","street":{"id":953060,"name":"On or near Pedestrian Subway"},"longitude":"-0.152257"},"context":"","outcome_status":{"category":"Status update unavailable","date":"2019-09"},"persistent_id":"881541b9fc50676b8d56be7c50573f9b83b24cae7a15c5df4889b28f81ede19e","id":74313514,"location_subtype":"","month":"2019-05"},{"category":"bicycle-theft","location_type":"Force","location":{"latitude":"51.497235","street":{"id":953261,"name":"On or near Strutton Ground"},"longitude":"-0.133860"},"context":"","outcome_status":{"category":"Status update unavailable","date":"2019-09"},"persistent_id":"bd5005f97ed575b764484400800a83c7cae93a8f16ed5e38be2bfddac8ff193a","id":74299555,"location_subtype":"","month":"2019-05"},{"category":"bicycle-theft","location_type":"Force","location":{"latitude":"51.514724","street":{"id":956832,"name":"On or near Portman Mews South"},"longitude":"-0.155341"},"context":"","outcome_status":{"category":"Status update unavailable","date":"2019-09"},"persistent_id":"cdfbd00779db3f51157101c74fbf50d26bc647d2c0761de38203fe90c544f429","id":74308843,"location_subtype":"","month":"2019-05"},{"category":"bicycle-theft","location_type":"Force","location":{"latitude":"51.497511","street":{"id":953351,"name":"On or near Bressenden Place"},"longitude":"-0.142191"},"context":"","outcome_status":{"category":"Status update unavailable","date":"2019-09"},"persistent_id":"34db2aecdf5d15343c99d7282040954cf37759490f68a16530572699f78622a5","id":74370310,"location_subtype":"","month":"2019-05"},{"category":"bicycle-theft","location_type":"Force","location":{"latitude":"51.498328","street":{"id":953294,"name":"On or near Abbey Orchard Street"},"longitude":"-0.131338"},"context":"","outcome_status":{"category":"Status update unavailable","date":"2019-09"},"persistent_id":"f65228e90a7a99088a78ea0e0e72b2e8587650e424634a02a54ad9faffa15a60","id":74310225,"location_subtype":"","month":"2019-05"},{"category":"bicycle-theft","location_type":"Force","location":{"latitude":"51.512672","street":{"id":956889,"name":"On or near Further\/higher Educational Building"},"longitude":"-0.156980"},"context":"","outcome_status":{"category":"Status update unavailable","date":"2019-09"},"persistent_id":"c6e4b76833c24ca85d1089bcb681115180b53bbc655f6a826a29b5c5c35f64e6","id":74306258,"location_subtype":"","month":"2019-05"},{"category":"bicycle-theft","location_type":"Force","location":{"latitude":"51.501986","street":{"id":953166,"name":"On or near Knightsbridge"},"longitude":"-0.159659"},"context":"","outcome_status":{"category":"Status update unavailable","date":"2019-09"},"persistent_id":"31220a82fbb6e6a9ceafdf369bec83de15d3730b77f2fdbe57f6264b1e5e8c8e","id":74294036,"location_subtype":"","month":"2019-05"},{"category":"bicycle-theft","location_type":"Force","location":{"latitude":"51.501986","street":{"id":953166,"name":"On or near Knightsbridge"},"longitude":"-0.159659"},"context":"","outcome_status":{"category":"Status update unavailable","date":"2019-09"},"persistent_id":"089462029b758a73e8a687a092b92b5d423cd306b6b10db8df91ca6b3bc1e669","id":74315070,"location_subtype":"","month":"2019-05"},{"category":"bicycle-theft","location_type":"Force","location":{"latitude":"51.497511","street":{"id":953351,"name":"On or near Bressenden Place"},"longitude":"-0.142191"},"context":"","outcome_status":{"category":"Status update unavailable","date":"2019-09"},"persistent_id":"33af8a8b61ab3b616cebef6a504b05bfc3b6b62aa5bff7e6f75a69994e03c150","id":74311629,"location_subtype":"","month":"2019-05"},{"category":"bicycle-theft","location_type":"Force","location":{"latitude":"51.498178","street":{"id":952854,"name":"On or near Princes Gate Mews"},"longitude":"-0.172621"},"context":"","outcome_status":{"category":"Status update unavailable","date":"2019-09"},"persistent_id":"360ef820c98d4b57d5b04b6058253e0ffbf5447dec982dcab339731690d6358d","id":74351225,"location_subtype":"","month":"2019-05"},{"category":"bicycle-theft","location_type":"Force","location":{"latitude":"51.496602","street":{"id":953339,"name":"On or near Victoria Street"},"longitude":"-0.143827"},"context":"","outcome_status":{"category":"Status update unavailable","date":"2019-09"},"persistent_id":"9acb7aff87fbeb02c44a129bc24287d5c2a8f010e435c4a0b8c77ef09f65bb31","id":74306269,"location_subtype":"","month":"2019-05"},{"category":"bicycle-theft","location_type":"Force","location":{"latitude":"51.498918","street":{"id":953287,"name":"On or near Dacre Street"},"longitude":"-0.132798"},"context":"","outcome_status":{"category":"Status update unavailable","date":"2019-09"},"persistent_id":"71a4abb66da01d70748fb70697df9815e9f5c4480986266cc60afdd4f49f7848","id":74305210,"location_subtype":"","month":"2019-05"},{"category":"bicycle-theft","location_type":"Force","location":{"latitude":"51.497104","street":{"id":953299,"name":"On or near Shopping Area"},"longitude":"-0.136358"},"context":"","outcome_status":{"category":"Status update unavailable","date":"2019-09"},"persistent_id":"722e16929c9a1db5cc6246133c00bb8da4edb4e3c98c7f7da037d90163abc692","id":74294480,"location_subtype":"","month":"2019-05"},{"category":"bicycle-theft","location_type":"Force","location":{"latitude":"51.495745","street":{"id":953256,"name":"On or near Parking Area"},"longitude":"-0.132308"},"context":"","outcome_status":{"category":"Status update unavailable","date":"2019-09"},"persistent_id":"d084d47e067d4ad4e92e60e359e66d63b65cf5fd12f50f932f060724ece7fc0c","id":74315084,"location_subtype":"","month":"2019-05"},{"category":"bicycle-theft","location_type":"Force","location":{"latitude":"51.498304","street":{"id":953102,"name":"On or near Parking Area"},"longitude":"-0.159966"},"context":"","outcome_status":{"category":"Status update unavailable","date":"2019-09"},"persistent_id":"a132170a9dd2fa7fcfbd3bb6e44a60e8d371e7f8b5dfb4e28734a0c99cc344ad","id":74315329,"location_subtype":"","month":"2019-05"},{"category":"bicycle-theft","location_type":"Force","location":{"latitude":"51.499603","street":{"id":952863,"name":"On or near Further\/higher Educational Building"},"longitude":"-0.174624"},"context":"","outcome_status":{"category":"Status update unavailable","date":"2019-09"},"persistent_id":"fd95f2a477ab9e4dc02d16ebccd7e29c35d32c223e2363c57882b9938548bcc9","id":74333390,"location_subtype":"","month":"2019-05"},{"category":"bicycle-theft","location_type":"Force","location":{"latitude":"51.506417","street":{"id":956662,"name":"On or near Cleveland Place"},"longitude":"-0.136713"},"context":"","outcome_status":{"category":"Status update unavailable","date":"2019-09"},"persistent_id":"a1593922c8a311c813c527661c581ff46975a88259acb7a1a6e739dc4b786286","id":74343935,"location_subtype":"","month":"2019-05"},{"category":"bicycle-theft","location_type":"Force","location":{"latitude":"51.499505","street":{"id":953108,"name":"On or near Sloane Street"},"longitude":"-0.159673"},"context":"","outcome_status":{"category":"Status update unavailable","date":"2019-09"},"persistent_id":"ff2f45ed1f9941cf4732bf6b78cfcf192e39860b0df28f3a6e82949e33c5c426","id":74337788,"location_subtype":"","month":"2019-05"},{"category":"bicycle-theft","location_type":"Force","location":{"latitude":"51.507192","street":{"id":956668,"name":"On or near Conference\/exhibition Centre"},"longitude":"-0.137402"},"context":"","outcome_status":{"category":"Status update unavailable","date":"2019-09"},"persistent_id":"87792e40fc98ccfaeef64651d3e05d696f60877908f4b3e6d52afd23c01fc012","id":74299754,"location_subtype":"","month":"2019-05"},{"category":"bicycle-theft","location_type":"Force","location":{"latitude":"51.510441","street":{"id":956510,"name":"On or near Glasshouse Street"},"longitude":"-0.136405"},"context":"","outcome_status":{"category":"Status update unavailable","date":"2019-09"},"persistent_id":"e1f17cc22624860444922f64221e46e7884762df86596843f35d25fbaac247c3","id":74299740,"location_subtype":"","month":"2019-05"},{"category":"bicycle-theft","location_type":"Force","location":{"latitude":"51.507758","street":{"id":956692,"name":"On or near Nightclub"},"longitude":"-0.141284"},"context":"","outcome_status":{"category":"Status update unavailable","date":"2019-09"},"persistent_id":"9a5340999ab8eb8acb4d48cff808c53a0df11da51c56004db9ff3ece21be1ea6","id":74346145,"location_subtype":"","month":"2019-05"},{"category":"bicycle-theft","location_type":"Force","location":{"latitude":"51.515364","street":{"id":956871,"name":"On or near Berkeley Mews"},"longitude":"-0.157722"},"context":"","outcome_status":{"category":"Status update unavailable","date":"2019-09"},"persistent_id":"a72226af18d56c8bca295a0c3397f52250c5563f552f710b65d254017a6ba44c","id":74315439,"location_subtype":"","month":"2019-05"},{"category":"bicycle-theft","location_type":"Force","location":{"latitude":"51.497622","street":{"id":953298,"name":"On or near Supermarket"},"longitude":"-0.137850"},"context":"","outcome_status":{"category":"Status update unavailable","date":"2019-09"},"persistent_id":"d720e0385c19f152eacf5703584ccee546d27f516c5ba8363bc972125b5ee173","id":74347946,"location_subtype":"","month":"2019-05"},{"category":"bicycle-theft","location_type":"Force","location":{"latitude":"51.511288","street":{"id":956350,"name":"On or near Coach And Horses Yard"},"longitude":"-0.142178"},"context":"","outcome_status":{"category":"Status update unavailable","date":"2019-09"},"persistent_id":"de118589736341687fa1c78a9b32a37fd9320e1ef66742e23f07cf9f8f17e7f9","id":74313403,"location_subtype":"","month":"2019-05"},{"category":"bicycle-theft","location_type":"Force","location":{"latitude":"51.497985","street":{"id":953338,"name":"On or near Warwick Row"},"longitude":"-0.143123"},"context":"","outcome_status":{"category":"Status update unavailable","date":"2019-09"},"persistent_id":"77455600591adbab06ef50afa49f8de8e967b923ceec5cbc3ce92ac255e4d6f8","id":74313513,"location_subtype":"","month":"2019-05"},{"category":"bicycle-theft","location_type":"Force","location":{"latitude":"51.490270","street":{"id":949752,"name":"On or near Parking Area"},