[{"category":"anti-social-behaviour","location_type":"Force","location":{"latitude":"51.524848","street":{"id":961448,"name":"On or near Old Nichol Street"},"longitude":"-0.074679"},"context":"","outcome_status":null,"persistent_id":"","id":74274996,"location_subtype":"","month":"2019-05"},{"category":"anti-social-behaviour","location_type":"Force","location":{"latitude":"51.531378","street":{"id":964344,"name":"On or near Dawson Street"},"longitude":"-0.071448"},"context":"","outcome_status":null,"persistent_id":"","id":74278228,"location_subtype":"","month":"2019-05"},{"category":"anti-social-behaviour","location_type":"Force","location":{"latitude":"51.531378","street":{"id":964344,"name":"On or near Dawson Street"},"longitude":"-0.071448"},"context":"","outcome_status":null,"persistent_id":"","id":74278229,"location_subtype":"","month":"2019-05"},{"category":"anti-social-behaviour","location_type":"Force","location":{"latitude":"51.531378","street":{"id":964344,"name":"On or near Dawson Street"},"longitude":"-0.071448"},"context":"","outcome_status":null,"persistent_id":"","id":74278230,"location_subtype":"","month":"2019-05"},{"category":"anti-social-behaviour","location_type":"Force","location":{"latitude":"51.531378","street":{"id":964344,"name":"On or near Dawson Street"},"longitude":"-0.071448"},"context":"","outcome_status":null,"persistent_id":"","id":74278231,"location_subtype":"","month":"2019-05"},{"category":"anti-social-behaviour","location_type":"Force","location":{"latitude":"51.531378","street":{"id":964344,"name":"On or near Dawson Street"},"longitude":"-0.071448"},"context":"","outcome_status":null,"persistent_id":"","id":74278232,"location_subtype":"","month":"2019-05"},{"category":"anti-social-behaviour","location_type":"Force","location":{"latitude":"51.538799","street":{"id":964285,"name":"On or near Livermere Road"},"longitude":"-0.072144"},"context":"","outcome_status":null,"persistent_id":"","id":74278238,"location_subtype":"","month":"2019-05"},{"category":"anti-social-behaviour","location_type":"Force","location":{"latitude":"51.538799","street":{"id":964285,"name":"On or near Livermere Road"},"longitude":"-0.072144"},"context":"","outcome_status":null,"persistent_id":"","id":74278242,"location_subtype":"","month":"2019-05"},{"category":"anti-social-behaviour","location_type":"Force","location":{"latitude":"51.537241","street":{"id":923837,"name":"On or near Haggerston Road"},"longitude":"-0.071994"},"context":"","outcome_status":null,"persistent_id":"","id":74278244,"location_subtype":"","month":"2019-05"},{"category":"anti-social-behaviour","location_type":"Force","location":{"latitude":"51.543477","street":{"id":964294,"name":"On or near Holly Street"},"longitude":"-0.071744"},"context":"","outcome_status":null,"persistent_id":"","id":74278248,"location_subtype":"","month":"2019-05"},{"category":"anti-social-behaviour","location_type":"Force","location":{"latitude":"51.530790","street":{"id":961365,"name":"On or near Hackney Road"},"longitude":"-0.072353"},"context":"","outcome_status":null,"persistent_id":"","id":74278249,"location_subtype":"","month":"2019-05"},{"category":"anti-social-behaviour","location_type":"Force","location":{"latitude":"51.530790","street":{"id":961365,"name":"On or near Hackney Road"},"longitude":"-0.072353"},"context":"","outcome_status":null,"persistent_id":"","id":74278250,"location_subtype":"","month":"2019-05"},{"category":"anti-social-behaviour","location_type":"Force","location":{"latitude":"51.530790","street":{"id":961365,"name":"On or near Hackney Road"},"longitude":"-0.072353"},"context":"","outcome_status":null,"persistent_id":"","id":74278251,"location_subtype":"","month":"2019-05"},{"category":"anti-social-behaviour","location_type":"Force","location":{"latitude":"51.530790","street":{"id":961365,"name":"On or near Hackney Road"},"longitude":"-0.072353"},"context":"","outcome_status":null,"persistent_id":"","id":74278252,"location_subtype":"","month":"2019-05"},{"category":"anti-social-behaviour","location_type":"Force","location":{"latitude":"51.533917","street":{"id":964261,"name":"On or near Thurtle Road"},"longitude":"-0.071687"},"context":"","outcome_status":null,"persistent_id":"","id":74278263,"location_subtype":"","month":"2019-05"},{"category":"anti-social-behaviour","location_type":"Force","location":{"latitude":"51.533917","street":{"id":964261,"name":"On or near Thurtle Road"},"longitude":"-0.071687"},"context":"","outcome_status":null,"persistent_id":"","id":74278264,"location_subtype":"","month":"2019-05"},{"category":"anti-social-behaviour","location_type":"Force","location":{"latitude":"51.533917","street":{"id":964261,"name":"On or near Thurtle Road"},"longitude":"-0.071687"},"context":"","outcome_status":null,"persistent_id":"","id":74278265,"location_subtype":"","month":"2019-05"},{"category":"anti-social-behaviour","location_type":"Force","location":{"latitude":"51.533917","street":{"id":964261,"name":"On or near Thurtle Road"},"longitude":"-0.071687"},"context":"","outcome_status":null,"persistent_id":"","id":74278266,"location_subtype":"","month":"2019-05"},{"category":"anti-social-behaviour","location_type":"Force","location":{"latitude":"51.533917","street":{"id":964261,"name":"On or near Thurtle Road"},"longitude":"-0.071687"},"context":"","outcome_status":null,"persistent_id":"","id":74278267,"location_subtype":"","month":"2019-05"},{"category":"anti-social-behaviour","location_type":"Force","location":{"latitude":"51.533917","street":{"id":964261,"name":"On or near Thurtle Road"},"longitude":"-0.071687"},"context":"","outcome_status":null,"persistent_id":"","id":74278268,"location_subtype":"","month":"2019-05"},{"category":"anti-social-behaviour","location_type":"Force","location":{"latitude":"51.533917","street":{"id":964261,"name":"On or near Thurtle Road"},"longitude":"-0.071687"},"context":"","outcome_status":null,"persistent_id":"","id":74278269,"location_subtype":"","month":"2019-05"},{"category":"anti-social-behaviour","location_type":"Force","location":{"latitude":"51.535342","street":{"id":964290,"name":"On or near Laburnum Street"},"longitude":"-0.073573"},"context":"","outcome_status":null,"persistent_id":"","id":74278271,"location_subtype":"","month":"2019-05"},{"category":"anti-social-behaviour","location_type":"Force","location":{"latitude":"51.537241","street":{"id":923837,"name":"On or near Haggerston Road"},"longitude":"-0.071994"},"context":"","outcome_status":null,"persistent_id":"","id":74278274,"location_subtype":"","month":"2019-05"},{"category":"anti-social-behaviour","location_type":"Force","location":{"latitude":"51.544239","street":{"id":968694,"name":"On or near Cumberland Close"},"longitude":"-0.072650"},"context":"","outcome_status":null,"persistent_id":"","id":74278282,"location_subtype":"","month":"2019-05"},{"category":"anti-social-behaviour","location_type":"Force","location":{"latitude":"51.541099","street":{"id":964215,"name":"On or near Mulberry Road"},"longitude":"-0.073691"},"context":"","outcome_status":null,"persistent_id":"","id":74278283,"location_subtype":"","month":"2019-05"},{"category":"anti-social-behaviour","location_type":"Force","location":{"latitude":"51.537402","street":{"id":964315,"name":"On or near Clarissa Street"},"longitude":"-0.073587"},"context":"","outcome_status":null,"persistent_id":"","id":74278287,"location_subtype":"","month":"2019-05"},{"category":"anti-social-behaviour","location_type":"Force","location":{"latitude":"51.537402","street":{"id":964315,"name":"On or near Clarissa Street"},"longitude":"-0.073587"},"context":"","outcome_status":null,"persistent_id":"","id":74278288,"location_subtype":"","month":"2019-05"},{"category":"anti-social-behaviour","location_type":"Force","location":{"latitude":"51.537402","street":{"id":964315,"name":"On or near Clarissa Street"},"longitude":"-0.073587"},"context":"","outcome_status":null,"persistent_id":"","id":74278289,"location_subtype":"","month":"2019-05"},{"category":"anti-social-behaviour","location_type":"Force","location":{"latitude":"51.537402","street":{"id":964315,"name":"On or near Clarissa Street"},"longitude":"-0.073587"},"context":"","outcome_status":null,"persistent_id":"","id":74278290,"location_subtype":"","month":"2019-05"},{"category":"anti-social-behaviour","location_type":"Force","location":{"latitude":"51.534059","street":{"id":964229,"name":"On or near How's Street"},"longitude":"-0.074262"},"context":"","outcome_status":null,"persistent_id":"","id":74278292,"location_subtype":"","month":"2019-05"},{"category":"anti-social-behaviour","location_type":"Force","location":{"latitude":"51.534059","street":{"id":964229,"name":"On or near How's Street"},"longitude":"-0.074262"},"context":"","outcome_status":null,"persistent_id":"","id":74278293,"location_subtype":"","month":"2019-05"},{"category":"anti-social-behaviour","location_type":"Force","location":{"latitude":"51.535342","street":{"id":964290,"name":"On or near Laburnum Street"},"longitude":"-0.073573"},"context":"","outcome_status":null,"persistent_id":"","id":74278295,"location_subtype":"","month":"2019-05"},{"category":"anti-social-behaviour","location_type":"Force","location":{"latitude":"51.545118","street":{"id":968669,"name":"On or near Beechwood Road"},"longitude":"-0.073622"},"context":"","outcome_status":null,"persistent_id":"","id":74278301,"location_subtype":"","month":"2019-05"},{"category":"anti-social-behaviour","location_type":"Force","location":{"latitude":"51.545118","street":{"id":968669,"name":"On or near Beechwood Road"},"longitude":"-0.073622"},"context":"","outcome_status":null,"persistent_id":"","id":74278306,"location_subtype":"","month":"2019-05"},{"category":"anti-social-behaviour","location_type":"Force","location":{"latitude":"51.531930","street":{"id":964361,"name":"On or near Crabtree Close"},"longitude":"-0.074438"},"context":"","outcome_status":null,"persistent_id":"","id":74278307,"location_subtype":"","month":"2019-05"},{"category":"anti-social-behaviour","location_type":"Force","location":{"latitude":"51.531930","street":{"id":964361,"name":"On or near Crabtree Close"},"longitude":"-0.074438"},"context":"","outcome_status":null,"persistent_id":"","id":74278308,"location_subtype":"","month":"2019-05"},{"category":"anti-social-behaviour","location_type":"Force","location":{"latitude":"51.525884","street":{"id":961184,"name":"On or near Nightclub"},"longitude":"-0.085203"},"context":"","outcome_status":null,"persistent_id":"","id":74278437,"location_subtype":"","month":"2019-05"},{"category":"anti-social-behaviour","location_type":"Force","location":{"latitude":"51.522143","street":{"id":961130,"name":"On or near Worship Street"},"longitude":"-0.085792"},"context":"","outcome_status":null,"persistent_id":"","id":74278431,"location_subtype":"","month":"2019-05"},{"category":"anti-social-behaviour","location_type":"Force","location":{"latitude":"51.522143","street":{"id":961130,"name":"On or near Worship Street"},"longitude":"-0.085792"},"context":"","outcome_status":null,"persistent_id":"","id":74278432,"location_subtype":"","month":"2019-05"},{"category":"anti-social-behaviour","location_type":"Force","location":{"latitude":"51.522143","street":{"id":961130,"name":"On or near Worship Street"},"longitude":"-0.085792"},"context":"","outcome_status":null,"persistent_id":"","id":74278433,"location_subtype":"","month":"2019-05"},{"category":"anti-social-behaviour","location_type":"Force","location":{"latitude":"51.522143","street":{"id":961130,"name":"On or near Worship Street"},"longitude":"-0.085792"},"context":"","outcome_status":null,"persistent_id":"","id":74278434,"location_subtype":"","month":"2019-05"},{"category":"anti-social-behaviour","location_type":"Force","location":{"latitude":"51.522143","street":{"id":961130,"name":"On or near Worship Street"},"longitude":"-0.085792"},"context":"","outcome_status":null,"persistent_id":"","id":74278435,"location_subtype":"","month":"2019-05"},{"category":"anti-social-behaviour","location_type":"Force","location":{"latitude":"51.522143","street":{"id":961130,"name":"On or near Worship Street"},"longitude":"-0.085792"},"context":"","outcome_status":null,"persistent_id":"","id":74278436,"location_subtype":"","month":"2019-05"},{"category":"anti-social-behaviour","location_type":"Force","location":{"latitude":"51.525525","street":{"id":961178,"name":"On or near Theatre\/concert Hall"},"longitude":"-0.085261"},"context":"","outcome_status":null,"persistent_id":"","id":74278438,"location_subtype":"","month":"2019-05"},{"category":"anti-social-behaviour","location_type":"Force","location":{"latitude":"51.525525","street":{"id":961178,"name":"On or near Theatre\/concert Hall"},"longitude":"-0.085261"},"context":"","outcome_status":null,"persistent_id":"","id":74278439,"location_subtype":"","month":"2019-05"},{"category":"anti-social-behaviour","location_type":"Force","location":{"latitude":"51.522388","street":{"id":961179,"name":"On or near Nightclub"},"longitude":"-0.086459"},"context":"","outcome_status":null,"persistent_id":"","id":74278441,"location_subtype":"","month":"2019-05"},{"category":"anti-social-behaviour","location_type":"Force","location":{"latitude":"51.523313","street":{"id":961156,"name":"On or near Epworth Street"},"longitude":"-0.085858"},"context":"","outcome_status":null,"persistent_id":"","id":74278444,"location_subtype":"","month":"2019-05"},{"category":"anti-social-behaviour","location_type":"Force","location":{"latitude":"51.538983","street":{"id":964482,"name":"On or near Park Place"},"longitude":"-0.086167"},"context":"","outcome_status":null,"persistent_id":"","id":74278445,"location_subtype":"","month":"2019-05"},{"category":"anti-social-behaviour","location_type":"Force","location":{"latitude":"51.543533","street":{"id":964491,"name":"On or near Englefield Road"},"longitude":"-0.087202"},"context":"","outcome_status":null,"persistent_id":"","id":74278450,"location_subtype":"","month":"2019-05"},{"category":"anti-social-behaviour","location_type":"Force","location":{"latitude":"51.536363","street":{"id":964239,"name":"On or near Dunston Road"},"longitude":"-0.074410"},"context":"","outcome_status":null,"persistent_id":"","id":74279250,"location_subtype":"","month":"2019-05"},{"category":"anti-social-behaviour","location_type":"Force","location":{"latitude":"51.543622","street":{"id":964219,"name":"On or near Mayfield Close"},"longitude":"-0.073959"},"context":"","outcome_status":null,"persistent_id":"","id":74279261,"location_subtype":"","month":"2019-05"},{"category":"anti-social-behaviour","location_type":"Force","location":{"latitude":"51.535614","street":{"id":964227,"name":"On or near Jeger Avenue"},"longitude":"-0.074773"},"context":"","outcome_status":null,"persistent_id":"","id":74279268,"location_subtype":"","month":"2019-05"},{"category":"anti-social-behaviour","location_type":"Force","location":{"latitude":"51.535614","street":{"id":964227,"name":"On or near Jeger Avenue"},"longitude":"-0.074773"},"context":"","outcome_status":null,"persistent_id":"","id":74279269,"location_subtype":"","month":"2019-05"},{"category":"anti-social-behaviour","location_type":"Force","location":{"latitude":"51.530618","street":{"id":961494,"name":"On or near Cremer Street"},"longitude":"-0.075575"},"context":"","outcome_status":null,"persistent_id":"","id":74279280,"location_subtype":"","month":"2019-05"},{"category":"anti-social-behaviour","location_type":"Force","location":{"latitude":"51.541323","street":{"id":964195,"name":"On or near Freshfield Avenue"},"longitude":"-0.074691"},"context":"","outcome_status":null,"persistent_id":"","id":74279281,"location_subtype":"","month":"2019-05"},{"category":"anti-social-behaviour","location_type":"Force","location":{"latitude":"51.541597","street":{"id":964235,"name":"On or near Glebe Road"},"longitude":"-0.075501"},"context":"","outcome_status":null,"persistent_id":"","id":74279292,"location_subtype":"","month":"2019-05"},{"category":"anti-social-behaviour","location_type":"Force","location":{"latitude":"51.527120","street":{"id":961512,"name":"On or near Austin Street"},"longitude":"-0.076155"},"context":"","outcome_status":null,"persistent_id":"","id":74279306,"location_subtype":"","month":"2019-05"},{"category":"anti-social-behaviour","location_type":"Force","location":{"latitude":"51.543891","street":{"id":964223,"name":"On or near Kingsland Road"},"longitude":"-0.076111"},"context":"","outcome_status":null,"persistent_id":"","id":74279307,"location_subtype":"","month":"2019-05"},{"category":"anti-social-behaviour","location_type":"Force","location":{"latitude":"51.543891","street":{"id":964223,"name":"On or near Kingsland Road"},"longitude":"-0.076111"},"context":"","outcome_status":null,"persistent_id":"","id":74279308,"location_subtype":"","month":"2019-05"},{"category":"anti-social-behaviour","location_type":"Force","location":{"latitude":"51.543891","street":{"id":964223,"name":"On or near Kingsland Road"},"longitude":"-0.076111"},"context":"","outcome_status":null,"persistent_id":"","id":74279309,"location_subtype":"","month":"2019-05"},{"category":"anti-social-behaviour","location_type":"Force","location":{"latitude":"51.543891","street":{"id":964223,"name":"On or near Kingsland Road"},"longitude":"-0.076111"},"context":"","outcome_status":null,"persistent_id":"","id":74279310,"location_subtype":"","month":"2019-05"},{"category":"anti-social-behaviour","location_type":"Force","location":{"latitude":"51.524308","street":{"id":961440,"name":"On or near Redchurch Street"},"longitude":"-0.076865"},"context":"","outcome_status":null,"persistent_id":"","id":74279318,"location_subtype":"","month":"2019-05"},{"category":"anti-social-behaviour","location_type":"Force","location":{"latitude":"51.524308","street":{"id":961440,"name":"On or near Redchurch Street"},"longitude":"-0.076865"},"context":"","outcome_status":null,"persistent_id":"","id":74279319,"location_subtype":"","month":"2019-05"},{"category":"anti-social-behaviour","location_type":"Force","location":{"latitude":"51.524308","street":{"id":961440,"name":"On or near Redchurch Street"},"longitude":"-0.076865"},"context":"","outcome_status":null,"persistent_id":"","id":74279320,"location_subtype":"","month":"2019-05"},{"category":"anti-social-behaviour","location_type":"Force","location":{"latitude":"51.524308","street":{"id":961440,"name":"On or near Redchurch Street"},"longitude":"-0.076865"},"context":"","outcome_status":null,"persistent_id":"","id":74279321,"location_subtype":"","month":"2019-05"},{"category":"anti-social-behaviour","location_type":"Force","location":{"latitude":"51.542849","street":{"id":964210,"name":"On or near Richmond Road"},"longitude":"-0.075073"},"context":"","outcome_status":null,"persistent_id":"","id":74279326,"location_subtype":"","month":"2019-05"},{"category":"anti-social-behaviour","location_type":"Force","location":{"latitude":"51.542849","street":{"id":964210,"name":"On or near Richmond Road"},"longitude":"-0.075073"},"context":"","outcome_status":null,"persistent_id":"","id":74279327,"location_subtype":"","month":"2019-05"},{"category":"anti-social-behaviour","location_type":"Force","location":{"latitude":"51.542849","street":{"id":964210,"name":"On or near Richmond Road"},"longitude":"-0.075073"},"context":"","outcome_status":null,"persistent_id":"","id":74279328,"location_subtype":"","month":"2019-05"},{"category":"anti-social-behaviour","location_type":"Force","location":{"latitude":"51.542849","street":{"id":964210,"name":"On or near Richmond Road"},"longitude":"-0.075073"},"context":"","outcome_status":null,"persistent_id":"","id":74279329,"location_subtype":"","month":"2019-05"},{"category":"anti-social-behaviour","location_type":"Force","location":{"latitude":"51.542849","street":{"id":964210,"name":"On or near Richmond Road"},"longitude":"-0.075073"},"context":"","outcome_status":null,"persistent_id":"","id":74279330,"location_subtype":"","month":"2019-05"},{"category":"anti-social-behaviour","location_type":"Force","location":{"latitude":"51.535996","street":{"id":964217,"name":"On or near Mill Row"},"longitude":"-0.078347"},"context":"","outcome_status":null,"persistent_id":"","id":74279331,"location_subtype":"","month":"2019-05"},{"category":"anti-social-behaviour","location_type":"Force","location":{"latitude":"51.537512","street":{"id":964249,"name":"On or near Acton Mews"},"longitude":"-0.075948"},"context":"","outcome_status":null,"persistent_id":"","id":74279332,"location_subtype":"","month":"2019-05"},{"category":"anti-social-behaviour","location_type":"Force","location":{"latitude":"51.530094","street":{"id":961439,"name":"On or near Redvers Street"},"longitude":"-0.077616"},"context":"","outcome_status":null,"persistent_id":"","id":74279339,"location_subtype":"","month":"2019-05"},{"category":"anti-social-behaviour","location_type":"Force","location":{"latitude":"51.530094","street":{"id":961439,"name":"On or near Redvers Street"},"longitude":"-0.077616"},"context":"","outcome_status":null,"persistent_id":"","id":74279340,"location_subtype":"","month":"2019-05"},{"category":"anti-social-behaviour","location_type":"Force","location":{"latitude":"51.529227","street":{"id":961510,"name":"On or near Basing Place"},"longitude":"-0.077969"},"context":"","outcome_status":null,"persistent_id":"","id":74279345,"location_subtype":"","month":"2019-05"},{"category":"anti-social-behaviour","location_type":"Force","location":{"latitude":"51.525486","street":{"id":961479,"name":"On or near French Place"},"longitude":"-0.078487"},"context":"","outcome_status":null,"persistent_id":"","id":74279349,"location_subtype":"","month":"2019-05"},{"category":"anti-social-behaviour","location_type":"Force","location":{"latitude":"51.545648","street":{"id":968656,"name":"On or near Parking Area"},"longitude":"-0.077970"},"context":"","outcome_status":null,"persistent_id":"","id":74279350,"location_subtype":"","month":"2019-05"},{"category":"anti-social-behaviour","location_type":"Force","location":{"latitude":"51.545648","street":{"id":968656,"name":"On or near Parking Area"},"longitude":"-0.077970"},"context":"","outcome_status":null,"persistent_id":"","id":74279351,"location_subtype":"","month":"2019-05"},{"category":"anti-social-behaviour","location_type":"Force","location":{"latitude":"51.530974","street":{"id":961461,"name":"On or near Jerrold Street"},"longitude":"-0.078617"},"context":"","outcome_status":null,"persistent_id":"","id":74279352,"location_subtype":"","month":"2019-05"},{"category":"anti-social-behaviour","location_type":"Force","location":{"latitude":"51.545648","street":{"id":968656,"name":"On or near Parking Area"},"longitude":"-0.077970"},"context":"","outcome_status":null,"persistent_id":"","id":74279360,"location_subtype":"","month":"2019-05"},{"category":"anti-social-behaviour","location_type":"Force","location":{"latitude":"51.540546","street":{"id":964231,"name":"On or near Hertford Road"},"longitude":"-0.078329"},"context":"","outcome_status":null,"persistent_id":"","id":74279361,"location_subtype":"","month":"2019-05"},{"category":"anti-social-behaviour","location_type":"Force","location":{"latitude":"51.535996","street":{"id":964217,"name":"On or near Mill Row"},"longitude":"-0.078347"},"context":"","outcome_status":null,"persistent_id":"","id":74279362,"location_subtype":"","month":"2019-05"},{"category":"anti-social-behaviour","location_type":"Force","location":{"latitude":"51.524498","street":{"id":961452,"name":"On or near New Inn Yard"},"longitude":"-0.079105"},"context":"","outcome_status":null,"persistent_id":"","id":74279363,"location_subtype":"","month":"2019-05"},{"category":"anti-social-behaviour","location_type":"Force","location":{"latitude":"51.524498","street":{"id":961452,"name":"On or near New Inn Yard"},"longitude":"-0.079105"},"context":"","outcome_status":null,"persistent_id":"","id":74279364,"location_subtype":"","month":"2019-05"},{"category":"anti-social-behaviour","location_type":"Force","location":{"latitude":"51.524498","street":{"id":961452,"name":"On or near New Inn Yard"},"longitude":"-0.079105"},"context":"","outcome_status":null,"persistent_id":"","id":74279365,"location_subtype":"","month":"2019-05"},{"category":"anti-social-behaviour","location_type":"Force","location":{"latitude":"51.524498","street":{"id":961452,"name":"On or near New Inn Yard"},"longitude":"-0.079105"},"context":"","outcome_status":null,"persistent_id":"","id":74279366,"location_subtype":"","month":"2019-05"},{"category":"anti-social-behaviour","location_type":"Force","location":{"latitude":"51.527996","street":{"id":961487,"name":"On or near Drysdale Street"},"longitude":"-0.079117"},"context":"","outcome_status":null,"persistent_id":"","id":74279367,"location_subtype":"","month":"2019-05"},{"category":"anti-social-behaviour","location_type":"Force","location":{"latitude":"51.534438","street":{"id":964213,"name":"On or near Nuttall Street"},"longitude":"-0.078745"},"context":"","outcome_status":null,"persistent_id":"","id":74279369,"location_subtype":"","month":"2019-05"},{"category":"anti-social-behaviour","location_type":"Force","location":{"latitude":"51.539439","street":{"id":964205,"name":"On or near Watercress Place"},"longitude":"-0.078837"},"context":"","outcome_status":null,"persistent_id":"","id":74279370,"location_subtype":"","month":"2019-05"},{"category":"anti-social-behaviour","location_type":"Force","location":{"latitude":"51.539439","street":{"id":964205,"name":"On or near Watercress Place"},"longitude":"-0.078837"},"context":"","outcome_status":null,"persistent_id":"","id":74279371,"location_subtype":"","month":"2019-05"},{"category":"anti-social-behaviour","location_type":"Force","location":{"latitude":"51.530974","street":{"id":961461,"name":"On or near Jerrold Street"},"longitude":"-0.078617"},"context":"","outcome_status":null,"persistent_id":"","id":74279372,"location_subtype":"","month":"2019-05"},{"category":"anti-social-behaviour","location_type":"Force","location":{"latitude":"51.528099","street":{"id":961488,"name":"On or near Drysdale Place"},"longitude":"-0.079329"},"context":"","outcome_status":null,"persistent_id":"","id":74279373,"location_subtype":"","month":"2019-05"},{"category":"anti-social-behaviour","location_type":"Force","location":{"latitude":"51.524692","street":{"id":961454,"name":"On or near New Inn Broadway"},"longitude":"-0.079429"},"context":"","outcome_status":null,"persistent_id":"","id":74279375,"location_subtype":"","month":"2019-05"},{"category":"anti-social-behaviour","location_type":"Force","location":{"latitude":"51.524692","street":{"id":961454,"name":"On or near New Inn Broadway"},"longitude":"-0.079429"},"context":"","outcome_status":null,"persistent_id":"","id":74279376,"location_subtype":"","month":"2019-05"},{"category":"anti-social-behaviour","location_type":"Force","location":{"latitude":"51.535539","street":{"id":964211,"name":"On or near Phillipp Street"},"longitude":"-0.079520"},"context":"","outcome_status":null,"persistent_id":"","id":74279377,"location_subtype":"","month":"2019-05"},{"category":"anti-social-behaviour","location_type":"Force","location":{"latitude":"51.527164","street":{"id":961523,"name":"On or near Nightclub"},"longitude":"-0.080478"},"context":"","outcome_status":null,"persistent_id":"","id":74279378,"location_subtype":"","month":"2019-05"},{"category":"anti-social-behaviour","location_type":"Force","location":{"latitude":"51.535539","street":{"id":964211,"name":"On or near Phillipp Street"},"longitude":"-0.079520"},"context":"","outcome_status":null,"persistent_id":"","id":74279379,"location_subtype":"","month":"2019-05"},{"category":"anti-social-behaviour","location_type":"Force","location":{"latitude":"51.535539","street":{"id":964211,"name":"On or near Phillipp Street"},"longitude":"-0.079520"},"context":"","outcome_status":null,"persistent_id":"","id":74279380,"location_subtype":"","month":"2019-05"},{"category":"anti-social-behaviour","location_type":"Force","location":{"latitude":"51.535539","street":{"id":964211,"name":"On or near Phillipp Street"},"longitude":"-0.079520"},"context":"","outcome_status":null,"persistent_id":"","id":74279381,"location_subtype":"","month":"2019-05"},{"category":"anti-social-behaviour","location_type":"Force","location":{"latitude":"51.524266","street":{"id":961477,"name":"On or near Gatesborough Street"},"longitude":"-0.080874"},"context":"","outcome_status":null,"persistent_id":"","id":74279382,"location_subtype":"","month":"2019-05"},{"category":"anti-social-behaviour","location_type":"Force","location":{"latitude":"51.539439","street":{"id":964205,"name":"On or near Watercress Place"},"longitude":"-0.078837"},"context":"","outcome_status":null,"persistent_id":"","id":74279383,"location_subtype":"","month":"2019-05"},{"category":"anti-social-behaviour","location_type":"Force","location":{"latitude":"51.532439","street":{"id":964355,"name":"On or near Tyssen Street"},"longitude":"-0.079708"},"context":"","outcome_status":null,"persistent_id":"","id":74279384,"location_subtype":"","month":"2019-05"},{"category":"anti-social-behaviour","location_type":"Force","location":{"latitude":"51.532439","street":{"id":964355,"name":"On or near Tyssen Street"},"longitude":"-0.079708"},"context":"","outcome_status":null,"persistent_id":"","id":74279385,"location_subtype":"","month":"2019-05"},{"category":"anti-social-behaviour","location_type":"Force","location":{"latitude":"51.527164","street":{"id":961523,"name":"On or near Nightclub"},"longitude":"-0.080478"},"context":"","outcome_status":null,"persistent_id":"","id":74279387,"location_subtype":"","month":"2019-05"},{"category":"anti-social-behaviour","location_type":"Force","location":{"latitude":"51.527164","street":{"id":961523,"name":"On or near Nightclub"},"longitude":"-0.080478"},"context":"","outcome_status":null,"persistent_id":"","id":74279388,"location_subtype":"","month":"2019-05"},{"category":"anti-social-behaviour","location_type":"Force","location":{"latitude":"51.527164","street":{"id":961523,"name":"On or near Nightclub"},"longitude":"-0.080478"},"context":"","outcome_status":null,"persistent_id":"","id":74279389,"location_subtype":"","month":"2019-05"},{"category":"anti-social-behaviour","location_type":"Force","location":{"latitude":"51.527164","street":{"id":961523,"name":"On or near Nightclub"},"longitude":"-0.080478"},"context":"","outcome_status":null,"persistent_id":"","id":74279390,"location_subtype":"","month":"2019-05"},{"category":"anti-social-behaviour","location_type":"Force","location":{"latitude":"51.535051","street":{"id":964203,"name":"On or near Wilmer Gardens"},"longitude":"-0.079930"},"context":"","outcome_status":null,"persistent_id":"","id":74279391,"location_subtype":"","month":"2019-05"},{"category":"anti-social-behaviour","location_type":"Force","location":{"latitude":"51.535051","street":{"id":964203,"name":"On or near Wilmer Gardens"},"longitude":"-0.079930"},"context":"","outcome_status":null,"persistent_id":"","id":74279392,"location_subtype":"","month":"2019-05"},{"category":"anti-social-behaviour","location_type":"Force","location":{"latitude":"51.534164","street":{"id":964233,"name":"On or near Hamond Square"},"longitude":"-0.080688"},"context":"","outcome_status":null,"persistent_id":"","id":74279393,"location_subtype":"","month":"2019-05"},{"category":"anti-social-behaviour","location_type":"Force","location":{"latitude":"51.534164","street":{"id":964233,"name":"On or near Hamond Square"},"longitude":"-0.080688"},"context":"","outcome_status":null,"persistent_id":"","id":74279394,"location_subtype":"","month":"2019-05"},{"category":"anti-social-behaviour","location_type":"Force","location":{"latitude":"51.535539","street":{"id":964211,"name":"On or near Phillipp Street"},"longitude":"-0.079520"},"context":"","outcome_status":null,"persistent_id":"","id":74279395,"location_subtype":"","month":"2019-05"},{"category":"anti-social-behaviour","location_type":"Force","location":{"latitude":"51.535539","street":{"id":964211,"name":"On or near Phillipp Street"},"longitude":"-0.079520"},"context":"","outcome_status":null,"persistent_id":"","id":74279396,"location_subtype":"","month":"2019-05"},{"category":"anti-social-behaviour","location_type":"Force","location":{"latitude":"51.526108","street":{"id":961436,"name":"On or near Rivington Street"},"longitude":"-0.080782"},"context":"","outcome_status":null,"persistent_id":"","id":74279398,"location_subtype":"","month":"2019-05"},{"category":"anti-social-behaviour","location_type":"Force","location":{"latitude":"51.525515","street":{"id":961458,"name":"On or near Mills Court"},"longitude":"-0.080807"},"context":"","outcome_status":null,"persistent_id":"","id":74279400,"location_subtype":"","month":"2019-05"},{"category":"anti-social-behaviour","location_type":"Force","location":{"latitude":"51.525515","street":{"id":961458,"name":"On or near Mills Court"},"longitude":"-0.080807"},"context":"","outcome_status":null,"persistent_id":"","id":74279401,"location_subtype":"","month":"2019-05"},{"category":"anti-social-behaviour","location_type":"Force","location":{"latitude":"51.525515","street":{"id":961458,"name":"On or near Mills Court"},"longitude":"-0.080807"},"context":"","outcome_status":null,"persistent_id":"","id":74279402,"location_subtype":"","month":"2019-05"},{"category":"anti-social-behaviour","location_type":"Force","location":{"latitude":"51.533285","street":{"id":964368,"name":"On or near Fern Close"},"longitude":"-0.081374"},"context":"","outcome_status":null,"persistent_id":"","id":74279407,"location_subtype":"","month":"2019-05"},{"category":"anti-social-behaviour","location_type":"Force","location":{"latitude":"51.544266","street":{"id":968664,"name":"On or near Culford Grove"},"longitude":"-0.081994"},"context":"","outcome_status":null,"persistent_id":"","id":74279408,"location_subtype":"","month":"2019-05"},{"category":"anti-social-behaviour","location_type":"Force","location":{"latitude":"51.523666","street":{"id":961451,"name":"On or near New North Place"},"longitude":"-0.082110"},"context":"","outcome_status":null,"persistent_id":"","id":74279409,"location_subtype":"","month":"2019-05"},{"category":"anti-social-behaviour","location_type":"Force","location":{"latitude":"51.532005","street":{"id":964358,"name":"On or near Regan Way"},"longitude":"-0.081212"},"context":"","outcome_status":null,"persistent_id":"","id":74279410,"location_subtype":"","month":"2019-05"},{"category":"anti-social-behaviour","location_type":"Force","location":{"latitude":"51.533331","street":{"id":964366,"name":"On or near Ivy Street"},"longitude":"-0.082021"},"context":"","outcome_status":null,"persistent_id":"","id":74279411,"location_subtype":"","month":"2019-05"},{"category":"anti-social-behaviour","location_type":"Force","location":{"latitude":"51.527190","street":{"id":961467,"name":"On or near Hoxton Market"},"longitude":"-0.082625"},"context":"","outcome_status":null,"persistent_id":"","id":74279412,"location_subtype":"","month":"2019-05"},{"category":"anti-social-behaviour","location_type":"Force","location":{"latitude":"51.533331","street":{"id":964366,"name":"On or near Ivy Street"},"longitude":"-0.082021"},"context":"","outcome_status":null,"persistent_id":"","id":74279414,"location_subtype":"","month":"2019-05"},{"category":"anti-social-behaviour","location_type":"Force","location":{"latitude":"51.531021","street":{"id":961493,"name":"On or near Crondall Street"},"longitude":"-0.082623"},"context":"","outcome_status":null,"persistent_id":"","id":74279415,"location_subtype":"","month":"2019-05"},{"category":"anti-social-behaviour","location_type":"Force","location":{"latitude":"51.542414","street":{"id":964531,"name":"On or near Northchurch Road"},"longitude":"-0.088100"},"context":"","outcome_status":null,"persistent_id":"","id":74279560,"location_subtype":"","month":"2019-05"},{"category":"anti-social-behaviour","location_type":"Force","location":{"latitude":"51.525066","street":{"id":961147,"name":"On or near Mallow Street"},"longitude":"-0.088582"},"context":"","outcome_status":null,"persistent_id":"","id":74279561,"location_subtype":"","month":"2019-05"},{"category":"anti-social-behaviour","location_type":"Force","location":{"latitude":"51.524579","street":{"id":961094,"name":"On or near Featherstone Street"},"longitude":"-0.089034"},"context":"","outcome_status":null,"persistent_id":"","id":74279562,"location_subtype":"","month":"2019-05"},{"category":"anti-social-behaviour","location_type":"Force","location":{"latitude":"51.524579","street":{"id":961094,"name":"On or near Featherstone Street"},"longitude":"-0.089034"},"context":"","outcome_status":null,"persistent_id":"","id":74279563,"location_subtype":"","month":"2019-05"},{"category":"anti-social-behaviour","location_type":"Force","location":{"latitude":"51.524579","street":{"id":961094,"name":"On or near Featherstone Street"},"longitude":"-0.089034"},"context":"","outcome_status":null,"persistent_id":"","id":74279564,"location_subtype":"","month":"2019-05"},{"category":"anti-social-behaviour","location_type":"Force","location":{"latitude":"51.524579","street":{"id":961094,"name":"On or near Featherstone Street"},"longitude":"-0.089034"},"context":"","outcome_status":null,"persistent_id":"","id":74279565,"location_subtype":"","month":"2019-05"},{"category":"anti-social-behaviour","location_type":"Force","location":{"latitude":"51.524579","street":{"id":961094,"name":"On or near Featherstone Street"},"longitude":"-0.089034"},"context":"","outcome_status":null,"persistent_id":"","id":74279566,"location_subtype":"","month":"2019-05"},{"category":"anti-social-behaviour","location_type":"Force","location":{"latitude":"51.524579","street":{"id":961094,"name":"On or near Featherstone Street"},"longitude":"-0.089034"},"context":"","outcome_status":null,"persistent_id":"","id":74279567,"location_subtype":"","month":"2019-05"},{"category":"anti-social-behaviour","location_type":"Force","location":{"latitude":"51.524579","street":{"id":961094,"name":"On or near Featherstone Street"},"longitude":"-0.089034"},"context":"","outcome_status":null,"persistent_id":"","id":74279568,"location_subtype":"","month":"2019-05"},{"category":"anti-social-behaviour","location_type":"Force","location":{"latitude":"51.524579","street":{"id":961094,"name":"On or near Featherstone Street"},"longitude":"-0.089034"},"context":"","outcome_status":null,"persistent_id":"","id":74279569,"location_subtype":"","month":"2019-05"},{"category":"anti-social-behaviour","location_type":"Force","location":{"latitude":"51.521643","street":{"id":961088,"name":"On or near Lamb's Passage"},"longitude":"-0.090930"},"context":"","outcome_status":null,"persistent_id":"","id":74279571,"location_subtype":"","month":"2019-05"},{"category":"anti-social-behaviour","location_type":"Force","location":{"latitude":"51.538033","street":{"id":964520,"name":"On or near Shepperton Road"},"longitude":"-0.089653"},"context":"","outcome_status":null,"persistent_id":"","id":74279574,"location_subtype":"","month":"2019-05"},{"category":"anti-social-behaviour","location_type":"Force","location":{"latitude":"51.526984","street":{"id":961079,"name":"On or near Peerless Street"},"longitude":"-0.089842"},"context":"","outcome_status":null,"persistent_id":"","id":74279575,"location_subtype":"","month":"2019-05"},{"category":"anti-social-behaviour","location_type":"Force","location":{"latitude":"51.526984","street":{"id":961079,"name":"On or near Peerless Street"},"longitude":"-0.089842"},"context":"","outcome_status":null,"persistent_id":"","id":74279576,"location_subtype":"","month":"2019-05"},{"category":"anti-social-behaviour","location_type":"Force","location":{"latitude":"51.538804","street":{"id":964539,"name":"On or near Hullbridge Mews"},"longitude":"-0.089520"},"context":"","outcome_status":null,"persistent_id":"","id":74279577,"location_subtype":"","month":"2019-05"},{"category":"anti-social-behaviour","location_type":"Force","location":{"latitude":"51.541961","street":{"id":964544,"name":"On or near Elmore Street"},"longitude":"-0.089013"},"context":"","outcome_status":null,"persistent_id":"","id":74279578,"location_subtype":"","month":"2019-05"},{"category":"anti-social-behaviour","location_type":"Force","location":{"latitude":"51.523382","street":{"id":961103,"name":"On or near Chequer Street"},"longitude":"-0.091160"},"context":"","outcome_status":null,"persistent_id":"","id":74279579,"location_subtype":"","month":"2019-05"},{"category":"anti-social-behaviour","location_type":"Force","location":{"latitude":"51.520744","street":{"id":961102,"name":"On or near Chiswell Street"},"longitude":"-0.089858"},"context":"","outcome_status":null,"persistent_id":"","id":74279580,"location_subtype":"","month":"2019-05"},{"category":"anti-social-behaviour","location_type":"Force","location":{"latitude":"51.525655","street":{"id":961117,"name":"On or near Supermarket"},"longitude":"-0.090517"},"context":"","outcome_status":null,"persistent_id":"","id":74279581,"location_subtype":"","month":"2019-05"},{"category":"anti-social-behaviour","location_type":"Force","location":{"latitude":"51.523186","street":{"id":961098,"name":"On or near Dufferin Avenue"},"longitude":"-0.091284"},"context":"","outcome_status":null,"persistent_id":"","id":74279584,"location_subtype":"","month":"2019-05"},{"category":"anti-social-behaviour","location_type":"Force","location":{"latitude":"51.525724","street":{"id":961109,"name":"On or near Bartholomew Square"},"longitude":"-0.093052"},"context":"","outcome_status":null,"persistent_id":"","id":74279602,"location_subtype":"","month":"2019-05"},{"category":"anti-social-behaviour","location_type":"Force","location":{"latitude":"51.528018","street":{"id":961084,"name":"On or near Mora Street"},"longitude":"-0.093143"},"context":"","outcome_status":null,"persistent_id":"","id":74279606,"location_subtype":"","month":"2019-05"},{"category":"anti-social-behaviour","location_type":"Force","location":{"latitude":"51.538473","street":{"id":964532,"name":"On or near New North Road"},"longitude":"-0.092389"},"context":"","outcome_status":null,"persistent_id":"","id":74279609,"location_subtype":"","month":"2019-05"},{"category":"anti-social-behaviour","location_type":"Force","location":{"latitude":"51.526975","street":{"id":961092,"name":"On or near Galway Street"},"longitude":"-0.092567"},"context":"","outcome_status":null,"persistent_id":"","id":74279610,"location_subtype":"","month":"2019-05"},{"category":"anti-social-behaviour","location_type":"Force","location":{"latitude":"51.539259","street":{"id":964526,"name":"On or near Raynor Place"},"longitude":"-0.092616"},"context":"","outcome_status":null,"persistent_id":"","id":74279614,"location_subtype":"","month":"2019-05"},{"category":"anti-social-behaviour","location_type":"Force","location":{"latitude":"51.539259","street":{"id":964526,"name":"On or near Raynor Place"},"longitude":"-0.092616"},"context":"","outcome_status":null,"persistent_id":"","id":74279615,"location_subtype":"","month":"2019-05"},{"category":"anti-social-behaviour","location_type":"Force","location":{"latitude":"51.527798","street":{"id":961099,"name":"On or near Dingley Place"},"longitude":"-0.093960"},"context":"","outcome_status":null,"persistent_id":"","id":74279616,"location_subtype":"","month":"2019-05"},{"category":"anti-social-behaviour","location_type":"Force","location":{"latitude":"51.527798","street":{"id":961099,"name":"On or near Dingley Place"},"longitude":"-0.093960"},"context":"","outcome_status":null,"persistent_id":"","id":74279617,"location_subtype":"","month":"2019-05"},{"category":"anti-social-behaviour","location_type":"Force","location":{"latitude":"51.527798","street":{"id":961099,"name":"On or near Dingley Place"},"longitude":"-0.093960"},"context":"","outcome_status":null,"persistent_id":"","id":74279618,"location_subtype":"","month":"2019-05"},{"category":"anti-social-behaviour","location_type":"Force","location":{"latitude":"51.538177","street":{"id":923836,"name":"On or near Basire Street"},"longitude":"-0.093541"},"context":"","outcome_status":null,"persistent_id":"","id":74279619,"location_subtype":"","month":"2019-05"},{"category":"anti-social-behaviour","location_type":"Force","location":{"latitude":"51.528864","street":{"id":961101,"name":"On or near City Road"},"longitude":"-0.094261"},"context":"","outcome_status":null,"persistent_id":"","id":74279623,"location_subtype":"","month":"2019-05"},{"category":"anti-social-behaviour","location_type":"Force","location":{"latitude":"51.528864","street":{"id":961101,"name":"On or near City Road"},"longitude":"-0.094261"},"context":"","outcome_status":null,"persistent_id":"","id":74279624,"location_subtype":"","month":"2019-05"},{"category":"anti-social-behaviour","location_type":"Force","location":{"latitude":"51.523932","street":{"id":961091,"name":"On or near Garrett Street"},"longitude":"-0.094554"},"context":"","outcome_status":null,"persistent_id":"","id":74279625,"location_subtype":"","month":"2019-05"},{"category":"anti-social-behaviour","location_type":"Force","location":{"latitude":"51.537888","street":{"id":964451,"name":"On or near Bishop Street"},"longitude":"-0.095125"},"context":"","outcome_status":null,"persistent_id":"","id":74279644,"location_subtype":"","month":"2019-05"},{"category":"anti-social-behaviour","location_type":"Force","location":{"latitude":"51.526294","street":{"id":961081,"name":"On or near Norman Street"},"longitude":"-0.094931"},"context":"","outcome_status":null,"persistent_id":"","id":74279633,"location_subtype":"","month":"2019-05"},{"category":"anti-social-behaviour","location_type":"Force","location":{"latitude":"51.534157","street":{"id":964428,"name":"On or near Dame Street"},"longitude":"-0.095727"},"context":"","outcome_status":null,"persistent_id":"","id":74279634,"location_subtype":"","month":"2019-05"},{"category":"anti-social-behaviour","location_type":"Force","location":{"latitude":"51.534157","street":{"id":964428,"name":"On or near Dame Street"},"longitude":"-0.095727"},"context":"","outcome_status":null,"persistent_id":"","id":74279635,"location_subtype":"","month":"2019-05"},{"category":"anti-social-behaviour","location_type":"Force","location":{"latitude":"51.534157","street":{"id":964428,"name":"On or near Dame Street"},"longitude":"-0.095727"},"context":"","outcome_status":null,"persistent_id":"","id":74279636,"location_subtype":"","month":"2019-05"},{"category":"anti-social-behaviour","location_type":"Force","location":{"latitude":"51.534157","street":{"id":964428,"name":"On or near Dame Street"},"longitude":"-0.095727"},"context":"","outcome_status":null,"persistent_id":"","id":74279637,"location_subtype":"","month":"2019-05"},{"category":"anti-social-behaviour","location_type":"Force","location":{"latitude":"51.530255","street":{"id":961196,"name":"On or near Wharf Road"},"longitude":"-0.095213"},"context":"","outcome_status":null,"persistent_id":"","id":74279641,"location_subtype":"","month":"2019-05"},{"category":"anti-social-behaviour","location_type":"Force","location":{"latitude":"51.537027","street":{"id":964395,"name":"On or near Prebend Street"},"longitude":"-0.095218"},"context":"","outcome_status":null,"persistent_id":"","id":74279642,"location_subtype":"","month":"2019-05"},{"category":"anti-social-behaviour","location_type":"Force","location":{"latitude":"51.537027","street":{"id":964395,"name":"On or near Prebend Street"},"longitude":"-0.095218"},"context":"","outcome_status":null,"persistent_id":"","id":74279643,"location_subtype":"","month":"2019-05"},{"category":"anti-social-behaviour","location_type":"Force","location":{"latitude":"51.537888","street":{"id":964451,"name":"On or near Bishop Street"},"longitude":"-0.095125"},"context":"","outcome_status":null,"persistent_id":"","id":74279645,"location_subtype":"","month":"2019-05"},{"category":"anti-social-behaviour","location_type":"Force","location":{"latitude":"51.537888","street":{"id":964451,"name":"On or near Bishop Street"},"longitude":"-0.095125"},"context":"","outcome_status":null,"persistent_id":"","id":74279646,"location_subtype":"","month":"2019-05"},{"category":"anti-social-behaviour","location_type":"Force","location":{"latitude":"51.537888","street":{"id":964451,"name":"On or near Bishop Street"},"longitude":"-0.095125"},"context":"","outcome_status":null,"persistent_id":"","id":74279647,"location_subtype":"","month":"2019-05"},{"category":"anti-social-behaviour","location_type":"Force","location":{"latitude":"51.537888","street":{"id":964451,"name":"On or near Bishop Street"},"longitude":"-0.095125"},"context":"","outcome_status":null,"persistent_id":"","id":74279648,"location_subtype":"","month":"2019-05"},{"category":"anti-social-behaviour","location_type":"Force","location":{"latitude":"51.537888","street":{"id":964451,"name":"On or near Bishop Street"},"longitude":"-0.095125"},"context":"","outcome_status":null,"persistent_id":"","id":74279649,"location_subtype":"","month":"2019-05"},{"category":"anti-social-behaviour","location_type":"Force","location":{"latitude":"51.537888","street":{"id":964451,"name":"On or near Bishop Street"},"longitude":"-0.095125"},"context":"","outcome_status":null,"persistent_id":"","id":74279651,"location_subtype":"","month":"2019-05"},{"category":"anti-social-behaviour","location_type":"Force","location":{"latitude":"51.537888","street":{"id":964451,"name":"On or near Bishop Street"},"longitude":"-0.095125"},"context":"","outcome_status":null,"persistent_id":"","id":74279652,"location_subtype":"","month":"2019-05"},{"category":"anti-social-behaviour","location_type":"Force","location":{"latitude":"51.537888","street":{"id":964451,"name":"On or near Bishop Street"},"longitude":"-0.095125"},"context":"","outcome_status":null,"persistent_id":"","id":74279653,"location_subtype":"","month":"2019-05"},{"category":"anti-social-behaviour","location_type":"Force","location":{"latitude":"51.537888","street":{"id":964451,"name":"On or near Bishop Street"},"longitude":"-0.095125"},"context":"","outcome_status":null,"persistent_id":"","id":74279654,"location_subtype":"","month":"2019-05"},{"category":"anti-social-behaviour","location_type":"Force","location":{"latitude":"51.537888","street":{"id":964451,"name":"On or near Bishop Street"},"longitude":"-0.095125"},"context":"","outcome_status":null,"persistent_id":"","id":74279655,"location_subtype":"","month":"2019-05"},{"category":"anti-social-behaviour","location_type":"Force","location":{"latitude":"51.531646","street":{"id":964587,"name":"On or near Wharf Road"},"longitude":"-0.096121"},"context":"","outcome_status":null,"persistent_id":"","id":74279657,"location_subtype":"","month":"2019-05"},{"category":"anti-social-behaviour","location_type":"Force","location":{"latitude":"51.533305","street":{"id":964602,"name":"On or near Baldwin Terrace"},"longitude":"-0.096441"},"context":"","outcome_status":null,"persistent_id":"","id":74279659,"location_subtype":"","month":"2019-05"},{"category":"anti-social-behaviour","location_type":"Force","location":{"latitude":"51.537027","street":{"id":964395,"name":"On or near Prebend Street"},"longitude":"-0.095218"},"context":"","outcome_status":null,"persistent_id":"","id":74279660,"location_subtype":"","month":"2019-05"},{"category":"anti-social-behaviour","location_type":"Force","location":{"latitude":"51.537027","street":{"id":964395,"name":"On or near Prebend Street"},"longitude":"-0.095218"},"context":"","outcome_status":null,"persistent_id":"","id":74279664,"location_subtype":"","month":"2019-05"},{"category":"anti-social-behaviour","location_type":"Force","location":{"latitude":"51.535317","street":{"id":964401,"name":"On or near Packington Square"},"longitude":"-0.095708"},"context":"","outcome_status":null,"persistent_id":"","id":74279665,"location_subtype":"","month":"2019-05"},{"category":"anti-social-behaviour","location_type":"Force","location":{"latitude":"51.535317","street":{"id":964401,"name":"On or near Packington Square"},"longitude":"-0.095708"},"context":"","outcome_status":null,"persistent_id":"","id":74279666,"location_subtype":"","month":"2019-05"},{"category":"anti-social-behaviour","location_type":"Force","location":{"latitude":"51.535317","street":{"id":964401,"name":"On or near Packington Square"},"longitude":"-0.095708"},"context":"","outcome_status":null,"persistent_id":"","id":74279667,"location_subtype":"","month":"2019-05"},{"category":"anti-social-behaviour","location_type":"Force","location":{"latitude":"51.535317","street":{"id":964401,"name":"On or near Packington Square"},"longitude":"-0.095708"},"context":"","outcome_status":null,"persistent_id":"","id":74279668,"location_subtype":"","month":"2019-05"},{"category":"anti-social-behaviour","location_type":"Force","location":{"latitude":"51.535317","street":{"id":964401,"name":"On or near Packington Square"},"longitude":"-0.095708"},"context":"","outcome_status":null,"persistent_id":"","id":74279669,"location_subtype":"","month":"2019-05"},{"category":"anti-social-behaviour","location_type":"Force","location":{"latitude":"51.535317","street":{"id":964401,"name":"On or near Packington Square"},"longitude":"-0.095708"},"context":"","outcome_status":null,"persistent_id":"","id":74279670,"location_subtype":"","month":"2019-05"},{"category":"anti-social-behaviour","location_type":"Force","location":{"latitude":"51.535317","street":{"id":964401,"name":"On or near Packington Square"},"longitude":"-0.095708"},"context":"","outcome_status":null,"persistent_id":"","id":74279671,"location_subtype":"","month":"2019-05"},{"category":"anti-social-behaviour","location_type":"Force","location":{"latitude":"51.535317","street":{"id":964401,"name":"On or near Packington Square"},"longitude":"-0.095708"},"context":"","outcome_status":null,"persistent_id":"","id":74279672,"location_subtype":"","month":"2019-05"},{"category":"anti-social-behaviour","location_type":"Force","location":{"latitude":"51.535317","street":{"id":964401,"name":"On or near Packington Square"},"longitude":"-0.095708"},"context":"","outcome_status":null,"persistent_id":"","id":74279673,"location_subtype":"","month":"2019-05"},{"category":"anti-social-behaviour","location_type":"Force","location":{"latitude":"51.535317","street":{"id":964401,"name":"On or near Packington Square"},"longitude":"-0.095708"},"context":"","outcome_status":null,"persistent_id":"","id":74279674,"location_subtype":"","month":"2019-05"},{"category":"anti-social-behaviour","location_type":"Force","location":{"latitude":"51.535317","street":{"id":964401,"name":"On or near Packington Square"},"longitude":"-0.095708"},"context":"","outcome_status":null,"persistent_id":"","id":74279675,"location_subtype":"","month":"2019-05"},{"category":"anti-social-behaviour","location_type":"Force","location":{"latitude":"51.533690","street":{"id":964596,"name":"On or near Provence Street"},"longitude":"-0.096843"},"context":"","outcome_status":null,"persistent_id":"","id":74279680,"location_subtype":"","month":"2019-05"},{"category":"anti-social-behaviour","location_type":"Force","location":{"latitude":"51.533690","street":{"id":964596,"name":"On or near Provence Street"},"longitude":"-0.096843"},"context":"","outcome_status":null,"persistent_id":"","id":74279681,"location_subtype":"","month":"2019-05"},{"category":"anti-social-behaviour","location_type":"Force","location":{"latitude":"51.531101","street":{"id":961257,"name":"On or near City Garden Row"},"longitude":"-0.098609"},"context":"","outcome_status":null,"persistent_id":"","id":74279687,"location_subtype":"","month":"2019-05"},{"category":"anti-social-behaviour","location_type":"Force","location":{"latitude":"51.526658","street":{"id":961470,"name":"On or near Hocker Street"},"longitude":"-0.074848"},"context":"","outcome_status":null,"persistent_id":"","id":74274988,"location_subtype":"","month":"2019-05"},{"category":"anti-social-behaviour","location_type":"Force","location":{"latitude":"51.524848","street":{"id":961448,"name":"On or near Old Nichol Street"},"longitude":"-0.074679"},"context":"","outcome_status":null,"persistent_id":"","id":74274992,"location_subtype":"","month":"2019-05"},{"category":"anti-social-behaviour","location_type":"Force","location":{"latitude":"51.524848","street":{"id":961448,"name":"On or near Old Nichol Street"},"longitude":"-0.074679"},"context":"","outcome_status":null,"persistent_id":"","id":74274995,"location_subtype":"","month":"2019-05"},{"category":"anti-social-behaviour","location_type":"Force","location":{"latitude":"51.527707","street":{"id":961372,"name":"On or near Gascoigne Place"},"longitude":"-0.074069"},"context":"","outcome_status":null,"persistent_id":"","id":74275004,"location_subtype":"","month":"2019-05"},{"category":"anti-social-behaviour","location_type":"Force","location":{"latitude":"51.521124","street":{"id":961462,"name":"On or near Jerome Street"},"longitude":"-0.074591"},"context":"","outcome_status":null,"persistent_id":"","id":74275007,"location_subtype":"","month":"2019-05"},{"category":"anti-social-behaviour","location_type":"Force","location":{"latitude":"51.529279","street":{"id":961473,"name":"On or near Hackney Road"},"longitude":"-0.075055"},"context":"","outcome_status":null,"persistent_id":"","id":74275017,"location_subtype":"","month":"2019-05"},{"category":"anti-social-behaviour","location_type":"Force","location":{"latitude":"51.526658","street":{"id":961470,"name":"On or near Hocker Street"},"longitude":"-0.074848"},"context":"","outcome_status":null,"persistent_id":"","id":74275018,"location_subtype":"","month":"2019-05"},{"category":"anti-social-behaviour","location_type":"Force","location":{"latitude":"51.524235","street":{"id":961419,"name":"On or near Chance Street"},"longitude":"-0.075109"},"context":"","outcome_status":null,"persistent_id":"","id":74275020,"location_subtype":"","month":"2019-05"},{"category":"anti-social-behaviour","location_type":"Force","location":{"latitude":"51.524235","street":{"id":961419,"name":"On or near Chance Street"},"longitude":"-0.075109"},"context":"","outcome_status":null,"persistent_id":"","id":74275022,"location_subtype":"","month":"2019-05"},{"category":"anti-social-behaviour","location_type":"Force","location":{"latitude":"51.520474","street":{"id":961532,"name":"On or near Wheeler Lane"},"longitude":"-0.075556"},"context":"","outcome_status":null,"persistent_id":"","id":74275032,"location_subtype":"","month":"2019-05"},{"category":"anti-social-behaviour","location_type":"Force","location":{"latitude":"51.527120","street":{"id":961512,"name":"On or near Austin Street"},"longitude":"-0.076155"},"context":"","outcome_status":null,"persistent_id":"","id":74275033,"location_subtype":"","month":"2019-05"},{"category":"anti-social-behaviour","location_type":"Force","location":{"latitude":"51.524361","street":{"id":961392,"name":"On or near Chester Street"},"longitude":"-0.063124"},"context":"","outcome_status":null,"persistent_id":"","id":74289948,"location_subtype":"","month":"2019-05"},{"category":"anti-social-behaviour","location_type":"Force","location":{"latitude":"51.534680","street":{"id":964045,"name":"On or near Lark Row"},"longitude":"-0.054136"},"context":"","outcome_status":null,"persistent_id":"","id":74289764,"location_subtype":"","month":"2019-05"},{"category":"anti-social-behaviour","location_type":"Force","location":{"latitude":"51.532139","street":{"id":964345,"name":"On or near Coate Street"},"longitude":"-0.063111"},"context":"","outcome_status":null,"persistent_id":"","id":74274086,"location_subtype":"","month":"2019-05"},{"category":"anti-social-behaviour","location_type":"Force","location":{"latitude":"51.532139","street":{"id":964345,"name":"On or near Coate Street"},"longitude":"-0.063111"},"context":"","outcome_status":null,"persistent_id":"","id":74274087,"location_subtype":"","month":"2019-05"},{"category":"anti-social-behaviour","location_type":"Force","location":{"latitude":"51.520449","street":{"id":961355,"name":"On or near Lomas Street"},"longitude":"-0.063117"},"context":"","outcome_status":null,"persistent_id":"","id":74274088,"location_subtype":"","month":"2019-05"},{"category":"anti-social-behaviour","location_type":"Force","location":{"latitude":"51.520449","street":{"id":961355,"name":"On or near Lomas Street"},"longitude":"-0.063117"},"context":"","outcome_status":null,"persistent_id":"","id":74274091,"location_subtype":"","month":"2019-05"},{"category":"anti-social-behaviour","location_type":"Force","location":{"latitude":"51.520449","street":{"id":961355,"name":"On or near Lomas Street"},"longitude":"-0.063117"},"context":"","outcome_status":null,"persistent_id":"","id":74274092,"location_subtype":"","month":"2019-05"},{"category":"anti-social-behaviour","location_type":"Force","location":{"latitude":"51.532139","street":{"id":964345,"name":"On or near Coate Street"},"longitude":"-0.063111"},"context":"","outcome_status":null,"persistent_id":"","id":74274093,"location_subtype":"","month":"2019-05"},{"category":"anti-social-behaviour","location_type":"Force","location":{"latitude":"51.520887","street":{"id":961309,"name":"On or near Vallance Road"},"longitude":"-0.064050"},"context":"","outcome_status":null,"persistent_id":"","id":74274094,"location_subtype":"","month":"2019-05"},{"category":"anti-social-behaviour","location_type":"Force","location":{"latitude":"51.520887","street":{"id":961309,"name":"On or near Vallance Road"},"longitude":"-0.064050"},"context":"","outcome_status":null,"persistent_id":"","id":74274095,"location_subtype":"","month":"2019-05"},{"category":"anti-social-behaviour","location_type":"Force","location":{"latitude":"51.520887","street":{"id":961309,"name":"On or near Vallance Road"},"longitude":"-0.064050"},"context":"","outcome_status":null,"persistent_id":"","id":74274096,"location_subtype":"","month":"2019-05"},{"category":"anti-social-behaviour","location_type":"Force","location":{"latitude":"51.533037","street":{"id":964349,"name":"On or near Teale Street"},"longitude":"-0.063578"},"context":"","outcome_status":null,"persistent_id":"","id":74274104,"location_subtype":"","month":"2019-05"},{"category":"anti-social-behaviour","location_type":"Force","location":{"latitude":"51.520887","street":{"id":961309,"name":"On or near Vallance Road"},"longitude":"-0.064050"},"context":"","outcome_status":null,"persistent_id":"","id":74274108,"location_subtype":"","month":"2019-05"},{"category":"anti-social-behaviour","location_type":"Force","location":{"latitude":"51.520887","street":{"id":961309,"name":"On or near Vallance Road"},"longitude":"-0.064050"},"context":"","outcome_status":null,"persistent_id":"","id":74274110,"location_subtype":"","month":"2019-05"},{"category":"anti-social-behaviour","location_type":"Force","location":{"latitude":"51.520887","street":{"id":961309,"name":"On or near Vallance Road"},"longitude":"-0.064050"},"context":"","outcome_status":null,"persistent_id":"","id":74274112,"location_subtype":"","month":"2019-05"},{"category":"anti-social-behaviour","location_type":"Force","location":{"latitude":"51.533037","street":{"id":964349,"name":"On or near Teale Street"},"longitude":"-0.063578"},"context":"","outcome_status":null,"persistent_id":"","id":74274120,"location_subtype":"","month":"2019-05"},{"category":"anti-social-behaviour","location_type":"Force","location":{"latitude":"51.526088","street":{"id":961305,"name":"On or near Voss Street"},"longitude":"-0.065300"},"context":"","outcome_status":null,"persistent_id":"","id":74274125,"location_subtype":"","month":"2019-05"},{"category":"anti-social-behaviour","location_type":"Force","location":{"latitude":"51.522046","street":{"id":961330,"name":"On or near Selby Street"},"longitude":"-0.064549"},"context":"","outcome_status":null,"persistent_id":"","id":74274126,"location_subtype":"","month":"2019-05"},{"category":"anti-social-behaviour","location_type":"Force","location":{"latitude":"51.519160","street":{"id":961554,"name":"On or near Regal Close"},"longitude":"-0.063994"},"context":"","outcome_status":null,"persistent_id":"","id":74274128,"location_subtype":"","month":"2019-05"},{"category":"anti-social-behaviour","location_type":"Force","location":{"latitude":"51.519160","street":{"id":961554,"name":"On or near Regal Close"},"longitude":"-0.063994"},"context":"","outcome_status":null,"persistent_id":"","id":74274129,"location_subtype":"","month":"2019-05"},{"category":"anti-social-behaviour","location_type":"Force","location":{"latitude":"51.531756","street":{"id":964341,"name":"On or near Garner Street"},"longitude":"-0.063834"},"context":"","outcome_status":null,"persistent_id":"","id":74274139,"location_subtype":"","month":"2019-05"},{"category":"anti-social-behaviour","location_type":"Force","location":{"latitude":"51.519160","street":{"id":961554,"name":"On or near Regal Close"},"longitude":"-0.063994"},"context":"","outcome_status":null,"persistent_id":"","id":74274140,"location_subtype":"","month":"2019-05"},{"category":"anti-social-behaviour","location_type":"Force","location":{"latitude":"51.527792","street":{"id":961358,"name":"On or near Ivimey Street"},"longitude":"-0.064478"},"context":"","outcome_status":null,"persistent_id":"","id":74274141,"location_subtype":"","month":"2019-05"},{"category":"anti-social-behaviour","location_type":"Force","location":{"latitude":"51.531756","street":{"id":964341,"name":"On or near Garner Street"},"longitude":"-0.063834"},"context":"","outcome_status":null,"persistent_id":"","id":74274142,"location_subtype":"","month":"2019-05"},{"category":"anti-social-behaviour","location_type":"Force","location":{"latitude":"51.531756","street":{"id":964341,"name":"On or near Garner Street"},"longitude":"-0.063834"},"context":"","outcome_status":null,"persistent_id":"","id":74274143,"location_subtype":"","month":"2019-05"},{"category":"anti-social-behaviour","location_type":"Force","location":{"latitude":"51.524745","street":{"id":961341,"name":"On or near Ramsey Street"},"longitude":"-0.065660"},"context":"","outcome_status":null,"persistent_id":"","id":74274155,"location_subtype":"","month":"2019-05"},{"category":"anti-social-behaviour","location_type":"Force","location":{"latitude":"51.527792","street":{"id":961358,"name":"On or near Ivimey Street"},"longitude":"-0.064478"},"context":"","outcome_status":null,"persistent_id":"","id":74274157,"location_subtype":"","month":"2019-05"},{"category":"anti-social-behaviour","location_type":"Force","location":{"latitude":"51.518686","street":{"id":961558,"name":"On or near Moss Close"},"longitude":"-0.065239"},"context":"","outcome_status":null,"persistent_id":"","id":74274161,"location_subtype":"","month":"2019-05"},{"category":"anti-social-behaviour","location_type":"Force","location":{"latitude":"51.532565","street":{"id":964352,"name":"On or near Kay Street"},"longitude":"-0.064924"},"context":"","outcome_status":null,"persistent_id":"","id":74274163,"location_subtype":"","month":"2019-05"},{"category":"anti-social-behaviour","location_type":"Force","location":{"latitude":"51.532565","street":{"id":964352,"name":"On or near Kay Street"},"longitude":"-0.064924"},"context":"","outcome_status":null,"persistent_id":"","id":74274164,"location_subtype":"","month":"2019-05"},{"category":"anti-social-behaviour","location_type":"Force","location":{"latitude":"51.521253","street":{"id":961310,"name":"On or near Underwood Road"},"longitude":"-0.066067"},"context":"","outcome_status":null,"persistent_id":"","id":74274170,"location_subtype":"","month":"2019-05"},{"category":"anti-social-behaviour","location_type":"Force","location":{"latitude":"51.531054","street":{"id":964338,"name":"On or near Ion Square"},"longitude":"-0.066574"},"context":"","outcome_status":null,"persistent_id":"","id":74274174,"location_subtype":"","month":"2019-05"},{"category":"anti-social-behaviour","location_type":"Force","location":{"latitude":"51.521253","street":{"id":961310,"name":"On or near Underwood Road"},"longitude":"-0.066067"},"context":"","outcome_status":null,"persistent_id":"","id":74274183,"location_subtype":"","month":"2019-05"},{"category":"anti-social-behaviour","location_type":"Force","location":{"latitude":"51.521253","street":{"id":961310,"name":"On or near Underwood Road"},"longitude":"-0.066067"},"context":"","outcome_status":null,"persistent_id":"","id":74274184,"location_subtype":"","month":"2019-05"},{"category":"anti-social-behaviour","location_type":"Force","location":{"latitude":"51.518325","street":{"id":961556,"name":"On or near Old Montague Street"},"longitude":"-0.066811"},"context":"","outcome_status":null,"persistent_id":"","id":74274186,"location_subtype":"","month":"2019-05"},{"category":"anti-social-behaviour","location_type":"Force","location":{"latitude":"51.518325","street":{"id":961556,"name":"On or near Old Montague Street"},"longitude":"-0.066811"},"context":"","outcome_status":null,"persistent_id":"","id":74274187,"location_subtype":"","month":"2019-05"},{"category":"anti-social-behaviour","location_type":"Force","location":{"latitude":"51.518325","street":{"id":961556,"name":"On or near Old Montague Street"},"longitude":"-0.066811"},"context":"","outcome_status":null,"persistent_id":"","id":74274188,"location_subtype":"","month":"2019-05"},{"category":"anti-social-behaviour","location_type":"Force","location":{"latitude":"51.518325","street":{"id":961556,"name":"On or near Old Montague Street"},"longitude":"-0.066811"},"context":"","outcome_status":null,"persistent_id":"","id":74274190,"location_subtype":"","month":"2019-05"},{"category":"anti-social-behaviour","location_type":"Force","location":{"latitude":"51.518325","street":{"id":961556,"name":"On or near Old Montague Street"},"longitude":"-0.066811"},"context":"","outcome_status":null,"persistent_id":"","id":74274191,"location_subtype":"","month":"2019-05"},{"category":"anti-social-behaviour","location_type":"Force","location":{"latitude":"51.518325","street":{"id":961556,"name":"On or near Old Montague Street"},"longitude":"-0.066811"},"context":"","outcome_status":null,"persistent_id":"","id":74274193,"location_subtype":"","month":"2019-05"},{"category":"anti-social-behaviour","location_type":"Force","location":{"latitude":"51.518325","street":{"id":961556,"name":"On or near Old Montague Street"},"longitude":"-0.066811"},"context":"","outcome_status":null,"persistent_id":"","id":74274194,"location_subtype":"","month":"2019-05"},{"category":"anti-social-behaviour","location_type":"Force","location":{"latitude":"51.519976","street":{"id":961569,"name":"On or near Coverley Close"},"longitude":"-0.066063"},"context":"","outcome_status":null,"persistent_id":"","id":74274201,"location_subtype":"","month":"2019-05"},{"category":"anti-social-behaviour","location_type":"Force","location":{"latitude":"51.519976","street":{"id":961569,"name":"On or near Coverley Close"},"longitude":"-0.066063"},"context":"","outcome_status":null,"persistent_id":"","id":74274202,"location_subtype":"","month":"2019-05"},{"category":"anti-social-behaviour","location_type":"Force","location":{"latitude":"51.526947","street":{"id":961312,"name":"On or near Turin Street"},"longitude":"-0.068334"},"context":"","outcome_status":null,"persistent_id":"","id":74274213,"location_subtype":"","month":"2019-05"},{"category":"anti-social-behaviour","location_type":"Force","location":{"latitude":"51.518463","street":{"id":961564,"name":"On or near Greatorex Street"},"longitude":"-0.067554"},"context":"","outcome_status":null,"persistent_id":"","id":74274214,"location_subtype":"","month":"2019-05"},{"category":"anti-social-behaviour","location_type":"Force","location":{"latitude":"51.521667","street":{"id":961396,"name":"On or near Buxton Street"},"longitude":"-0.067145"},"context":"","outcome_status":null,"persistent_id":"","id":74274224,"location_subtype":"","month":"2019-05"},{"category":"anti-social-behaviour","location_type":"Force","location":{"latitude":"51.521667","street":{"id":961396,"name":"On or near Buxton Street"},"longitude":"-0.067145"},"context":"","outcome_status":null,"persistent_id":"","id":74274225,"location_subtype":"","month":"2019-05"},{"category":"anti-social-behaviour","location_type":"Force","location":{"latitude":"51.521667","street":{"id":961396,"name":"On or near Buxton Street"},"longitude":"-0.067145"},"context":"","outcome_status":null,"persistent_id":"","id":74274226,"location_subtype":"","month":"2019-05"},{"category":"anti-social-behaviour","location_type":"Force","location":{"latitude":"51.521667","street":{"id":961396,"name":"On or near Buxton Street"},"longitude":"-0.067145"},"context":"","outcome_status":null,"persistent_id":"","id":74274227,"location_subtype":"","month":"2019-05"},{"category":"anti-social-behaviour","location_type":"Force","location":{"latitude":"51.518321","street":{"id":961573,"name":"On or near Casson Street"},"longitude":"-0.068238"},"context":"","outcome_status":null,"persistent_id":"","id":74274229,"location_subtype":"","month":"2019-05"},{"category":"anti-social-behaviour","location_type":"Force","location":{"latitude":"51.526947","street":{"id":961312,"name":"On or near Turin Street"},"longitude":"-0.068334"},"context":"","outcome_status":null,"persistent_id":"","id":74274234,"location_subtype":"","month":"2019-05"},{"category":"anti-social-behaviour","location_type":"Force","location":{"latitude":"51.526947","street":{"id":961312,"name":"On or near Turin Street"},"longitude":"-0.068334"},"context":"","outcome_status":null,"persistent_id":"","id":74274235,"location_subtype":"","month":"2019-05"},{"category":"anti-social-behaviour","location_type":"Force","location":{"latitude":"51.526947","street":{"id":961312,"name":"On or near Turin Street"},"longitude":"-0.068334"},"context":"","outcome_status":null,"persistent_id":"","id":74274236,"location_subtype":"","month":"2019-05"},{"category":"anti-social-behaviour","location_type":"Force","location":{"latitude":"51.526947","street":{"id":961312,"name":"On or near Turin Street"},"longitude":"-0.068334"},"context":"","outcome_status":null,"persistent_id":"","id":74274237,"location_subtype":"","month":"2019-05"},{"category":"anti-social-behaviour","location_type":"Force","location":{"latitude":"51.522504","street":{"id":961401,"name":"On or near Bratley Street"},"longitude":"-0.067744"},"context":"","outcome_status":null,"persistent_id":"","id":74274238,"location_subtype":"","month":"2019-05"},{"category":"anti-social-behaviour","location_type":"Force","location":{"latitude":"51.530711","street":{"id":961335,"name":"On or near Ropley Street"},"longitude":"-0.068117"},"context":"","outcome_status":null,"persistent_id":"","id":74274250,"location_subtype":"","month":"2019-05"},{"category":"anti-social-behaviour","location_type":"Force","location":{"latitude":"51.530711","street":{"id":961335,"name":"On or near Ropley Street"},"longitude":"-0.068117"},"context":"","outcome_status":null,"persistent_id":"","id":74274251,"location_subtype":"","month":"2019-05"},{"category":"anti-social-behaviour","location_type":"Force","location":{"latitude":"51.526947","street":{"id":961312,"name":"On or near Turin Street"},"longitude":"-0.068334"},"context":"","outcome_status":null,"persistent_id":"","id":74274255,"location_subtype":"","month":"2019-05"},{"category":"anti-social-behaviour","location_type":"Force","location":{"latitude":"51.519040","street":{"id":961553,"name":"On or near Spelman Street"},"longitude":"-0.069303"},"context":"","outcome_status":null,"persistent_id":"","id":74274256,"location_subtype":"","month":"2019-05"},{"category":"anti-social-behaviour","location_type":"Force","location":{"latitude":"51.524854","street":{"id":961371,"name":"On or near Goldman Close"},"longitude":"-0.068495"},"context":"","outcome_status":null,"persistent_id":"","id":74274260,"location_subtype":"","month":"2019-05"},{"category":"anti-social-behaviour","location_type":"Force","location":{"latitude":"51.520875","street":{"id":961359,"name":"On or near Hunton Street"},"longitude":"-0.068750"},"context":"","outcome_status":null,"persistent_id":"","id":74274263,"location_subtype":"","month":"2019-05"},{"category":"anti-social-behaviour","location_type":"Force","location":{"latitude":"51.523928","street":{"id":961357,"name":"On or near Kerbela Street"},"longitude":"-0.069010"},"context":"","outcome_status":null,"persistent_id":"","id":74274264,"location_subtype":"","month":"2019-05"},{"category":"anti-social-behaviour","location_type":"Force","location":{"latitude":"51.523928","street":{"id":961357,"name":"On or near Kerbela Street"},"longitude":"-0.069010"},"context":"","outcome_status":null,"persistent_id":"","id":74274266,"location_subtype":"","month":"2019-05"},{"category":"anti-social-behaviour","location_type":"Force","location":{"latitude":"51.518540","street":{"id":961571,"name":"On or near Chicksand Street"},"longitude":"-0.069497"},"context":"","outcome_status":null,"persistent_id":"","id":74274267,"location_subtype":"","month":"2019-05"},{"category":"anti-social-behaviour","location_type":"Force","location":{"latitude":"51.521065","street":{"id":961324,"name":"On or near Spital Street"},"longitude":"-0.069909"},"context":"","outcome_status":null,"persistent_id":"","id":74274276,"location_subtype":"","month":"2019-05"},{"category":"anti-social-behaviour","location_type":"Force","location":{"latitude":"51.521065","street":{"id":961324,"name":"On or near Spital Street"},"longitude":"-0.069909"},"context":"","outcome_status":null,"persistent_id":"","id":74274275,"location_subtype":"","month":"2019-05"},{"category":"anti-social-behaviour","location_type":"Force","location":{"latitude":"51.520143","street":{"id":961563,"name":"On or near Hanbury Street"},"longitude":"-0.069617"},"context":"","outcome_status":null,"persistent_id":"","id":74274278,"location_subtype":"","month":"2019-05"},{"category":"anti-social-behaviour","location_type":"Force","location":{"latitude":"51.525258","street":{"id":961367,"name":"On or near Granby Street"},"longitude":"-0.069530"},"context":"","outcome_status":null,"persistent_id":"","id":74274898,"location_subtype":"","month":"2019-05"},{"category":"anti-social-behaviour","location_type":"Force","location":{"latitude":"51.529159","street":{"id":961377,"name":"On or near Elwin Street"},"longitude":"-0.068889"},"context":"","outcome_status":null,"persistent_id":"","id":74274899,"location_subtype":"","month":"2019-05"},{"category":"anti-social-behaviour","location_type":"Force","location":{"latitude":"51.530340","street":{"id":961360,"name":"On or near Horatio Street"},"longitude":"-0.069603"},"context":"","outcome_status":null,"persistent_id":"","id":74274904,"location_subtype":"","month":"2019-05"},{"category":"anti-social-behaviour","location_type":"Force","location":{"latitude":"51.530053","street":{"id":961326,"name":"On or near Shipton Street"},"longitude":"-0.069673"},"context":"","outcome_status":null,"persistent_id":"","id":74274905,"location_subtype":"","month":"2019-05"},{"category":"anti-social-behaviour","location_type":"Force","location":{"latitude":"51.517616","street":{"id":956056,"name":"On or near Further\/higher Educational Building"},"longitude":"-0.070718"},"context":"","outcome_status":null,"persistent_id":"","id":74274910,"location_subtype":"","month":"2019-05"},{"category":"anti-social-behaviour","location_type":"Force","location":{"latitude":"51.517616","street":{"id":956056,"name":"On or near Further\/higher Educational Building"},"longitude":"-0.070718"},"context":"","outcome_status":null,"persistent_id":"","id":74274911,"location_subtype":"","month":"2019-05"},{"category":"anti-social-behaviour","location_type":"Force","location":{"latitude":"51.523207","street":{"id":961366,"name":"On or near Grimsby Street"},"longitude":"-0.070583"},"context":"","outcome_status":null,"persistent_id":"","id":74274918,"location_subtype":"","month":"2019-05"},{"category":"anti-social-behaviour","location_type":"Force","location":{"latitude":"51.527370","street":{"id":961394,"name":"On or near Chambord Street"},"longitude":"-0.072209"},"context":"","outcome_status":null,"persistent_id":"","id":74274919,"location_subtype":"","month":"2019-05"},{"category":"anti-social-behaviour","location_type":"Force","location":{"latitude":"51.522276","street":{"id":961390,"name":"On or near Code Street"},"longitude":"-0.070867"},"context":"","outcome_status":null,"persistent_id":"","id":74274922,"location_subtype":"","month":"2019-05"},{"category":"anti-social-behaviour","location_type":"Force","location":{"latitude":"51.522276","street":{"id":961390,"name":"On or near Code Street"},"longitude":"-0.070867"},"context":"","outcome_status":null,"persistent_id":"","id":74274923,"location_subtype":"","month":"2019-05"},{"category":"anti-social-behaviour","location_type":"Force","location":{"latitude":"51.519777","street":{"id":961555,"name":"On or near Princelet Street"},"longitude":"-0.071420"},"context":"","outcome_status":null,"persistent_id":"","id":74274926,"location_subtype":"","month":"2019-05"},{"category":"anti-social-behaviour","location_type":"Force","location":{"latitude":"51.518249","street":{"id":961577,"name":"On or near Police Station"},"longitude":"-0.071484"},"context":"","outcome_status":null,"persistent_id":"","id":74274928,"location_subtype":"","month":"2019-05"},{"category":"anti-social-behaviour","location_type":"Force","location":{"latitude":"51.518249","street":{"id":961577,"name":"On or near Police Station"},"longitude":"-0.071484"},"context":"","outcome_status":null,"persistent_id":"","id":74274930,"location_subtype":"","month":"2019-05"},{"category":"anti-social-behaviour","location_type":"Force","location":{"latitude":"51.518249","street":{"id":961577,"name":"On or near Police Station"},"longitude":"-0.071484"},"context":"","outcome_status":null,"persistent_id":"","id":74274929,"location_subtype":"","month":"2019-05"},{"category":"anti-social-behaviour","location_type":"Force","location":{"latitude":"51.523501","street":{"id":961398,"name":"On or near Brick Lane"},"longitude":"-0.071478"},"context":"","outcome_status":null,"persistent_id":"","id":74274933,"location_subtype":"","month":"2019-05"},{"category":"anti-social-behaviour","location_type":"Force","location":{"latitude":"51.526333","street":{"id":961314,"name":"On or near Tomlinson Close"},"longitude":"-0.071460"},"context":"","outcome_status":null,"persistent_id":"","id":74274934,"location_subtype":"","month":"2019-05"},{"category":"anti-social-behaviour","location_type":"Force","location":{"latitude":"51.526333","street":{"id":961314,"name":"On or near Tomlinson Close"},"longitude":"-0.071460"},"context":"","outcome_status":null,"persistent_id":"","id":74274935,"location_subtype":"","month":"2019-05"},{"category":"anti-social-behaviour","location_type":"Force","location":{"latitude":"51.526333","street":{"id":961314,"name":"On or near Tomlinson Close"},"longitude":"-0.071460"},"context":"","outcome_status":null,"persistent_id":"","id":74274936,"location_subtype":"","month":"2019-05"},{"category":"anti-social-behaviour","location_type":"Force","location":{"latitude":"51.526333","street":{"id":961314,"name":"On or near Tomlinson Close"},"longitude":"-0.071460"},"context":"","outcome_status":null,"persistent_id":"","id":74274937,"location_subtype":"","month":"2019-05"},{"category":"anti-social-behaviour","location_type":"Force","location":{"latitude":"51.521712","street":{"id":961411,"name":"On or near Nightclub"},"longitude":"-0.071525"},"context":"","outcome_status":null,"persistent_id":"","id":74274938,"location_subtype":"","month":"2019-05"},{"category":"anti-social-behaviour","location_type":"Force","location":{"latitude":"51.519640","street":{"id":961574,"name":"On or near Brick Lane"},"longitude":"-0.071843"},"context":"","outcome_status":null,"persistent_id":"","id":74274939,"location_subtype":"","month":"2019-05"},{"category":"anti-social-behaviour","location_type":"Force","location":{"latitude":"51.519640","street":{"id":961574,"name":"On or near Brick Lane"},"longitude":"-0.071843"},"context":"","outcome_status":null,"persistent_id":"","id":74274940,"location_subtype":"","month":"2019-05"},{"category":"anti-social-behaviour","location_type":"Force","location":{"latitude":"51.519640","street":{"id":961574,"name":"On or near Brick Lane"},"longitude":"-0.071843"},"context":"","outcome_status":null,"persistent_id":"","id":74274941,"location_subtype":"","month":"2019-05"},{"category":"anti-social-behaviour","location_type":"Force","location":{"latitude":"51.530320","street":{"id":961395,"name":"On or near Cadell Close"},"longitude":"-0.070585"},"context":"","outcome_status":null,"persistent_id":"","id":74274944,"location_subtype":"","month":"2019-05"},{"category":"anti-social-behaviour","location_type":"Force","location":{"latitude":"51.530320","street":{"id":961395,"name":"On or near Cadell Close"},"longitude":"-0.070585"},"context":"","outcome_status":null,"persistent_id":"","id":74274945,"location_subtype":"","month":"2019-05"},{"category":"anti-social-behaviour","location_type":"Force","location":{"latitude":"51.530320","street":{"id":961395,"name":"On or near Cadell Close"},"longitude":"-0.070585"},"context":"","outcome_status":null,"persistent_id":"","id":74274946,"location_subtype":"","month":"2019-05"},{"category":"anti-social-behaviour","location_type":"Force","location":{"latitude":"51.530320","street":{"id":961395,"name":"On or near Cadell Close"},"longitude":"-0.070585"},"context":"","outcome_status":null,"persistent_id":"","id":74274947,"location_subtype":"","month":"2019-05"},{"category":"anti-social-behaviour","location_type":"Force","location":{"latitude":"51.517668","street":{"id":961552,"name":"On or near Thrawl Street"},"longitude":"-0.072806"},"context":"","outcome_status":null,"persistent_id":"","id":74274948,"location_subtype":"","month":"2019-05"},{"category":"anti-social-behaviour","location_type":"Force","location":{"latitude":"51.527370","street":{"id":961394,"name":"On or near Chambord Street"},"longitude":"-0.072209"},"context":"","outcome_status":null,"persistent_id":"","id":74274949,"location_subtype":"","month":"2019-05"},{"category":"anti-social-behaviour","location_type":"Force","location":{"latitude":"51.518443","street":{"id":961566,"name":"On or near Fashion Street"},"longitude":"-0.072917"},"context":"","outcome_status":null,"persistent_id":"","id":74274951,"location_subtype":"","month":"2019-05"},{"category":"anti-social-behaviour","location_type":"Force","location":{"latitude":"51.518443","street":{"id":961566,"name":"On or near Fashion Street"},"longitude":"-0.072917"},"context":"","outcome_status":null,"persistent_id":"","id":74274953,"location_subtype":"","month":"2019-05"},{"category":"anti-social-behaviour","location_type":"Force","location":{"latitude":"51.527177","street":{"id":961356,"name":"On or near Kirton Gardens"},"longitude":"-0.071957"},"context":"","outcome_status":null,"persistent_id":"","id":74274954,"location_subtype":"","month":"2019-05"},{"category":"anti-social-behaviour","location_type":"Force","location":{"latitude":"51.527177","street":{"id":961356,"name":"On or near Kirton Gardens"},"longitude":"-0.071957"},"context":"","outcome_status":null,"persistent_id":"","id":74274955,"location_subtype":"","month":"2019-05"},{"category":"anti-social-behaviour","location_type":"Force","location":{"latitude":"51.527370","street":{"id":961394,"name":"On or near Chambord Street"},"longitude":"-0.072209"},"context":"","outcome_status":null,"persistent_id":"","id":74274956,"location_subtype":"","month":"2019-05"},{"category":"anti-social-behaviour","location_type":"Force","location":{"latitude":"51.527370","street":{"id":961394,"name":"On or near Chambord Street"},"longitude":"-0.072209"},"context":"","outcome_status":null,"persistent_id":"","id":74274957,"location_subtype":"","month":"2019-05"},{"category":"anti-social-behaviour","location_type":"Force","location":{"latitude":"51.523809","street":{"id":961386,"name":"On or near Cygnet Street"},"longitude":"-0.072734"},"context":"","outcome_status":null,"persistent_id":"","id":74274963,"location_subtype":"","month":"2019-05"},{"category":"anti-social-behaviour","location_type":"Force","location":{"latitude":"51.519275","street":{"id":961565,"name":"On or near Fournier Street"},"longitude":"-0.073156"},"context":"","outcome_status":null,"persistent_id":"","id":74274964,"location_subtype":"","month":"2019-05"},{"category":"anti-social-behaviour","location_type":"Force","location":{"latitude":"51.519275","street":{"id":961565,"name":"On or near Fournier Street"},"longitude":"-0.073156"},"context":"","outcome_status":null,"persistent_id":"","id":74274965,"location_subtype":"","month":"2019-05"},{"category":"anti-social-behaviour","location_type":"Force","location":{"latitude":"51.517955","street":{"id":961560,"name":"On or near Lolesworth Close"},"longitude":"-0.073831"},"context":"","outcome_status":null,"persistent_id":"","id":74274971,"location_subtype":"","month":"2019-05"},{"category":"anti-social-behaviour","location_type":"Force","location":{"latitude":"51.517955","street":{"id":961560,"name":"On or near Lolesworth Close"},"longitude":"-0.073831"},"context":"","outcome_status":null,"persistent_id":"","id":74274972,"location_subtype":"","month":"2019-05"},{"category":"anti-social-behaviour","location_type":"Force","location":{"latitude":"51.517955","street":{"id":961560,"name":"On or near Lolesworth Close"},"longitude":"-0.073831"},"context":"","outcome_status":null,"persistent_id":"","id":74274973,"location_subtype":"","month":"2019-05"},{"category":"anti-social-behaviour","location_type":"Force","location":{"latitude":"51.517604","street":{"id":956033,"name":"On or near Toynbee Street"},"longitude":"-0.074394"},"context":"","outcome_status":null,"persistent_id":"","id":74274975,"location_subtype":"","month":"2019-05"},{"category":"anti-social-behaviour","location_type":"Force","location":{"latitude":"51.529747","street":{"id":961381,"name":"On or near Diss Street"},"longitude":"-0.073449"},"context":"","outcome_status":null,"persistent_id":"","id":74274976,"location_subtype":"","month":"2019-05"},{"category":"anti-social-behaviour","location_type":"Force","location":{"latitude":"51.525452","street":{"id":961351,"name":"On or near Montclare Street"},"longitude":"-0.073674"},"context":"","outcome_status":null,"persistent_id":"","id":74274977,"location_subtype":"","month":"2019-05"},{"category":"anti-social-behaviour","location_type":"Force","location":{"latitude":"51.525452","street":{"id":961351,"name":"On or near Montclare Street"},"longitude":"-0.073674"},"context":"","outcome_status":null,"persistent_id":"","id":74274978,"location_subtype":"","month":"2019-05"},{"category":"anti-social-behaviour","location_type":"Force","location":{"latitude":"51.524775","street":{"id":961311,"name":"On or near Turville Street"},"longitude":"-0.073500"},"context":"","outcome_status":null,"persistent_id":"","id":74274979,"location_subtype":"","month":"2019-05"},{"category":"anti-social-behaviour","location_type":"Force","location":{"latitude":"51.524775","street":{"id":961311,"name":"On or near Turville Street"},"longitude":"-0.073500"},"context":"","outcome_status":null,"persistent_id":"","id":74274980,"location_subtype":"","month":"2019-05"},{"category":"anti-social-behaviour","location_type":"Force","location":{"latitude":"51.525931","street":{"id":961336,"name":"On or near Rochelle Street"},"longitude":"-0.073826"},"context":"","outcome_status":null,"persistent_id":"","id":74274981,"location_subtype":"","month":"2019-05"},{"category":"anti-social-behaviour","location_type":"Force","location":{"latitude":"51.522156","street":{"id":961343,"name":"On or near Quaker Street"},"longitude":"-0.073943"},"context":"","outcome_status":null,"persistent_id":"","id":74274982,"location_subtype":"","month":"2019-05"},{"category":"anti-social-behaviour","location_type":"Force","location":{"latitude":"51.522156","street":{"id":961343,"name":"On or near Quaker Street"},"longitude":"-0.073943"},"context":"","outcome_status":null,"persistent_id":"","id":74274983,"location_subtype":"","month":"2019-05"},{"category":"anti-social-behaviour","location_type":"Force","location":{"latitude":"51.521554","street":{"id":961502,"name":"On or near Calvin Street"},"longitude":"-0.074501"},"context":"","outcome_status":null,"persistent_id":"","id":74274985,"location_subtype":"","month":"2019-05"},{"category":"anti-social-behaviour","location_type":"Force","location":{"latitude":"51.526249","street":{"id":961515,"name":"On or near Arnold Circus"},"longitude":"-0.074592"},"context":"","outcome_status":null,"persistent_id":"","id":74274986,"location_subtype":"","month":"2019-05"},{"category":"anti-social-behaviour","location_type":"Force","location":{"latitude":"51.526658","street":{"id":961470,"name":"On or near Hocker Street"},"longitude":"-0.074848"},"context":"","outcome_status":null,"persistent_id":"","id":74274987,"location_subtype":"","month":"2019-05"},{"category":"anti-social-behaviour","location_type":"Force","location":{"latitude":"51.526658","street":{"id":961470,"name":"On or near Hocker Street"},"longitude":"-0.074848"},"context":"","outcome_status":null,"persistent_id":"","id":74274989,"location_subtype":"","month":"2019-05"},{"category":"anti-social-behaviour","location_type":"Force","location":{"latitude":"51.524848","street":{"id":961448,"name":"On or near Old Nichol Street"},"longitude":"-0.074679"},"context":"","outcome_status":null,"persistent_id":"","id":74274990,"location_subtype":"","month":"2019-05"},{"category":"anti-social-behaviour","location_type":"Force","location":{"latitude":"51.524848","street":{"id":961448,"name":"On or near Old Nichol Street"},"longitude":"-0.074679"},"context":"","outcome_status":null,"persistent_id":"","id":74274991,"location_subtype":"","month":"2019-05"},{"category":"anti-social-behaviour","location_type":"Force","location":{"latitude":"51.524848","street":{"id":961448,"name":"On or near Old Nichol Street"},"longitude":"-0.074679"},"context":"","outcome_status":null,"persistent_id":"","id":74274993,"location_subtype":"","month":"2019-05"},{"category":"anti-social-behaviour","location_type":"Force","location":{"latitude":"51.524848","street":{"id":961448,"name":"On or near Old Nichol Street"},"longitude":"-0.074679"},"context":"","outcome_status":null,"persistent_id":"","id":74274994,"location_subtype":"","month":"2019-05"},{"category":"anti-social-behaviour","location_type":"Force","location":{"latitude":"51.521554","street":{"id":961502,"name":"On or near Calvin Street"},"longitude":"-0.074501"},"context":"","outcome_status":null,"persistent_id":"","id":74274997,"location_subtype":"","month":"2019-05"},{"category":"anti-social-behaviour","location_type":"Force","location":{"latitude":"51.526658","street":{"id":961470,"name":"On or near Hocker Street"},"longitude":"-0.074848"},"context":"","outcome_status":null,"persistent_id":"","id":74275000,"location_subtype":"","month":"2019-05"},{"category":"anti-social-behaviour","location_type":"Force","location":{"latitude":"51.518268","street":{"id":961531,"name":"On or near White's Row"},"longitude":"-0.075404"},"context":"","outcome_status":null,"persistent_id":"","id":74275001,"location_subtype":"","month":"2019-05"},{"category":"anti-social-behaviour","location_type":"Force","location":{"latitude":"51.517916","street":{"id":961541,"name":"On or near Brune Street"},"longitude":"-0.075318"},"context":"","outcome_status":null,"persistent_id":"","id":74275002,"location_subtype":"","month":"2019-05"},{"category":"anti-social-behaviour","location_type":"Force","location":{"latitude":"51.526658","street":{"id":961470,"name":"On or near Hocker Street"},"longitude":"-0.074848"},"context":"","outcome_status":null,"persistent_id":"","id":74275003,"location_subtype":"","month":"2019-05"},{"category":"anti-social-behaviour","location_type":"Force","location":{"latitude":"51.527707","street":{"id":961372,"name":"On or near Gascoigne Place"},"longitude":"-0.074069"},"context":"","outcome_status":null,"persistent_id":"","id":74275005,"location_subtype":"","month":"2019-05"},{"category":"anti-social-behaviour","location_type":"Force","location":{"latitude":"51.521124","street":{"id":961462,"name":"On or near Jerome Street"},"longitude":"-0.074591"},"context":"","outcome_status":null,"persistent_id":"","id":74275006,"location_subtype":"","month":"2019-05"},{"category":"anti-social-behaviour","location_type":"Force","location":{"latitude":"51.521124","street":{"id":961462,"name":"On or near Jerome Street"},"longitude":"-0.074591"},"context":"","outcome_status":null,"persistent_id":"","id":74275008,"location_subtype":"","month":"2019-05"},{"category":"anti-social-behaviour","location_type":"Force","location":{"latitude":"51.521124","street":{"id":961462,"name":"On or near Jerome Street"},"longitude":"-0.074591"},"context":"","outcome_status":null,"persistent_id":"","id":74275009,"location_subtype":"","month":"2019-05"},{"category":"anti-social-behaviour","location_type":"Force","location":{"latitude":"51.521124","street":{"id":961462,"name":"On or near Jerome Street"},"longitude":"-0.074591"},"context":"","outcome_status":null,"persistent_id":"","id":74275010,"location_subtype":"","month":"2019-05"},{"category":"anti-social-behaviour","location_type":"Force","location":{"latitude":"51.520218","street":{"id":961537,"name":"On or near Lamb Street"},"longitude":"-0.075307"},"context":"","outcome_status":null,"persistent_id":"","id":74275013,"location_subtype":"","month":"2019-05"},{"category":"anti-social-behaviour","location_type":"Force","location":{"latitude":"51.520218","street":{"id":961537,"name":"On or near Lamb Street"},"longitude":"-0.075307"},"context":"","outcome_status":null,"persistent_id":"","id":74275014,"location_subtype":"","month":"2019-05"},{"category":"anti-social-behaviour","location_type":"Force","location":{"latitude":"51.520218","street":{"id":961537,"name":"On or near Lamb Street"},"longitude":"-0.075307"},"context":"","outcome_status":null,"persistent_id":"","id":74275015,"location_subtype":"","month":"2019-05"},{"category":"anti-social-behaviour","location_type":"Force","location":{"latitude":"51.520474","street":{"id":961532,"name":"On or near Wheeler Lane"},"longitude":"-0.075556"},"context":"","outcome_status":null,"persistent_id":"","id":74275016,"location_subtype":"","month":"2019-05"},{"category":"anti-social-behaviour","location_type":"Force","location":{"latitude":"51.524235","street":{"id":961419,"name":"On or near Chance Street"},"longitude":"-0.075109"},"context":"","outcome_status":null,"persistent_id":"","id":74275019,"location_subtype":"","month":"2019-05"},{"category":"anti-social-behaviour","location_type":"Force","location":{"latitude":"51.524235","street":{"id":961419,"name":"On or near Chance Street"},"longitude":"-0.075109"},"context":"","outcome_status":null,"persistent_id":"","id":74275021,"location_subtype":"","month":"2019-05"},{"category":"anti-social-behaviour","location_type":"Force","location":{"latitude":"51.525290","street":{"id":961501,"name":"On or near Camlet Street"},"longitude":"-0.075295"},"context":"","outcome_status":null,"persistent_id":"","id":74275023,"location_subtype":"","month":"2019-05"},{"category":"anti-social-behaviour","location_type":"Force","location":{"latitude":"51.527120","street":{"id":961512,"name":"On or near Austin Street"},"longitude":"-0.076155"},