[{"category":"anti-social-behaviour","location_type":"Force","location":{"latitude":"51.537512","street":{"id":964249,"name":"On or near Acton Mews"},"longitude":"-0.075948"},"context":"","outcome_status":null,"persistent_id":"","id":74279332,"location_subtype":"","month":"2019-05"},{"category":"anti-social-behaviour","location_type":"Force","location":{"latitude":"51.548440","street":{"id":968588,"name":"On or near Bradbury Street"},"longitude":"-0.076020"},"context":"","outcome_status":null,"persistent_id":"","id":74279333,"location_subtype":"","month":"2019-05"},{"category":"anti-social-behaviour","location_type":"Force","location":{"latitude":"51.548440","street":{"id":968588,"name":"On or near Bradbury Street"},"longitude":"-0.076020"},"context":"","outcome_status":null,"persistent_id":"","id":74279334,"location_subtype":"","month":"2019-05"},{"category":"anti-social-behaviour","location_type":"Force","location":{"latitude":"51.548440","street":{"id":968588,"name":"On or near Bradbury Street"},"longitude":"-0.076020"},"context":"","outcome_status":null,"persistent_id":"","id":74279335,"location_subtype":"","month":"2019-05"},{"category":"anti-social-behaviour","location_type":"Force","location":{"latitude":"51.548440","street":{"id":968588,"name":"On or near Bradbury Street"},"longitude":"-0.076020"},"context":"","outcome_status":null,"persistent_id":"","id":74279336,"location_subtype":"","month":"2019-05"},{"category":"anti-social-behaviour","location_type":"Force","location":{"latitude":"51.530094","street":{"id":961439,"name":"On or near Redvers Street"},"longitude":"-0.077616"},"context":"","outcome_status":null,"persistent_id":"","id":74279339,"location_subtype":"","month":"2019-05"},{"category":"anti-social-behaviour","location_type":"Force","location":{"latitude":"51.530094","street":{"id":961439,"name":"On or near Redvers Street"},"longitude":"-0.077616"},"context":"","outcome_status":null,"persistent_id":"","id":74279340,"location_subtype":"","month":"2019-05"},{"category":"anti-social-behaviour","location_type":"Force","location":{"latitude":"51.549059","street":{"id":968571,"name":"On or near Parking Area"},"longitude":"-0.076499"},"context":"","outcome_status":null,"persistent_id":"","id":74279341,"location_subtype":"","month":"2019-05"},{"category":"anti-social-behaviour","location_type":"Force","location":{"latitude":"51.551013","street":{"id":968625,"name":"On or near Millard Close"},"longitude":"-0.077743"},"context":"","outcome_status":null,"persistent_id":"","id":74279343,"location_subtype":"","month":"2019-05"},{"category":"anti-social-behaviour","location_type":"Force","location":{"latitude":"51.549085","street":{"id":968577,"name":"On or near Mildmay Place"},"longitude":"-0.077551"},"context":"","outcome_status":null,"persistent_id":"","id":74279344,"location_subtype":"","month":"2019-05"},{"category":"anti-social-behaviour","location_type":"Force","location":{"latitude":"51.529227","street":{"id":961510,"name":"On or near Basing Place"},"longitude":"-0.077969"},"context":"","outcome_status":null,"persistent_id":"","id":74279345,"location_subtype":"","month":"2019-05"},{"category":"anti-social-behaviour","location_type":"Force","location":{"latitude":"51.552906","street":{"id":968616,"name":"On or near Princess May Road"},"longitude":"-0.076971"},"context":"","outcome_status":null,"persistent_id":"","id":74279346,"location_subtype":"","month":"2019-05"},{"category":"anti-social-behaviour","location_type":"Force","location":{"latitude":"51.525486","street":{"id":961479,"name":"On or near French Place"},"longitude":"-0.078487"},"context":"","outcome_status":null,"persistent_id":"","id":74279349,"location_subtype":"","month":"2019-05"},{"category":"anti-social-behaviour","location_type":"Force","location":{"latitude":"51.545648","street":{"id":968656,"name":"On or near Parking Area"},"longitude":"-0.077970"},"context":"","outcome_status":null,"persistent_id":"","id":74279350,"location_subtype":"","month":"2019-05"},{"category":"anti-social-behaviour","location_type":"Force","location":{"latitude":"51.545648","street":{"id":968656,"name":"On or near Parking Area"},"longitude":"-0.077970"},"context":"","outcome_status":null,"persistent_id":"","id":74279351,"location_subtype":"","month":"2019-05"},{"category":"anti-social-behaviour","location_type":"Force","location":{"latitude":"51.530974","street":{"id":961461,"name":"On or near Jerrold Street"},"longitude":"-0.078617"},"context":"","outcome_status":null,"persistent_id":"","id":74279352,"location_subtype":"","month":"2019-05"},{"category":"anti-social-behaviour","location_type":"Force","location":{"latitude":"51.545648","street":{"id":968656,"name":"On or near Parking Area"},"longitude":"-0.077970"},"context":"","outcome_status":null,"persistent_id":"","id":74279360,"location_subtype":"","month":"2019-05"},{"category":"anti-social-behaviour","location_type":"Force","location":{"latitude":"51.540546","street":{"id":964231,"name":"On or near Hertford Road"},"longitude":"-0.078329"},"context":"","outcome_status":null,"persistent_id":"","id":74279361,"location_subtype":"","month":"2019-05"},{"category":"anti-social-behaviour","location_type":"Force","location":{"latitude":"51.535996","street":{"id":964217,"name":"On or near Mill Row"},"longitude":"-0.078347"},"context":"","outcome_status":null,"persistent_id":"","id":74279362,"location_subtype":"","month":"2019-05"},{"category":"anti-social-behaviour","location_type":"Force","location":{"latitude":"51.524498","street":{"id":961452,"name":"On or near New Inn Yard"},"longitude":"-0.079105"},"context":"","outcome_status":null,"persistent_id":"","id":74279363,"location_subtype":"","month":"2019-05"},{"category":"anti-social-behaviour","location_type":"Force","location":{"latitude":"51.524498","street":{"id":961452,"name":"On or near New Inn Yard"},"longitude":"-0.079105"},"context":"","outcome_status":null,"persistent_id":"","id":74279364,"location_subtype":"","month":"2019-05"},{"category":"anti-social-behaviour","location_type":"Force","location":{"latitude":"51.524498","street":{"id":961452,"name":"On or near New Inn Yard"},"longitude":"-0.079105"},"context":"","outcome_status":null,"persistent_id":"","id":74279365,"location_subtype":"","month":"2019-05"},{"category":"anti-social-behaviour","location_type":"Force","location":{"latitude":"51.524498","street":{"id":961452,"name":"On or near New Inn Yard"},"longitude":"-0.079105"},"context":"","outcome_status":null,"persistent_id":"","id":74279366,"location_subtype":"","month":"2019-05"},{"category":"anti-social-behaviour","location_type":"Force","location":{"latitude":"51.527996","street":{"id":961487,"name":"On or near Drysdale Street"},"longitude":"-0.079117"},"context":"","outcome_status":null,"persistent_id":"","id":74279367,"location_subtype":"","month":"2019-05"},{"category":"anti-social-behaviour","location_type":"Force","location":{"latitude":"51.534438","street":{"id":964213,"name":"On or near Nuttall Street"},"longitude":"-0.078745"},"context":"","outcome_status":null,"persistent_id":"","id":74279369,"location_subtype":"","month":"2019-05"},{"category":"anti-social-behaviour","location_type":"Force","location":{"latitude":"51.539439","street":{"id":964205,"name":"On or near Watercress Place"},"longitude":"-0.078837"},"context":"","outcome_status":null,"persistent_id":"","id":74279370,"location_subtype":"","month":"2019-05"},{"category":"anti-social-behaviour","location_type":"Force","location":{"latitude":"51.539439","street":{"id":964205,"name":"On or near Watercress Place"},"longitude":"-0.078837"},"context":"","outcome_status":null,"persistent_id":"","id":74279371,"location_subtype":"","month":"2019-05"},{"category":"anti-social-behaviour","location_type":"Force","location":{"latitude":"51.530974","street":{"id":961461,"name":"On or near Jerrold Street"},"longitude":"-0.078617"},"context":"","outcome_status":null,"persistent_id":"","id":74279372,"location_subtype":"","month":"2019-05"},{"category":"anti-social-behaviour","location_type":"Force","location":{"latitude":"51.528099","street":{"id":961488,"name":"On or near Drysdale Place"},"longitude":"-0.079329"},"context":"","outcome_status":null,"persistent_id":"","id":74279373,"location_subtype":"","month":"2019-05"},{"category":"anti-social-behaviour","location_type":"Force","location":{"latitude":"51.524692","street":{"id":961454,"name":"On or near New Inn Broadway"},"longitude":"-0.079429"},"context":"","outcome_status":null,"persistent_id":"","id":74279375,"location_subtype":"","month":"2019-05"},{"category":"anti-social-behaviour","location_type":"Force","location":{"latitude":"51.524692","street":{"id":961454,"name":"On or near New Inn Broadway"},"longitude":"-0.079429"},"context":"","outcome_status":null,"persistent_id":"","id":74279376,"location_subtype":"","month":"2019-05"},{"category":"anti-social-behaviour","location_type":"Force","location":{"latitude":"51.535539","street":{"id":964211,"name":"On or near Phillipp Street"},"longitude":"-0.079520"},"context":"","outcome_status":null,"persistent_id":"","id":74279377,"location_subtype":"","month":"2019-05"},{"category":"anti-social-behaviour","location_type":"Force","location":{"latitude":"51.527164","street":{"id":961523,"name":"On or near Nightclub"},"longitude":"-0.080478"},"context":"","outcome_status":null,"persistent_id":"","id":74279378,"location_subtype":"","month":"2019-05"},{"category":"anti-social-behaviour","location_type":"Force","location":{"latitude":"51.535539","street":{"id":964211,"name":"On or near Phillipp Street"},"longitude":"-0.079520"},"context":"","outcome_status":null,"persistent_id":"","id":74279379,"location_subtype":"","month":"2019-05"},{"category":"anti-social-behaviour","location_type":"Force","location":{"latitude":"51.535539","street":{"id":964211,"name":"On or near Phillipp Street"},"longitude":"-0.079520"},"context":"","outcome_status":null,"persistent_id":"","id":74279380,"location_subtype":"","month":"2019-05"},{"category":"anti-social-behaviour","location_type":"Force","location":{"latitude":"51.535539","street":{"id":964211,"name":"On or near Phillipp Street"},"longitude":"-0.079520"},"context":"","outcome_status":null,"persistent_id":"","id":74279381,"location_subtype":"","month":"2019-05"},{"category":"anti-social-behaviour","location_type":"Force","location":{"latitude":"51.539439","street":{"id":964205,"name":"On or near Watercress Place"},"longitude":"-0.078837"},"context":"","outcome_status":null,"persistent_id":"","id":74279383,"location_subtype":"","month":"2019-05"},{"category":"anti-social-behaviour","location_type":"Force","location":{"latitude":"51.532439","street":{"id":964355,"name":"On or near Tyssen Street"},"longitude":"-0.079708"},"context":"","outcome_status":null,"persistent_id":"","id":74279384,"location_subtype":"","month":"2019-05"},{"category":"anti-social-behaviour","location_type":"Force","location":{"latitude":"51.532439","street":{"id":964355,"name":"On or near Tyssen Street"},"longitude":"-0.079708"},"context":"","outcome_status":null,"persistent_id":"","id":74279385,"location_subtype":"","month":"2019-05"},{"category":"anti-social-behaviour","location_type":"Force","location":{"latitude":"51.546352","street":{"id":968670,"name":"On or near Balls Pond Road"},"longitude":"-0.079772"},"context":"","outcome_status":null,"persistent_id":"","id":74279386,"location_subtype":"","month":"2019-05"},{"category":"anti-social-behaviour","location_type":"Force","location":{"latitude":"51.527164","street":{"id":961523,"name":"On or near Nightclub"},"longitude":"-0.080478"},"context":"","outcome_status":null,"persistent_id":"","id":74279387,"location_subtype":"","month":"2019-05"},{"category":"anti-social-behaviour","location_type":"Force","location":{"latitude":"51.527164","street":{"id":961523,"name":"On or near Nightclub"},"longitude":"-0.080478"},"context":"","outcome_status":null,"persistent_id":"","id":74279388,"location_subtype":"","month":"2019-05"},{"category":"anti-social-behaviour","location_type":"Force","location":{"latitude":"51.527164","street":{"id":961523,"name":"On or near Nightclub"},"longitude":"-0.080478"},"context":"","outcome_status":null,"persistent_id":"","id":74279389,"location_subtype":"","month":"2019-05"},{"category":"anti-social-behaviour","location_type":"Force","location":{"latitude":"51.527164","street":{"id":961523,"name":"On or near Nightclub"},"longitude":"-0.080478"},"context":"","outcome_status":null,"persistent_id":"","id":74279390,"location_subtype":"","month":"2019-05"},{"category":"anti-social-behaviour","location_type":"Force","location":{"latitude":"51.535051","street":{"id":964203,"name":"On or near Wilmer Gardens"},"longitude":"-0.079930"},"context":"","outcome_status":null,"persistent_id":"","id":74279391,"location_subtype":"","month":"2019-05"},{"category":"anti-social-behaviour","location_type":"Force","location":{"latitude":"51.535051","street":{"id":964203,"name":"On or near Wilmer Gardens"},"longitude":"-0.079930"},"context":"","outcome_status":null,"persistent_id":"","id":74279392,"location_subtype":"","month":"2019-05"},{"category":"anti-social-behaviour","location_type":"Force","location":{"latitude":"51.534164","street":{"id":964233,"name":"On or near Hamond Square"},"longitude":"-0.080688"},"context":"","outcome_status":null,"persistent_id":"","id":74279393,"location_subtype":"","month":"2019-05"},{"category":"anti-social-behaviour","location_type":"Force","location":{"latitude":"51.534164","street":{"id":964233,"name":"On or near Hamond Square"},"longitude":"-0.080688"},"context":"","outcome_status":null,"persistent_id":"","id":74279394,"location_subtype":"","month":"2019-05"},{"category":"anti-social-behaviour","location_type":"Force","location":{"latitude":"51.535539","street":{"id":964211,"name":"On or near Phillipp Street"},"longitude":"-0.079520"},"context":"","outcome_status":null,"persistent_id":"","id":74279395,"location_subtype":"","month":"2019-05"},{"category":"anti-social-behaviour","location_type":"Force","location":{"latitude":"51.535539","street":{"id":964211,"name":"On or near Phillipp Street"},"longitude":"-0.079520"},"context":"","outcome_status":null,"persistent_id":"","id":74279396,"location_subtype":"","month":"2019-05"},{"category":"anti-social-behaviour","location_type":"Force","location":{"latitude":"51.526108","street":{"id":961436,"name":"On or near Rivington Street"},"longitude":"-0.080782"},"context":"","outcome_status":null,"persistent_id":"","id":74279398,"location_subtype":"","month":"2019-05"},{"category":"anti-social-behaviour","location_type":"Force","location":{"latitude":"51.525515","street":{"id":961458,"name":"On or near Mills Court"},"longitude":"-0.080807"},"context":"","outcome_status":null,"persistent_id":"","id":74279400,"location_subtype":"","month":"2019-05"},{"category":"anti-social-behaviour","location_type":"Force","location":{"latitude":"51.525515","street":{"id":961458,"name":"On or near Mills Court"},"longitude":"-0.080807"},"context":"","outcome_status":null,"persistent_id":"","id":74279401,"location_subtype":"","month":"2019-05"},{"category":"anti-social-behaviour","location_type":"Force","location":{"latitude":"51.525515","street":{"id":961458,"name":"On or near Mills Court"},"longitude":"-0.080807"},"context":"","outcome_status":null,"persistent_id":"","id":74279402,"location_subtype":"","month":"2019-05"},{"category":"anti-social-behaviour","location_type":"Force","location":{"latitude":"51.533285","street":{"id":964368,"name":"On or near Fern Close"},"longitude":"-0.081374"},"context":"","outcome_status":null,"persistent_id":"","id":74279407,"location_subtype":"","month":"2019-05"},{"category":"anti-social-behaviour","location_type":"Force","location":{"latitude":"51.544266","street":{"id":968664,"name":"On or near Culford Grove"},"longitude":"-0.081994"},"context":"","outcome_status":null,"persistent_id":"","id":74279408,"location_subtype":"","month":"2019-05"},{"category":"anti-social-behaviour","location_type":"Force","location":{"latitude":"51.532005","street":{"id":964358,"name":"On or near Regan Way"},"longitude":"-0.081212"},"context":"","outcome_status":null,"persistent_id":"","id":74279410,"location_subtype":"","month":"2019-05"},{"category":"anti-social-behaviour","location_type":"Force","location":{"latitude":"51.533331","street":{"id":964366,"name":"On or near Ivy Street"},"longitude":"-0.082021"},"context":"","outcome_status":null,"persistent_id":"","id":74279411,"location_subtype":"","month":"2019-05"},{"category":"anti-social-behaviour","location_type":"Force","location":{"latitude":"51.527190","street":{"id":961467,"name":"On or near Hoxton Market"},"longitude":"-0.082625"},"context":"","outcome_status":null,"persistent_id":"","id":74279412,"location_subtype":"","month":"2019-05"},{"category":"anti-social-behaviour","location_type":"Force","location":{"latitude":"51.533331","street":{"id":964366,"name":"On or near Ivy Street"},"longitude":"-0.082021"},"context":"","outcome_status":null,"persistent_id":"","id":74279414,"location_subtype":"","month":"2019-05"},{"category":"anti-social-behaviour","location_type":"Force","location":{"latitude":"51.525452","street":{"id":961351,"name":"On or near Montclare Street"},"longitude":"-0.073674"},"context":"","outcome_status":null,"persistent_id":"","id":74274978,"location_subtype":"","month":"2019-05"},{"category":"anti-social-behaviour","location_type":"Force","location":{"latitude":"51.527120","street":{"id":961512,"name":"On or near Austin Street"},"longitude":"-0.076155"},"context":"","outcome_status":null,"persistent_id":"","id":74279305,"location_subtype":"","month":"2019-05"},{"category":"anti-social-behaviour","location_type":"Force","location":{"latitude":"51.525452","street":{"id":961351,"name":"On or near Montclare Street"},"longitude":"-0.073674"},"context":"","outcome_status":null,"persistent_id":"","id":74274977,"location_subtype":"","month":"2019-05"},{"category":"anti-social-behaviour","location_type":"Force","location":{"latitude":"51.529747","street":{"id":961381,"name":"On or near Diss Street"},"longitude":"-0.073449"},"context":"","outcome_status":null,"persistent_id":"","id":74274976,"location_subtype":"","month":"2019-05"},{"category":"anti-social-behaviour","location_type":"Force","location":{"latitude":"51.527370","street":{"id":961394,"name":"On or near Chambord Street"},"longitude":"-0.072209"},"context":"","outcome_status":null,"persistent_id":"","id":74274957,"location_subtype":"","month":"2019-05"},{"category":"anti-social-behaviour","location_type":"Force","location":{"latitude":"51.545118","street":{"id":968669,"name":"On or near Beechwood Road"},"longitude":"-0.073622"},"context":"","outcome_status":null,"persistent_id":"","id":74278305,"location_subtype":"","month":"2019-05"},{"category":"anti-social-behaviour","location_type":"Force","location":{"latitude":"51.534457","street":{"id":964313,"name":"On or near Darwen Place"},"longitude":"-0.061355"},"context":"","outcome_status":null,"persistent_id":"","id":74289939,"location_subtype":"","month":"2019-05"},{"category":"anti-social-behaviour","location_type":"Force","location":{"latitude":"51.527370","street":{"id":961394,"name":"On or near Chambord Street"},"longitude":"-0.072209"},"context":"","outcome_status":null,"persistent_id":"","id":74274956,"location_subtype":"","month":"2019-05"},{"category":"anti-social-behaviour","location_type":"Force","location":{"latitude":"51.527177","street":{"id":961356,"name":"On or near Kirton Gardens"},"longitude":"-0.071957"},"context":"","outcome_status":null,"persistent_id":"","id":74274955,"location_subtype":"","month":"2019-05"},{"category":"anti-social-behaviour","location_type":"Force","location":{"latitude":"51.527177","street":{"id":961356,"name":"On or near Kirton Gardens"},"longitude":"-0.071957"},"context":"","outcome_status":null,"persistent_id":"","id":74274954,"location_subtype":"","month":"2019-05"},{"category":"anti-social-behaviour","location_type":"Force","location":{"latitude":"51.529884","street":{"id":961316,"name":"On or near Teesdale Street"},"longitude":"-0.061592"},"context":"","outcome_status":null,"persistent_id":"","id":74289932,"location_subtype":"","month":"2019-05"},{"category":"anti-social-behaviour","location_type":"Force","location":{"latitude":"51.527370","street":{"id":961394,"name":"On or near Chambord Street"},"longitude":"-0.072209"},"context":"","outcome_status":null,"persistent_id":"","id":74274949,"location_subtype":"","month":"2019-05"},{"category":"anti-social-behaviour","location_type":"Force","location":{"latitude":"51.530320","street":{"id":961395,"name":"On or near Cadell Close"},"longitude":"-0.070585"},"context":"","outcome_status":null,"persistent_id":"","id":74274947,"location_subtype":"","month":"2019-05"},{"category":"anti-social-behaviour","location_type":"Force","location":{"latitude":"51.532591","street":{"id":964191,"name":"On or near Emma Street"},"longitude":"-0.060497"},"context":"","outcome_status":null,"persistent_id":"","id":74289915,"location_subtype":"","month":"2019-05"},{"category":"anti-social-behaviour","location_type":"Force","location":{"latitude":"51.528803","street":{"id":961734,"name":"On or near Canrobert Street"},"longitude":"-0.060384"},"context":"","outcome_status":null,"persistent_id":"","id":74289909,"location_subtype":"","month":"2019-05"},{"category":"anti-social-behaviour","location_type":"Force","location":{"latitude":"51.530320","street":{"id":961395,"name":"On or near Cadell Close"},"longitude":"-0.070585"},"context":"","outcome_status":null,"persistent_id":"","id":74274946,"location_subtype":"","month":"2019-05"},{"category":"anti-social-behaviour","location_type":"Force","location":{"latitude":"51.530320","street":{"id":961395,"name":"On or near Cadell Close"},"longitude":"-0.070585"},"context":"","outcome_status":null,"persistent_id":"","id":74274945,"location_subtype":"","month":"2019-05"},{"category":"anti-social-behaviour","location_type":"Force","location":{"latitude":"51.530320","street":{"id":961395,"name":"On or near Cadell Close"},"longitude":"-0.070585"},"context":"","outcome_status":null,"persistent_id":"","id":74274944,"location_subtype":"","month":"2019-05"},{"category":"anti-social-behaviour","location_type":"Force","location":{"latitude":"51.529196","street":{"id":961733,"name":"On or near Clarkson Street"},"longitude":"-0.059113"},"context":"","outcome_status":null,"persistent_id":"","id":74289889,"location_subtype":"","month":"2019-05"},{"category":"anti-social-behaviour","location_type":"Force","location":{"latitude":"51.532467","street":{"id":964193,"name":"On or near Nightclub"},"longitude":"-0.056825"},"context":"","outcome_status":null,"persistent_id":"","id":74289841,"location_subtype":"","month":"2019-05"},{"category":"anti-social-behaviour","location_type":"Force","location":{"latitude":"51.532467","street":{"id":964193,"name":"On or near Nightclub"},"longitude":"-0.056825"},"context":"","outcome_status":null,"persistent_id":"","id":74289840,"location_subtype":"","month":"2019-05"},{"category":"anti-social-behaviour","location_type":"Force","location":{"latitude":"51.526333","street":{"id":961314,"name":"On or near Tomlinson Close"},"longitude":"-0.071460"},"context":"","outcome_status":null,"persistent_id":"","id":74274937,"location_subtype":"","month":"2019-05"},{"category":"anti-social-behaviour","location_type":"Force","location":{"latitude":"51.526333","street":{"id":961314,"name":"On or near Tomlinson Close"},"longitude":"-0.071460"},"context":"","outcome_status":null,"persistent_id":"","id":74274936,"location_subtype":"","month":"2019-05"},{"category":"anti-social-behaviour","location_type":"Force","location":{"latitude":"51.532467","street":{"id":964193,"name":"On or near Nightclub"},"longitude":"-0.056825"},"context":"","outcome_status":null,"persistent_id":"","id":74289837,"location_subtype":"","month":"2019-05"},{"category":"anti-social-behaviour","location_type":"Force","location":{"latitude":"51.526333","street":{"id":961314,"name":"On or near Tomlinson Close"},"longitude":"-0.071460"},"context":"","outcome_status":null,"persistent_id":"","id":74274935,"location_subtype":"","month":"2019-05"},{"category":"anti-social-behaviour","location_type":"Force","location":{"latitude":"51.532467","street":{"id":964193,"name":"On or near Nightclub"},"longitude":"-0.056825"},"context":"","outcome_status":null,"persistent_id":"","id":74289836,"location_subtype":"","month":"2019-05"},{"category":"anti-social-behaviour","location_type":"Force","location":{"latitude":"51.530914","street":{"id":964186,"name":"On or near Cambridge Heath Road"},"longitude":"-0.056459"},"context":"","outcome_status":null,"persistent_id":"","id":74289821,"location_subtype":"","month":"2019-05"},{"category":"anti-social-behaviour","location_type":"Force","location":{"latitude":"51.526333","street":{"id":961314,"name":"On or near Tomlinson Close"},"longitude":"-0.071460"},"context":"","outcome_status":null,"persistent_id":"","id":74274934,"location_subtype":"","month":"2019-05"},{"category":"anti-social-behaviour","location_type":"Force","location":{"latitude":"51.534121","street":{"id":964017,"name":"On or near Wadeson Street"},"longitude":"-0.055702"},"context":"","outcome_status":null,"persistent_id":"","id":74289818,"location_subtype":"","month":"2019-05"},{"category":"anti-social-behaviour","location_type":"Force","location":{"latitude":"51.527370","street":{"id":961394,"name":"On or near Chambord Street"},"longitude":"-0.072209"},"context":"","outcome_status":null,"persistent_id":"","id":74274919,"location_subtype":"","month":"2019-05"},{"category":"anti-social-behaviour","location_type":"Force","location":{"latitude":"51.530053","street":{"id":961326,"name":"On or near Shipton Street"},"longitude":"-0.069673"},"context":"","outcome_status":null,"persistent_id":"","id":74274905,"location_subtype":"","month":"2019-05"},{"category":"anti-social-behaviour","location_type":"Force","location":{"latitude":"51.530340","street":{"id":961360,"name":"On or near Horatio Street"},"longitude":"-0.069603"},"context":"","outcome_status":null,"persistent_id":"","id":74274904,"location_subtype":"","month":"2019-05"},{"category":"anti-social-behaviour","location_type":"Force","location":{"latitude":"51.529159","street":{"id":961377,"name":"On or near Elwin Street"},"longitude":"-0.068889"},"context":"","outcome_status":null,"persistent_id":"","id":74274899,"location_subtype":"","month":"2019-05"},{"category":"anti-social-behaviour","location_type":"Force","location":{"latitude":"51.525258","street":{"id":961367,"name":"On or near Granby Street"},"longitude":"-0.069530"},"context":"","outcome_status":null,"persistent_id":"","id":74274898,"location_subtype":"","month":"2019-05"},{"category":"anti-social-behaviour","location_type":"Force","location":{"latitude":"51.526947","street":{"id":961312,"name":"On or near Turin Street"},"longitude":"-0.068334"},"context":"","outcome_status":null,"persistent_id":"","id":74274255,"location_subtype":"","month":"2019-05"},{"category":"anti-social-behaviour","location_type":"Force","location":{"latitude":"51.530711","street":{"id":961335,"name":"On or near Ropley Street"},"longitude":"-0.068117"},"context":"","outcome_status":null,"persistent_id":"","id":74274251,"location_subtype":"","month":"2019-05"},{"category":"anti-social-behaviour","location_type":"Force","location":{"latitude":"51.530711","street":{"id":961335,"name":"On or near Ropley Street"},"longitude":"-0.068117"},"context":"","outcome_status":null,"persistent_id":"","id":74274250,"location_subtype":"","month":"2019-05"},{"category":"anti-social-behaviour","location_type":"Force","location":{"latitude":"51.536066","street":{"id":964234,"name":"On or near Halcomb Street"},"longitude":"-0.080954"},"context":"","outcome_status":null,"persistent_id":"","id":74279405,"location_subtype":"","month":"2019-05"},{"category":"anti-social-behaviour","location_type":"Force","location":{"latitude":"51.526947","street":{"id":961312,"name":"On or near Turin Street"},"longitude":"-0.068334"},"context":"","outcome_status":null,"persistent_id":"","id":74274237,"location_subtype":"","month":"2019-05"},{"category":"anti-social-behaviour","location_type":"Force","location":{"latitude":"51.526947","street":{"id":961312,"name":"On or near Turin Street"},"longitude":"-0.068334"},"context":"","outcome_status":null,"persistent_id":"","id":74274236,"location_subtype":"","month":"2019-05"},{"category":"anti-social-behaviour","location_type":"Force","location":{"latitude":"51.526947","street":{"id":961312,"name":"On or near Turin Street"},"longitude":"-0.068334"},"context":"","outcome_status":null,"persistent_id":"","id":74274235,"location_subtype":"","month":"2019-05"},{"category":"anti-social-behaviour","location_type":"Force","location":{"latitude":"51.534121","street":{"id":964017,"name":"On or near Wadeson Street"},"longitude":"-0.055702"},"context":"","outcome_status":null,"persistent_id":"","id":74289816,"location_subtype":"","month":"2019-05"},{"category":"anti-social-behaviour","location_type":"Force","location":{"latitude":"51.532272","street":{"id":964190,"name":"On or near Parmiter Street"},"longitude":"-0.055363"},"context":"","outcome_status":null,"persistent_id":"","id":74289805,"location_subtype":"","month":"2019-05"},{"category":"anti-social-behaviour","location_type":"Force","location":{"latitude":"51.532272","street":{"id":964190,"name":"On or near Parmiter Street"},"longitude":"-0.055363"},"context":"","outcome_status":null,"persistent_id":"","id":74289802,"location_subtype":"","month":"2019-05"},{"category":"anti-social-behaviour","location_type":"Force","location":{"latitude":"51.526947","street":{"id":961312,"name":"On or near Turin Street"},"longitude":"-0.068334"},"context":"","outcome_status":null,"persistent_id":"","id":74274234,"location_subtype":"","month":"2019-05"},{"category":"anti-social-behaviour","location_type":"Force","location":{"latitude":"51.526947","street":{"id":961312,"name":"On or near Turin Street"},"longitude":"-0.068334"},"context":"","outcome_status":null,"persistent_id":"","id":74274213,"location_subtype":"","month":"2019-05"},{"category":"anti-social-behaviour","location_type":"Force","location":{"latitude":"51.531054","street":{"id":964338,"name":"On or near Ion Square"},"longitude":"-0.066574"},"context":"","outcome_status":null,"persistent_id":"","id":74274174,"location_subtype":"","month":"2019-05"},{"category":"anti-social-behaviour","location_type":"Force","location":{"latitude":"51.532565","street":{"id":964352,"name":"On or near Kay Street"},"longitude":"-0.064924"},"context":"","outcome_status":null,"persistent_id":"","id":74274164,"location_subtype":"","month":"2019-05"},{"category":"anti-social-behaviour","location_type":"Force","location":{"latitude":"51.533917","street":{"id":964261,"name":"On or near Thurtle Road"},"longitude":"-0.071687"},"context":"","outcome_status":null,"persistent_id":"","id":74278262,"location_subtype":"","month":"2019-05"},{"category":"anti-social-behaviour","location_type":"Force","location":{"latitude":"51.532565","street":{"id":964352,"name":"On or near Kay Street"},"longitude":"-0.064924"},"context":"","outcome_status":null,"persistent_id":"","id":74274163,"location_subtype":"","month":"2019-05"},{"category":"anti-social-behaviour","location_type":"Force","location":{"latitude":"51.527792","street":{"id":961358,"name":"On or near Ivimey Street"},"longitude":"-0.064478"},"context":"","outcome_status":null,"persistent_id":"","id":74274157,"location_subtype":"","month":"2019-05"},{"category":"anti-social-behaviour","location_type":"Force","location":{"latitude":"51.531756","street":{"id":964341,"name":"On or near Garner Street"},"longitude":"-0.063834"},"context":"","outcome_status":null,"persistent_id":"","id":74274143,"location_subtype":"","month":"2019-05"},{"category":"anti-social-behaviour","location_type":"Force","location":{"latitude":"51.531756","street":{"id":964341,"name":"On or near Garner Street"},"longitude":"-0.063834"},"context":"","outcome_status":null,"persistent_id":"","id":74274142,"location_subtype":"","month":"2019-05"},{"category":"anti-social-behaviour","location_type":"Force","location":{"latitude":"51.527792","street":{"id":961358,"name":"On or near Ivimey Street"},"longitude":"-0.064478"},"context":"","outcome_status":null,"persistent_id":"","id":74274141,"location_subtype":"","month":"2019-05"},{"category":"anti-social-behaviour","location_type":"Force","location":{"latitude":"51.531756","street":{"id":964341,"name":"On or near Garner Street"},"longitude":"-0.063834"},"context":"","outcome_status":null,"persistent_id":"","id":74274139,"location_subtype":"","month":"2019-05"},{"category":"anti-social-behaviour","location_type":"Force","location":{"latitude":"51.535339","street":{"id":964561,"name":"On or near Arlington Avenue"},"longitude":"-0.092088"},"context":"","outcome_status":null,"persistent_id":"","id":74279601,"location_subtype":"","month":"2019-05"},{"category":"anti-social-behaviour","location_type":"Force","location":{"latitude":"51.526088","street":{"id":961305,"name":"On or near Voss Street"},"longitude":"-0.065300"},"context":"","outcome_status":null,"persistent_id":"","id":74274125,"location_subtype":"","month":"2019-05"},{"category":"anti-social-behaviour","location_type":"Force","location":{"latitude":"51.533037","street":{"id":964349,"name":"On or near Teale Street"},"longitude":"-0.063578"},"context":"","outcome_status":null,"persistent_id":"","id":74274120,"location_subtype":"","month":"2019-05"},{"category":"anti-social-behaviour","location_type":"Force","location":{"latitude":"51.533037","street":{"id":964349,"name":"On or near Teale Street"},"longitude":"-0.063578"},"context":"","outcome_status":null,"persistent_id":"","id":74274104,"location_subtype":"","month":"2019-05"},{"category":"anti-social-behaviour","location_type":"Force","location":{"latitude":"51.532139","street":{"id":964345,"name":"On or near Coate Street"},"longitude":"-0.063111"},"context":"","outcome_status":null,"persistent_id":"","id":74274093,"location_subtype":"","month":"2019-05"},{"category":"anti-social-behaviour","location_type":"Force","location":{"latitude":"51.532139","street":{"id":964345,"name":"On or near Coate Street"},"longitude":"-0.063111"},"context":"","outcome_status":null,"persistent_id":"","id":74274087,"location_subtype":"","month":"2019-05"},{"category":"anti-social-behaviour","location_type":"Force","location":{"latitude":"51.532139","street":{"id":964345,"name":"On or near Coate Street"},"longitude":"-0.063111"},"context":"","outcome_status":null,"persistent_id":"","id":74274086,"location_subtype":"","month":"2019-05"},{"category":"anti-social-behaviour","location_type":"Force","location":{"latitude":"51.531900","street":{"id":964187,"name":"On or near Cambridge Crescent"},"longitude":"-0.058955"},"context":"","outcome_status":null,"persistent_id":"","id":74289888,"location_subtype":"","month":"2019-05"},{"category":"anti-social-behaviour","location_type":"Force","location":{"latitude":"51.539236","street":{"id":964240,"name":"On or near Downham Road"},"longitude":"-0.081254"},"context":"","outcome_status":null,"persistent_id":"","id":74282698,"location_subtype":"","month":"2019-05"},{"category":"anti-social-behaviour","location_type":"Force","location":{"latitude":"51.534121","street":{"id":964017,"name":"On or near Wadeson Street"},"longitude":"-0.055702"},"context":"","outcome_status":null,"persistent_id":"","id":74289817,"location_subtype":"","month":"2019-05"},{"category":"anti-social-behaviour","location_type":"Force","location":{"latitude":"51.534680","street":{"id":964045,"name":"On or near Lark Row"},"longitude":"-0.054136"},"context":"","outcome_status":null,"persistent_id":"","id":74289764,"location_subtype":"","month":"2019-05"},{"category":"anti-social-behaviour","location_type":"Force","location":{"latitude":"51.538813","street":{"id":964264,"name":"On or near Shrubland Road"},"longitude":"-0.066447"},"context":"","outcome_status":null,"persistent_id":"","id":74278153,"location_subtype":"","month":"2019-05"},{"category":"anti-social-behaviour","location_type":"Force","location":{"latitude":"51.527120","street":{"id":961512,"name":"On or near Austin Street"},"longitude":"-0.076155"},"context":"","outcome_status":null,"persistent_id":"","id":74275033,"location_subtype":"","month":"2019-05"},{"category":"anti-social-behaviour","location_type":"Force","location":{"latitude":"51.524235","street":{"id":961419,"name":"On or near Chance Street"},"longitude":"-0.075109"},"context":"","outcome_status":null,"persistent_id":"","id":74275022,"location_subtype":"","month":"2019-05"},{"category":"anti-social-behaviour","location_type":"Force","location":{"latitude":"51.535843","street":{"id":964487,"name":"On or near Hyde Road"},"longitude":"-0.083285"},"context":"","outcome_status":null,"persistent_id":"","id":74282713,"location_subtype":"","month":"2019-05"},{"category":"anti-social-behaviour","location_type":"Force","location":{"latitude":"51.524235","street":{"id":961419,"name":"On or near Chance Street"},"longitude":"-0.075109"},"context":"","outcome_status":null,"persistent_id":"","id":74275020,"location_subtype":"","month":"2019-05"},{"category":"anti-social-behaviour","location_type":"Force","location":{"latitude":"51.526658","street":{"id":961470,"name":"On or near Hocker Street"},"longitude":"-0.074848"},"context":"","outcome_status":null,"persistent_id":"","id":74275018,"location_subtype":"","month":"2019-05"},{"category":"anti-social-behaviour","location_type":"Force","location":{"latitude":"51.532272","street":{"id":964190,"name":"On or near Parmiter Street"},"longitude":"-0.055363"},"context":"","outcome_status":null,"persistent_id":"","id":74289801,"location_subtype":"","month":"2019-05"},{"category":"anti-social-behaviour","location_type":"Force","location":{"latitude":"51.529279","street":{"id":961473,"name":"On or near Hackney Road"},"longitude":"-0.075055"},"context":"","outcome_status":null,"persistent_id":"","id":74275017,"location_subtype":"","month":"2019-05"},{"category":"anti-social-behaviour","location_type":"Force","location":{"latitude":"51.527198","street":{"id":961170,"name":"On or near Brunswick Place"},"longitude":"-0.086402"},"context":"","outcome_status":null,"persistent_id":"","id":74282733,"location_subtype":"","month":"2019-05"},{"category":"anti-social-behaviour","location_type":"Force","location":{"latitude":"51.544083","street":{"id":968690,"name":"On or near Forest Road"},"longitude":"-0.063729"},"context":"","outcome_status":null,"persistent_id":"","id":74277349,"location_subtype":"","month":"2019-05"},{"category":"anti-social-behaviour","location_type":"Force","location":{"latitude":"51.527707","street":{"id":961372,"name":"On or near Gascoigne Place"},"longitude":"-0.074069"},"context":"","outcome_status":null,"persistent_id":"","id":74275004,"location_subtype":"","month":"2019-05"},{"category":"anti-social-behaviour","location_type":"Force","location":{"latitude":"51.534686","street":{"id":964018,"name":"On or near Vyner Street"},"longitude":"-0.055073"},"context":"","outcome_status":null,"persistent_id":"","id":74289795,"location_subtype":"","month":"2019-05"},{"category":"anti-social-behaviour","location_type":"Force","location":{"latitude":"51.534680","street":{"id":964045,"name":"On or near Lark Row"},"longitude":"-0.054136"},"context":"","outcome_status":null,"persistent_id":"","id":74289765,"location_subtype":"","month":"2019-05"},{"category":"anti-social-behaviour","location_type":"Force","location":{"latitude":"51.526496","street":{"id":961132,"name":"On or near Vince Street"},"longitude":"-0.085840"},"context":"","outcome_status":null,"persistent_id":"","id":74282750,"location_subtype":"","month":"2019-05"},{"category":"anti-social-behaviour","location_type":"Force","location":{"latitude":"51.527919","street":{"id":961511,"name":"On or near Bakers Rents"},"longitude":"-0.076064"},"context":"","outcome_status":null,"persistent_id":"","id":74275037,"location_subtype":"","month":"2019-05"},{"category":"anti-social-behaviour","location_type":"Force","location":{"latitude":"51.526201","street":{"id":961504,"name":"On or near Calvert Avenue"},"longitude":"-0.076021"},"context":"","outcome_status":null,"persistent_id":"","id":74275035,"location_subtype":"","month":"2019-05"},{"category":"anti-social-behaviour","location_type":"Force","location":{"latitude":"51.524848","street":{"id":961448,"name":"On or near Old Nichol Street"},"longitude":"-0.074679"},"context":"","outcome_status":null,"persistent_id":"","id":74274995,"location_subtype":"","month":"2019-05"},{"category":"anti-social-behaviour","location_type":"Force","location":{"latitude":"51.525175","street":{"id":961460,"name":"On or near Ligonier Street"},"longitude":"-0.075978"},"context":"","outcome_status":null,"persistent_id":"","id":74275034,"location_subtype":"","month":"2019-05"},{"category":"anti-social-behaviour","location_type":"Force","location":{"latitude":"51.524848","street":{"id":961448,"name":"On or near Old Nichol Street"},"longitude":"-0.074679"},"context":"","outcome_status":null,"persistent_id":"","id":74274992,"location_subtype":"","month":"2019-05"},{"category":"anti-social-behaviour","location_type":"Force","location":{"latitude":"51.533690","street":{"id":964596,"name":"On or near Provence Street"},"longitude":"-0.096843"},"context":"","outcome_status":null,"persistent_id":"","id":74279681,"location_subtype":"","month":"2019-05"},{"category":"anti-social-behaviour","location_type":"Force","location":{"latitude":"51.533690","street":{"id":964596,"name":"On or near Provence Street"},"longitude":"-0.096843"},"context":"","outcome_status":null,"persistent_id":"","id":74279680,"location_subtype":"","month":"2019-05"},{"category":"anti-social-behaviour","location_type":"Force","location":{"latitude":"51.539390","street":{"id":964414,"name":"On or near Greenman Street"},"longitude":"-0.096244"},"context":"","outcome_status":null,"persistent_id":"","id":74279676,"location_subtype":"","month":"2019-05"},{"category":"anti-social-behaviour","location_type":"Force","location":{"latitude":"51.535317","street":{"id":964401,"name":"On or near Packington Square"},"longitude":"-0.095708"},"context":"","outcome_status":null,"persistent_id":"","id":74279675,"location_subtype":"","month":"2019-05"},{"category":"anti-social-behaviour","location_type":"Force","location":{"latitude":"51.535317","street":{"id":964401,"name":"On or near Packington Square"},"longitude":"-0.095708"},"context":"","outcome_status":null,"persistent_id":"","id":74279674,"location_subtype":"","month":"2019-05"},{"category":"anti-social-behaviour","location_type":"Force","location":{"latitude":"51.526496","street":{"id":961132,"name":"On or near Vince Street"},"longitude":"-0.085840"},"context":"","outcome_status":null,"persistent_id":"","id":74282751,"location_subtype":"","month":"2019-05"},{"category":"anti-social-behaviour","location_type":"Force","location":{"latitude":"51.527120","street":{"id":961512,"name":"On or near Austin Street"},"longitude":"-0.076155"},"context":"","outcome_status":null,"persistent_id":"","id":74275024,"location_subtype":"","month":"2019-05"},{"category":"anti-social-behaviour","location_type":"Force","location":{"latitude":"51.535317","street":{"id":964401,"name":"On or near Packington Square"},"longitude":"-0.095708"},"context":"","outcome_status":null,"persistent_id":"","id":74279673,"location_subtype":"","month":"2019-05"},{"category":"anti-social-behaviour","location_type":"Force","location":{"latitude":"51.525290","street":{"id":961501,"name":"On or near Camlet Street"},"longitude":"-0.075295"},"context":"","outcome_status":null,"persistent_id":"","id":74275023,"location_subtype":"","month":"2019-05"},{"category":"anti-social-behaviour","location_type":"Force","location":{"latitude":"51.524235","street":{"id":961419,"name":"On or near Chance Street"},"longitude":"-0.075109"},"context":"","outcome_status":null,"persistent_id":"","id":74275021,"location_subtype":"","month":"2019-05"},{"category":"anti-social-behaviour","location_type":"Force","location":{"latitude":"51.524235","street":{"id":961419,"name":"On or near Chance Street"},"longitude":"-0.075109"},"context":"","outcome_status":null,"persistent_id":"","id":74275019,"location_subtype":"","month":"2019-05"},{"category":"anti-social-behaviour","location_type":"Force","location":{"latitude":"51.535317","street":{"id":964401,"name":"On or near Packington Square"},"longitude":"-0.095708"},"context":"","outcome_status":null,"persistent_id":"","id":74279672,"location_subtype":"","month":"2019-05"},{"category":"anti-social-behaviour","location_type":"Force","location":{"latitude":"51.531513","street":{"id":964572,"name":"On or near Evelyn Walk"},"longitude":"-0.087966"},"context":"","outcome_status":null,"persistent_id":"","id":74282756,"location_subtype":"","month":"2019-05"},{"category":"anti-social-behaviour","location_type":"Force","location":{"latitude":"51.535317","street":{"id":964401,"name":"On or near Packington Square"},"longitude":"-0.095708"},"context":"","outcome_status":null,"persistent_id":"","id":74279671,"location_subtype":"","month":"2019-05"},{"category":"anti-social-behaviour","location_type":"Force","location":{"latitude":"51.527707","street":{"id":961372,"name":"On or near Gascoigne Place"},"longitude":"-0.074069"},"context":"","outcome_status":null,"persistent_id":"","id":74275005,"location_subtype":"","month":"2019-05"},{"category":"anti-social-behaviour","location_type":"Force","location":{"latitude":"51.526658","street":{"id":961470,"name":"On or near Hocker Street"},"longitude":"-0.074848"},"context":"","outcome_status":null,"persistent_id":"","id":74275003,"location_subtype":"","month":"2019-05"},{"category":"anti-social-behaviour","location_type":"Force","location":{"latitude":"51.535317","street":{"id":964401,"name":"On or near Packington Square"},"longitude":"-0.095708"},"context":"","outcome_status":null,"persistent_id":"","id":74279670,"location_subtype":"","month":"2019-05"},{"category":"anti-social-behaviour","location_type":"Force","location":{"latitude":"51.535317","street":{"id":964401,"name":"On or near Packington Square"},"longitude":"-0.095708"},"context":"","outcome_status":null,"persistent_id":"","id":74279669,"location_subtype":"","month":"2019-05"},{"category":"anti-social-behaviour","location_type":"Force","location":{"latitude":"51.526658","street":{"id":961470,"name":"On or near Hocker Street"},"longitude":"-0.074848"},"context":"","outcome_status":null,"persistent_id":"","id":74275000,"location_subtype":"","month":"2019-05"},{"category":"anti-social-behaviour","location_type":"Force","location":{"latitude":"51.535317","street":{"id":964401,"name":"On or near Packington Square"},"longitude":"-0.095708"},"context":"","outcome_status":null,"persistent_id":"","id":74279668,"location_subtype":"","month":"2019-05"},{"category":"anti-social-behaviour","location_type":"Force","location":{"latitude":"51.531513","street":{"id":964572,"name":"On or near Evelyn Walk"},"longitude":"-0.087966"},"context":"","outcome_status":null,"persistent_id":"","id":74282759,"location_subtype":"","month":"2019-05"},{"category":"anti-social-behaviour","location_type":"Force","location":{"latitude":"51.535317","street":{"id":964401,"name":"On or near Packington Square"},"longitude":"-0.095708"},"context":"","outcome_status":null,"persistent_id":"","id":74279667,"location_subtype":"","month":"2019-05"},{"category":"anti-social-behaviour","location_type":"Force","location":{"latitude":"51.535317","street":{"id":964401,"name":"On or near Packington Square"},"longitude":"-0.095708"},"context":"","outcome_status":null,"persistent_id":"","id":74279666,"location_subtype":"","month":"2019-05"},{"category":"anti-social-behaviour","location_type":"Force","location":{"latitude":"51.529720","street":{"id":961077,"name":"On or near Provost Street"},"longitude":"-0.088877"},"context":"","outcome_status":null,"persistent_id":"","id":74282765,"location_subtype":"","month":"2019-05"},{"category":"anti-social-behaviour","location_type":"Force","location":{"latitude":"51.535317","street":{"id":964401,"name":"On or near Packington Square"},"longitude":"-0.095708"},"context":"","outcome_status":null,"persistent_id":"","id":74279665,"location_subtype":"","month":"2019-05"},{"category":"anti-social-behaviour","location_type":"Force","location":{"latitude":"51.537027","street":{"id":964395,"name":"On or near Prebend Street"},"longitude":"-0.095218"},"context":"","outcome_status":null,"persistent_id":"","id":74279664,"location_subtype":"","month":"2019-05"},{"category":"anti-social-behaviour","location_type":"Force","location":{"latitude":"51.524848","street":{"id":961448,"name":"On or near Old Nichol Street"},"longitude":"-0.074679"},"context":"","outcome_status":null,"persistent_id":"","id":74274996,"location_subtype":"","month":"2019-05"},{"category":"anti-social-behaviour","location_type":"Force","location":{"latitude":"51.529750","street":{"id":961067,"name":"On or near Underwood Street"},"longitude":"-0.091254"},"context":"","outcome_status":null,"persistent_id":"","id":74282782,"location_subtype":"","month":"2019-05"},{"category":"anti-social-behaviour","location_type":"Force","location":{"latitude":"51.543241","street":{"id":964454,"name":"On or near Alwyne Road"},"longitude":"-0.096372"},"context":"","outcome_status":null,"persistent_id":"","id":74279663,"location_subtype":"","month":"2019-05"},{"category":"anti-social-behaviour","location_type":"Force","location":{"latitude":"51.544796","street":{"id":968450,"name":"On or near Irving Mews"},"longitude":"-0.094663"},"context":"","outcome_status":null,"persistent_id":"","id":74279662,"location_subtype":"","month":"2019-05"},{"category":"anti-social-behaviour","location_type":"Force","location":{"latitude":"51.537027","street":{"id":964395,"name":"On or near Prebend Street"},"longitude":"-0.095218"},"context":"","outcome_status":null,"persistent_id":"","id":74279660,"location_subtype":"","month":"2019-05"},{"category":"anti-social-behaviour","location_type":"Force","location":{"latitude":"51.533305","street":{"id":964602,"name":"On or near Baldwin Terrace"},"longitude":"-0.096441"},"context":"","outcome_status":null,"persistent_id":"","id":74279659,"location_subtype":"","month":"2019-05"},{"category":"anti-social-behaviour","location_type":"Force","location":{"latitude":"51.533375","street":{"id":964583,"name":"On or near Forston Street"},"longitude":"-0.091305"},"context":"","outcome_status":null,"persistent_id":"","id":74282783,"location_subtype":"","month":"2019-05"},{"category":"anti-social-behaviour","location_type":"Force","location":{"latitude":"51.532139","street":{"id":964345,"name":"On or near Coate Street"},"longitude":"-0.063111"},"context":"","outcome_status":null,"persistent_id":"","id":74274090,"location_subtype":"","month":"2019-05"},{"category":"anti-social-behaviour","location_type":"Force","location":{"latitude":"51.537888","street":{"id":964451,"name":"On or near Bishop Street"},"longitude":"-0.095125"},"context":"","outcome_status":null,"persistent_id":"","id":74279655,"location_subtype":"","month":"2019-05"},{"category":"anti-social-behaviour","location_type":"Force","location":{"latitude":"51.537888","street":{"id":964451,"name":"On or near Bishop Street"},"longitude":"-0.095125"},"context":"","outcome_status":null,"persistent_id":"","id":74279654,"location_subtype":"","month":"2019-05"},{"category":"anti-social-behaviour","location_type":"Force","location":{"latitude":"51.533037","street":{"id":964349,"name":"On or near Teale Street"},"longitude":"-0.063578"},"context":"","outcome_status":null,"persistent_id":"","id":74274114,"location_subtype":"","month":"2019-05"},{"category":"anti-social-behaviour","location_type":"Force","location":{"latitude":"51.537888","street":{"id":964451,"name":"On or near Bishop Street"},"longitude":"-0.095125"},"context":"","outcome_status":null,"persistent_id":"","id":74279653,"location_subtype":"","month":"2019-05"},{"category":"anti-social-behaviour","location_type":"Force","location":{"latitude":"51.531756","street":{"id":964341,"name":"On or near Garner Street"},"longitude":"-0.063834"},"context":"","outcome_status":null,"persistent_id":"","id":74274144,"location_subtype":"","month":"2019-05"},{"category":"anti-social-behaviour","location_type":"Force","location":{"latitude":"51.537888","street":{"id":964451,"name":"On or near Bishop Street"},"longitude":"-0.095125"},"context":"","outcome_status":null,"persistent_id":"","id":74279652,"location_subtype":"","month":"2019-05"},{"category":"anti-social-behaviour","location_type":"Force","location":{"latitude":"51.537888","street":{"id":964451,"name":"On or near Bishop Street"},"longitude":"-0.095125"},"context":"","outcome_status":null,"persistent_id":"","id":74279651,"location_subtype":"","month":"2019-05"},{"category":"anti-social-behaviour","location_type":"Force","location":{"latitude":"51.537888","street":{"id":964451,"name":"On or near Bishop Street"},"longitude":"-0.095125"},"context":"","outcome_status":null,"persistent_id":"","id":74279649,"location_subtype":"","month":"2019-05"},{"category":"anti-social-behaviour","location_type":"Force","location":{"latitude":"51.537888","street":{"id":964451,"name":"On or near Bishop Street"},"longitude":"-0.095125"},"context":"","outcome_status":null,"persistent_id":"","id":74279648,"location_subtype":"","month":"2019-05"},{"category":"anti-social-behaviour","location_type":"Force","location":{"latitude":"51.537888","street":{"id":964451,"name":"On or near Bishop Street"},"longitude":"-0.095125"},"context":"","outcome_status":null,"persistent_id":"","id":74279647,"location_subtype":"","month":"2019-05"},{"category":"anti-social-behaviour","location_type":"Force","location":{"latitude":"51.524848","street":{"id":961448,"name":"On or near Old Nichol Street"},"longitude":"-0.074679"},"context":"","outcome_status":null,"persistent_id":"","id":74274994,"location_subtype":"","month":"2019-05"},{"category":"anti-social-behaviour","location_type":"Force","location":{"latitude":"51.537888","street":{"id":964451,"name":"On or near Bishop Street"},"longitude":"-0.095125"},"context":"","outcome_status":null,"persistent_id":"","id":74279646,"location_subtype":"","month":"2019-05"},{"category":"anti-social-behaviour","location_type":"Force","location":{"latitude":"51.525793","street":{"id":961397,"name":"On or near Buckfast Street"},"longitude":"-0.065990"},"context":"","outcome_status":null,"persistent_id":"","id":74274182,"location_subtype":"","month":"2019-05"},{"category":"anti-social-behaviour","location_type":"Force","location":{"latitude":"51.537888","street":{"id":964451,"name":"On or near Bishop Street"},"longitude":"-0.095125"},"context":"","outcome_status":null,"persistent_id":"","id":74279645,"location_subtype":"","month":"2019-05"},{"category":"anti-social-behaviour","location_type":"Force","location":{"latitude":"51.537027","street":{"id":964395,"name":"On or near Prebend Street"},"longitude":"-0.095218"},"context":"","outcome_status":null,"persistent_id":"","id":74279643,"location_subtype":"","month":"2019-05"},{"category":"anti-social-behaviour","location_type":"Force","location":{"latitude":"51.530711","street":{"id":961335,"name":"On or near Ropley Street"},"longitude":"-0.068117"},"context":"","outcome_status":null,"persistent_id":"","id":74274249,"location_subtype":"","month":"2019-05"},{"category":"anti-social-behaviour","location_type":"Force","location":{"latitude":"51.537027","street":{"id":964395,"name":"On or near Prebend Street"},"longitude":"-0.095218"},"context":"","outcome_status":null,"persistent_id":"","id":74279642,"location_subtype":"","month":"2019-05"},{"category":"anti-social-behaviour","location_type":"Force","location":{"latitude":"51.534157","street":{"id":964428,"name":"On or near Dame Street"},"longitude":"-0.095727"},"context":"","outcome_status":null,"persistent_id":"","id":74279637,"location_subtype":"","month":"2019-05"},{"category":"anti-social-behaviour","location_type":"Force","location":{"latitude":"51.534157","street":{"id":964428,"name":"On or near Dame Street"},"longitude":"-0.095727"},"context":"","outcome_status":null,"persistent_id":"","id":74279636,"location_subtype":"","month":"2019-05"},{"category":"anti-social-behaviour","location_type":"Force","location":{"latitude":"51.534157","street":{"id":964428,"name":"On or near Dame Street"},"longitude":"-0.095727"},"context":"","outcome_status":null,"persistent_id":"","id":74279635,"location_subtype":"","month":"2019-05"},{"category":"anti-social-behaviour","location_type":"Force","location":{"latitude":"51.534157","street":{"id":964428,"name":"On or near Dame Street"},"longitude":"-0.095727"},"context":"","outcome_status":null,"persistent_id":"","id":74279634,"location_subtype":"","month":"2019-05"},{"category":"anti-social-behaviour","location_type":"Force","location":{"latitude":"51.530711","street":{"id":961335,"name":"On or near Ropley Street"},"longitude":"-0.068117"},"context":"","outcome_status":null,"persistent_id":"","id":74274252,"location_subtype":"","month":"2019-05"},{"category":"anti-social-behaviour","location_type":"Force","location":{"latitude":"51.537888","street":{"id":964451,"name":"On or near Bishop Street"},"longitude":"-0.095125"},"context":"","outcome_status":null,"persistent_id":"","id":74279644,"location_subtype":"","month":"2019-05"},{"category":"anti-social-behaviour","location_type":"Force","location":{"latitude":"51.524848","street":{"id":961448,"name":"On or near Old Nichol Street"},"longitude":"-0.074679"},"context":"","outcome_status":null,"persistent_id":"","id":74274993,"location_subtype":"","month":"2019-05"},{"category":"anti-social-behaviour","location_type":"Force","location":{"latitude":"51.543313","street":{"id":964559,"name":"On or near Arran Walk"},"longitude":"-0.094134"},"context":"","outcome_status":null,"persistent_id":"","id":74279628,"location_subtype":"","month":"2019-05"},{"category":"anti-social-behaviour","location_type":"Force","location":{"latitude":"51.543313","street":{"id":964559,"name":"On or near Arran Walk"},"longitude":"-0.094134"},"context":"","outcome_status":null,"persistent_id":"","id":74279627,"location_subtype":"","month":"2019-05"},{"category":"anti-social-behaviour","location_type":"Force","location":{"latitude":"51.543313","street":{"id":964559,"name":"On or near Arran Walk"},"longitude":"-0.094134"},"context":"","outcome_status":null,"persistent_id":"","id":74279626,"location_subtype":"","month":"2019-05"},{"category":"anti-social-behaviour","location_type":"Force","location":{"latitude":"51.546485","street":{"id":968799,"name":"On or near Graham Road"},"longitude":"-0.059444"},"context":"","outcome_status":null,"persistent_id":"","id":74277313,"location_subtype":"","month":"2019-05"},{"category":"anti-social-behaviour","location_type":"Force","location":{"latitude":"51.541573","street":{"id":964543,"name":"On or near Essex Road"},"longitude":"-0.093356"},"context":"","outcome_status":null,"persistent_id":"","id":74279620,"location_subtype":"","month":"2019-05"},{"category":"anti-social-behaviour","location_type":"Force","location":{"latitude":"51.538177","street":{"id":923836,"name":"On or near Basire Street"},"longitude":"-0.093541"},"context":"","outcome_status":null,"persistent_id":"","id":74279619,"location_subtype":"","month":"2019-05"},{"category":"anti-social-behaviour","location_type":"Force","location":{"latitude":"51.539259","street":{"id":964526,"name":"On or near Raynor Place"},"longitude":"-0.092616"},"context":"","outcome_status":null,"persistent_id":"","id":74279615,"location_subtype":"","month":"2019-05"},{"category":"anti-social-behaviour","location_type":"Force","location":{"latitude":"51.539259","street":{"id":964526,"name":"On or near Raynor Place"},"longitude":"-0.092616"},"context":"","outcome_status":null,"persistent_id":"","id":74279614,"location_subtype":"","month":"2019-05"},{"category":"anti-social-behaviour","location_type":"Force","location":{"latitude":"51.544971","street":{"id":968485,"name":"On or near Clifton Road"},"longitude":"-0.092175"},"context":"","outcome_status":null,"persistent_id":"","id":74279612,"location_subtype":"","month":"2019-05"},{"category":"anti-social-behaviour","location_type":"Force","location":{"latitude":"51.527643","street":{"id":961344,"name":"On or near Pollard Street"},"longitude":"-0.063086"},"context":"","outcome_status":null,"persistent_id":"","id":74289946,"location_subtype":"","month":"2019-05"},{"category":"anti-social-behaviour","location_type":"Force","location":{"latitude":"51.530340","street":{"id":961360,"name":"On or near Horatio Street"},"longitude":"-0.069603"},"context":"","outcome_status":null,"persistent_id":"","id":74274902,"location_subtype":"","month":"2019-05"},{"category":"anti-social-behaviour","location_type":"Force","location":{"latitude":"51.544971","street":{"id":968485,"name":"On or near Clifton Road"},"longitude":"-0.092175"},"context":"","outcome_status":null,"persistent_id":"","id":74279611,"location_subtype":"","month":"2019-05"},{"category":"anti-social-behaviour","location_type":"Force","location":{"latitude":"51.538473","street":{"id":964532,"name":"On or near New North Road"},"longitude":"-0.092389"},"context":"","outcome_status":null,"persistent_id":"","id":74279609,"location_subtype":"","month":"2019-05"},{"category":"anti-social-behaviour","location_type":"Force","location":{"latitude":"51.550790","street":{"id":968546,"name":"On or near Ferncliff Road"},"longitude":"-0.066387"},"context":"","outcome_status":null,"persistent_id":"","id":74278172,"location_subtype":"","month":"2019-05"},{"category":"anti-social-behaviour","location_type":"Force","location":{"latitude":"51.544971","street":{"id":968485,"name":"On or near Clifton Road"},"longitude":"-0.092175"},"context":"","outcome_status":null,"persistent_id":"","id":74279608,"location_subtype":"","month":"2019-05"},{"category":"anti-social-behaviour","location_type":"Force","location":{"latitude":"51.544971","street":{"id":968485,"name":"On or near Clifton Road"},"longitude":"-0.092175"},"context":"","outcome_status":null,"persistent_id":"","id":74279607,"location_subtype":"","month":"2019-05"},{"category":"anti-social-behaviour","location_type":"Force","location":{"latitude":"51.524848","street":{"id":961448,"name":"On or near Old Nichol Street"},"longitude":"-0.074679"},"context":"","outcome_status":null,"persistent_id":"","id":74274991,"location_subtype":"","month":"2019-05"},{"category":"anti-social-behaviour","location_type":"Force","location":{"latitude":"51.543363","street":{"id":964558,"name":"On or near Ashby Grove"},"longitude":"-0.092271"},"context":"","outcome_status":null,"persistent_id":"","id":74279604,"location_subtype":"","month":"2019-05"},{"category":"anti-social-behaviour","location_type":"Force","location":{"latitude":"51.527643","street":{"id":961344,"name":"On or near Pollard Street"},"longitude":"-0.063086"},"context":"","outcome_status":null,"persistent_id":"","id":74289945,"location_subtype":"","month":"2019-05"},{"category":"anti-social-behaviour","location_type":"Force","location":{"latitude":"51.548152","street":{"id":968338,"name":"On or near Wallace Road"},"longitude":"-0.092013"},"context":"","outcome_status":null,"persistent_id":"","id":74279603,"location_subtype":"","month":"2019-05"},{"category":"anti-social-behaviour","location_type":"Force","location":{"latitude":"51.527643","street":{"id":961344,"name":"On or near Pollard Street"},"longitude":"-0.063086"},"context":"","outcome_status":null,"persistent_id":"","id":74289944,"location_subtype":"","month":"2019-05"},{"category":"anti-social-behaviour","location_type":"Force","location":{"latitude":"51.544470","street":{"id":968480,"name":"On or near Nightingale Road"},"longitude":"-0.091735"},"context":"","outcome_status":null,"persistent_id":"","id":74279600,"location_subtype":"","month":"2019-05"},{"category":"anti-social-behaviour","location_type":"Force","location":{"latitude":"51.543967","street":{"id":964553,"name":"On or near Church Road"},"longitude":"-0.091236"},"context":"","outcome_status":null,"persistent_id":"","id":74279599,"location_subtype":"","month":"2019-05"},{"category":"anti-social-behaviour","location_type":"Force","location":{"latitude":"51.546252","street":{"id":968482,"name":"On or near Lismore Walk"},"longitude":"-0.091271"},"context":"","outcome_status":null,"persistent_id":"","id":74279595,"location_subtype":"","month":"2019-05"},{"category":"anti-social-behaviour","location_type":"Force","location":{"latitude":"51.543340","street":{"id":964542,"name":"On or near Essex Road"},"longitude":"-0.090859"},"context":"","outcome_status":null,"persistent_id":"","id":74279588,"location_subtype":"","month":"2019-05"},{"category":"anti-social-behaviour","location_type":"Force","location":{"latitude":"51.543340","street":{"id":964542,"name":"On or near Essex Road"},"longitude":"-0.090859"},"context":"","outcome_status":null,"persistent_id":"","id":74279587,"location_subtype":"","month":"2019-05"},{"category":"anti-social-behaviour","location_type":"Force","location":{"latitude":"51.543340","street":{"id":964542,"name":"On or near Essex Road"},"longitude":"-0.090859"},"context":"","outcome_status":null,"persistent_id":"","id":74279586,"location_subtype":"","month":"2019-05"},{"category":"anti-social-behaviour","location_type":"Force","location":{"latitude":"51.524848","street":{"id":961448,"name":"On or near Old Nichol Street"},"longitude":"-0.074679"},"context":"","outcome_status":null,"persistent_id":"","id":74274990,"location_subtype":"","month":"2019-05"},{"category":"anti-social-behaviour","location_type":"Force","location":{"latitude":"51.545586","street":{"id":968486,"name":"On or near Clephane Road"},"longitude":"-0.090693"},"context":"","outcome_status":null,"persistent_id":"","id":74279585,"location_subtype":"","month":"2019-05"},{"category":"anti-social-behaviour","location_type":"Force","location":{"latitude":"51.545781","street":{"id":968478,"name":"On or near Rona Walk"},"longitude":"-0.089978"},"context":"","outcome_status":null,"persistent_id":"","id":74279582,"location_subtype":"","month":"2019-05"},{"category":"anti-social-behaviour","location_type":"Force","location":{"latitude":"51.541961","street":{"id":964544,"name":"On or near Elmore Street"},"longitude":"-0.089013"},"context":"","outcome_status":null,"persistent_id":"","id":74279578,"location_subtype":"","month":"2019-05"},{"category":"anti-social-behaviour","location_type":"Force","location":{"latitude":"51.538804","street":{"id":964539,"name":"On or near Hullbridge Mews"},"longitude":"-0.089520"},"context":"","outcome_status":null,"persistent_id":"","id":74279577,"location_subtype":"","month":"2019-05"},{"category":"anti-social-behaviour","location_type":"Force","location":{"latitude":"51.538033","street":{"id":964520,"name":"On or near Shepperton Road"},"longitude":"-0.089653"},"context":"","outcome_status":null,"persistent_id":"","id":74279574,"location_subtype":"","month":"2019-05"},{"category":"anti-social-behaviour","location_type":"Force","location":{"latitude":"51.538694","street":{"id":964021,"name":"On or near Tudor Road"},"longitude":"-0.054902"},"context":"","outcome_status":null,"persistent_id":"","id":74276147,"location_subtype":"","month":"2019-05"},{"category":"anti-social-behaviour","location_type":"Force","location":{"latitude":"51.541962","street":{"id":964042,"name":"On or near London Lane"},"longitude":"-0.056753"},"context":"","outcome_status":null,"persistent_id":"","id":74277273,"location_subtype":"","month":"2019-05"},{"category":"anti-social-behaviour","location_type":"Force","location":{"latitude":"51.535161","street":{"id":964556,"name":"On or near Bevan Street"},"longitude":"-0.093840"},"context":"","outcome_status":null,"persistent_id":"","id":74279622,"location_subtype":"","month":"2019-05"},{"category":"anti-social-behaviour","location_type":"Force","location":{"latitude":"51.537888","street":{"id":964451,"name":"On or near Bishop Street"},"longitude":"-0.095125"},"context":"","outcome_status":null,"persistent_id":"","id":74279650,"location_subtype":"","month":"2019-05"},{"category":"anti-social-behaviour","location_type":"Force","location":{"latitude":"51.537501","street":{"id":964495,"name":"On or near Canal Walk"},"longitude":"-0.085696"},"context":"","outcome_status":null,"persistent_id":"","id":74282748,"location_subtype":"","month":"2019-05"},{"category":"anti-social-behaviour","location_type":"Force","location":{"latitude":"51.547623","street":{"id":968340,"name":"On or near St Paul's Place"},"longitude":"-0.088228"},"context":"","outcome_status":null,"persistent_id":"","id":74279573,"location_subtype":"","month":"2019-05"},{"category":"anti-social-behaviour","location_type":"Force","location":{"latitude":"51.530340","street":{"id":961360,"name":"On or near Horatio Street"},"longitude":"-0.069603"},"context":"","outcome_status":null,"persistent_id":"","id":74274903,"location_subtype":"","month":"2019-05"},{"category":"anti-social-behaviour","location_type":"Force","location":{"latitude":"51.524775","street":{"id":961311,"name":"On or near Turville Street"},"longitude":"-0.073500"},"context":"","outcome_status":null,"persistent_id":"","id":74274960,"location_subtype":"","month":"2019-05"},{"category":"anti-social-behaviour","location_type":"Force","location":{"latitude":"51.526658","street":{"id":961470,"name":"On or near Hocker Street"},"longitude":"-0.074848"},"context":"","outcome_status":null,"persistent_id":"","id":74274989,"location_subtype":"","month":"2019-05"},{"category":"anti-social-behaviour","location_type":"Force","location":{"latitude":"51.547623","street":{"id":968340,"name":"On or near St Paul's Place"},"longitude":"-0.088228"},"context":"","outcome_status":null,"persistent_id":"","id":74279572,"location_subtype":"","month":"2019-05"},{"category":"anti-social-behaviour","location_type":"Force","location":{"latitude":"51.524775","street":{"id":961311,"name":"On or near Turville Street"},"longitude":"-0.073500"},"context":"","outcome_status":null,"persistent_id":"","id":74274961,"location_subtype":"","month":"2019-05"},{"category":"anti-social-behaviour","location_type":"Force","location":{"latitude":"51.526658","street":{"id":961470,"name":"On or near Hocker Street"},"longitude":"-0.074848"},"context":"","outcome_status":null,"persistent_id":"","id":74274987,"location_subtype":"","month":"2019-05"},{"category":"anti-social-behaviour","location_type":"Force","location":{"latitude":"51.542414","street":{"id":964531,"name":"On or near Northchurch Road"},"longitude":"-0.088100"},"context":"","outcome_status":null,"persistent_id":"","id":74279560,"location_subtype":"","month":"2019-05"},{"category":"anti-social-behaviour","location_type":"Force","location":{"latitude":"51.526249","street":{"id":961515,"name":"On or near Arnold Circus"},"longitude":"-0.074592"},"context":"","outcome_status":null,"persistent_id":"","id":74274986,"location_subtype":"","month":"2019-05"},{"category":"anti-social-behaviour","location_type":"Force","location":{"latitude":"51.525931","street":{"id":961336,"name":"On or near Rochelle Street"},"longitude":"-0.073826"},"context":"","outcome_status":null,"persistent_id":"","id":74274981,"location_subtype":"","month":"2019-05"},{"category":"anti-social-behaviour","location_type":"Force","location":{"latitude":"51.524775","street":{"id":961311,"name":"On or near Turville Street"},"longitude":"-0.073500"},"context":"","outcome_status":null,"persistent_id":"","id":74274980,"location_subtype":"","month":"2019-05"},{"category":"anti-social-behaviour","location_type":"Force","location":{"latitude":"51.539236","street":{"id":964240,"name":"On or near Downham Road"},"longitude":"-0.081254"},"context":"","outcome_status":null,"persistent_id":"","id":74282699,"location_subtype":"","month":"2019-05"},{"category":"anti-social-behaviour","location_type":"Force","location":{"latitude":"51.542676","street":{"id":964244,"name":"On or near Culford Road"},"longitude":"-0.081556"},"context":"","outcome_status":null,"persistent_id":"","id":74282700,"location_subtype":"","month":"2019-05"},{"category":"anti-social-behaviour","location_type":"Force","location":{"latitude":"51.529866","street":{"id":961514,"name":"On or near Aske Street"},"longitude":"-0.081302"},"context":"","outcome_status":null,"persistent_id":"","id":74282708,"location_subtype":"","month":"2019-05"},{"category":"anti-social-behaviour","location_type":"Force","location":{"latitude":"51.526288","street":{"id":961123,"name":"On or near Parking Area"},"longitude":"-0.082995"},"context":"","outcome_status":null,"persistent_id":"","id":74282709,"location_subtype":"","month":"2019-05"},{"category":"anti-social-behaviour","location_type":"Force","location":{"latitude":"51.526288","street":{"id":961123,"name":"On or near Parking Area"},"longitude":"-0.082995"},"context":"","outcome_status":null,"persistent_id":"","id":74282710,"location_subtype":"","month":"2019-05"},{"category":"anti-social-behaviour","location_type":"Force","location":{"latitude":"51.526288","street":{"id":961123,"name":"On or near Parking Area"},"longitude":"-0.082995"},"context":"","outcome_status":null,"persistent_id":"","id":74282711,"location_subtype":"","month":"2019-05"},{"category":"anti-social-behaviour","location_type":"Force","location":{"latitude":"51.541183","street":{"id":964471,"name":"On or near Ufton Road"},"longitude":"-0.083205"},"context":"","outcome_status":null,"persistent_id":"","id":74282715,"location_subtype":"","month":"2019-05"},{"category":"anti-social-behaviour","location_type":"Force","location":{"latitude":"51.525815","street":{"id":961136,"name":"On or near Singer Street"},"longitude":"-0.084889"},"context":"","outcome_status":null,"persistent_id":"","id":74282720,"location_subtype":"","month":"2019-05"},{"category":"anti-social-behaviour","location_type":"Force","location":{"latitude":"51.529252","street":{"id":961151,"name":"On or near Haberdasher Street"},"longitude":"-0.085537"},"context":"","outcome_status":null,"persistent_id":"","id":74282722,"location_subtype":"","month":"2019-05"},{"category":"anti-social-behaviour","location_type":"Force","location":{"latitude":"51.529252","street":{"id":961151,"name":"On or near Haberdasher Street"},"longitude":"-0.085537"},"context":"","outcome_status":null,"persistent_id":"","id":74282723,"location_subtype":"","month":"2019-05"},{"category":"anti-social-behaviour","location_type":"Force","location":{"latitude":"51.529252","street":{"id":961151,"name":"On or near Haberdasher Street"},"longitude":"-0.085537"},"context":"","outcome_status":null,"persistent_id":"","id":74282724,"location_subtype":"","month":"2019-05"},{"category":"anti-social-behaviour","location_type":"Force","location":{"latitude":"51.525884","street":{"id":961184,"name":"On or near Nightclub"},"longitude":"-0.085203"},"context":"","outcome_status":null,"persistent_id":"","id":74282734,"location_subtype":"","month":"2019-05"},{"category":"anti-social-behaviour","location_type":"Force","location":{"latitude":"51.525884","street":{"id":961184,"name":"On or near Nightclub"},"longitude":"-0.085203"},"context":"","outcome_status":null,"persistent_id":"","id":74282735,"location_subtype":"","month":"2019-05"},{"category":"anti-social-behaviour","location_type":"Force","location":{"latitude":"51.525884","street":{"id":961184,"name":"On or near Nightclub"},"longitude":"-0.085203"},"context":"","outcome_status":null,"persistent_id":"","id":74282736,"location_subtype":"","month":"2019-05"},{"category":"anti-social-behaviour","location_type":"Force","location":{"latitude":"51.525884","street":{"id":961184,"name":"On or near Nightclub"},"longitude":"-0.085203"},"context":"","outcome_status":null,"persistent_id":"","id":74282737,"location_subtype":"","month":"2019-05"},{"category":"anti-social-behaviour","location_type":"Force","location":{"latitude":"51.533149","street":{"id":964578,"name":"On or near Mintern Street"},"longitude":"-0.085186"},"context":"","outcome_status":null,"persistent_id":"","id":74282738,"location_subtype":"","month":"2019-05"},{"category":"anti-social-behaviour","location_type":"Force","location":{"latitude":"51.528275","street":{"id":961168,"name":"On or near Chart Street"},"longitude":"-0.085694"},"context":"","outcome_status":null,"persistent_id":"","id":74282740,"location_subtype":"","month":"2019-05"},{"category":"anti-social-behaviour","location_type":"Force","location":{"latitude":"51.527198","street":{"id":961170,"name":"On or near Brunswick Place"},"longitude":"-0.086402"},"context":"","outcome_status":null,"persistent_id":"","id":74282746,"location_subtype":"","month":"2019-05"},{"category":"anti-social-behaviour","location_type":"Force","location":{"latitude":"51.526496","street":{"id":961132,"name":"On or near Vince Street"},"longitude":"-0.085840"},"context":"","outcome_status":null,"persistent_id":"","id":74282749,"location_subtype":"","month":"2019-05"},{"category":"anti-social-behaviour","location_type":"Force","location":{"latitude":"51.526496","street":{"id":961132,"name":"On or near Vince Street"},"longitude":"-0.085840"},"context":"","outcome_status":null,"persistent_id":"","id":74282752,"location_subtype":"","month":"2019-05"},{"category":"anti-social-behaviour","location_type":"Force","location":{"latitude":"51.526496","street":{"id":961132,"name":"On or near Vince Street"},"longitude":"-0.085840"},"context":"","outcome_status":null,"persistent_id":"","id":74282753,"location_subtype":"","month":"2019-05"},{"category":"anti-social-behaviour","location_type":"Force","location":{"latitude":"51.529705","street":{"id":961177,"name":"On or near Allerton Street"},"longitude":"-0.087407"},"context":"","outcome_status":null,"persistent_id":"","id":74282754,"location_subtype":"","month":"2019-05"},{"category":"anti-social-behaviour","location_type":"Force","location":{"latitude":"51.526777","street":{"id":961160,"name":"On or near Cranwood Street"},"longitude":"-0.087039"},"context":"","outcome_status":null,"persistent_id":"","id":74282755,"location_subtype":"","month":"2019-05"},{"category":"anti-social-behaviour","location_type":"Force","location":{"latitude":"51.532452","street":{"id":964570,"name":"On or near Cavendish Street"},"longitude":"-0.088734"},"context":"","outcome_status":null,"persistent_id":"","id":74282757,"location_subtype":"","month":"2019-05"},{"category":"anti-social-behaviour","location_type":"Force","location":{"latitude":"51.532452","street":{"id":964570,"name":"On or near Cavendish Street"},"longitude":"-0.088734"},"context":"","outcome_status":null,"persistent_id":"","id":74282758,"location_subtype":"","month":"2019-05"},{"category":"anti-social-behaviour","location_type":"Force","location":{"latitude":"51.531513","street":{"id":964572,"name":"On or near Evelyn Walk"},"longitude":"-0.087966"},"context":"","outcome_status":null,"persistent_id":"","id":74282760,"location_subtype":"","month":"2019-05"},{"category":"anti-social-behaviour","location_type":"Force","location":{"latitude":"51.531513","street":{"id":964572,"name":"On or near Evelyn Walk"},"longitude":"-0.087966"},"context":"","outcome_status":null,"persistent_id":"","id":74282761,"location_subtype":"","month":"2019-05"},{"category":"anti-social-behaviour","location_type":"Force","location":{"latitude":"51.533530","street":{"id":964579,"name":"On or near Wimbourne Street"},"longitude":"-0.089222"},"context":"","outcome_status":null,"persistent_id":"","id":74282771,"location_subtype":"","month":"2019-05"},{"category":"anti-social-behaviour","location_type":"Force","location":{"latitude":"51.529176","street":{"id":961106,"name":"On or near Britannia Walk"},"longitude":"-0.089678"},"context":"","outcome_status":null,"persistent_id":"","id":74282775,"location_subtype":"","month":"2019-05"},{"category":"anti-social-behaviour","location_type":"Force","location":{"latitude":"51.526658","street":{"id":961470,"name":"On or near Hocker Street"},"longitude":"-0.074848"},"context":"","outcome_status":null,"persistent_id":"","id":74274988,"location_subtype":"","month":"2019-05"},{"category":"anti-social-behaviour","location_type":"Force","location":{"latitude":"51.545694","street":{"id":968464,"name":"On or near Wakeham Street"},"longitude":"-0.086852"},"context":"","outcome_status":null,"persistent_id":"","id":74279559,"location_subtype":"","month":"2019-05"},{"category":"anti-social-behaviour","location_type":"Force","location":{"latitude":"51.549056","street":{"id":968328,"name":"On or near Newington Green Road"},"longitude":"-0.087317"},"context":"","outcome_status":null,"persistent_id":"","id":74279558,"location_subtype":"","month":"2019-05"},{"category":"anti-social-behaviour","location_type":"Force","location":{"latitude":"51.524775","street":{"id":961311,"name":"On or near Turville Street"},"longitude":"-0.073500"},"context":"","outcome_status":null,"persistent_id":"","id":74274979,"location_subtype":"","month":"2019-05"},{"category":"anti-social-behaviour","location_type":"Force","location":{"latitude":"51.531021","street":{"id":961493,"name":"On or near Crondall Street"},"longitude":"-0.082623"},"context":"","outcome_status":null,"persistent_id":"","id":74279415,"location_subtype":"","month":"2019-05"},{"category":"anti-social-behaviour","location_type":"Force","location":{"latitude":"51.539510","street":{"id":964030,"name":"On or near Shore Road"},"longitude":"-0.053137"},"context":"","outcome_status":null,"persistent_id":"","id":74276128,"location_subtype":"","month":"2019-05"},{"category":"anti-social-behaviour","location_type":"Force","location":{"latitude":"51.539510","street":{"id":964030,"name":"On or near Shore Road"},"longitude":"-0.053137"},"context":"","outcome_status":null,"persistent_id":"","id":74276129,"location_subtype":"","month":"2019-05"},{"category":"anti-social-behaviour","location_type":"Force","location":{"latitude":"51.540218","street":{"id":964013,"name":"On or near Weston Walk"},"longitude":"-0.055183"},"context":"","outcome_status":null,"persistent_id":"","id":74276141,"location_subtype":"","month":"2019-05"},{"category":"anti-social-behaviour","location_type":"Force","location":{"latitude":"51.540218","street":{"id":964013,"name":"On or near Weston Walk"},"longitude":"-0.055183"},"context":"","outcome_status":null,"persistent_id":"","id":74276142,"location_subtype":"","month":"2019-05"},{"category":"anti-social-behaviour","location_type":"Force","location":{"latitude":"51.540218","street":{"id":964013,"name":"On or near Weston Walk"},"longitude":"-0.055183"},"context":"","outcome_status":null,"persistent_id":"","id":74276143,"location_subtype":"","month":"2019-05"},{"category":"anti-social-behaviour","location_type":"Force","location":{"latitude":"51.540218","street":{"id":964013,"name":"On or near Weston Walk"},"longitude":"-0.055183"},"context":"","outcome_status":null,"persistent_id":"","id":74276144,"location_subtype":"","month":"2019-05"},{"category":"anti-social-behaviour","location_type":"Force","location":{"latitude":"51.538694","street":{"id":964021,"name":"On or near Tudor Road"},"longitude":"-0.054902"},"context":"","outcome_status":null,"persistent_id":"","id":74276146,"location_subtype":"","month":"2019-05"},{"category":"anti-social-behaviour","location_type":"Force","location":{"latitude":"51.544297","street":{"id":968854,"name":"On or near Mare Street"},"longitude":"-0.055471"},"context":"","outcome_status":null,"persistent_id":"","id":74277245,"location_subtype":"","month":"2019-05"},{"category":"anti-social-behaviour","location_type":"Force","location":{"latitude":"51.544297","street":{"id":968854,"name":"On or near Mare Street"},"longitude":"-0.055471"},"context":"","outcome_status":null,"persistent_id":"","id":74277246,"location_subtype":"","month":"2019-05"},{"category":"anti-social-behaviour","location_type":"Force","location":{"latitude":"51.544297","street":{"id":968854,"name":"On or near Mare Street"},"longitude":"-0.055471"},"context":"","outcome_status":null,"persistent_id":"","id":74277247,"location_subtype":"","month":"2019-05"},{"category":"anti-social-behaviour","location_type":"Force","location":{"latitude":"51.544297","street":{"id":968854,"name":"On or near Mare Street"},"longitude":"-0.055471"},"context":"","outcome_status":null,"persistent_id":"","id":74277248,"location_subtype":"","month":"2019-05"},{"category":"anti-social-behaviour","location_type":"Force","location":{"latitude":"51.544297","street":{"id":968854,"name":"On or near Mare Street"},"longitude":"-0.055471"},"context":"","outcome_status":null,"persistent_id":"","id":74277249,"location_subtype":"","month":"2019-05"},{"category":"anti-social-behaviour","location_type":"Force","location":{"latitude":"51.544297","street":{"id":968854,"name":"On or near Mare Street"},"longitude":"-0.055471"},"context":"","outcome_status":null,"persistent_id":"","id":74277250,"location_subtype":"","month":"2019-05"},{"category":"anti-social-behaviour","location_type":"Force","location":{"latitude":"51.544297","street":{"id":968854,"name":"On or near Mare Street"},"longitude":"-0.055471"},"context":"","outcome_status":null,"persistent_id":"","id":74277251,"location_subtype":"","month":"2019-05"},{"category":"anti-social-behaviour","location_type":"Force","location":{"latitude":"51.544297","street":{"id":968854,"name":"On or near Mare Street"},"longitude":"-0.055471"},"context":"","outcome_status":null,"persistent_id":"","id":74277252,"location_subtype":"","month":"2019-05"},{"category":"anti-social-behaviour","location_type":"Force","location":{"latitude":"51.544297","street":{"id":968854,"name":"On or near Mare Street"},"longitude":"-0.055471"},"context":"","outcome_status":null,"persistent_id":"","id":74277253,"location_subtype":"","month":"2019-05"},{"category":"anti-social-behaviour","location_type":"Force","location":{"latitude":"51.546368","street":{"id":968793,"name":"On or near Marvin Street"},"longitude":"-0.056738"},"context":"","outcome_status":null,"persistent_id":"","id":74277271,"location_subtype":"","month":"2019-05"},{"category":"anti-social-behaviour","location_type":"Force","location":{"latitude":"51.544370","street":{"id":968856,"name":"On or near Florfield Road"},"longitude":"-0.057198"},"context":"","outcome_status":null,"persistent_id":"","id":74277272,"location_subtype":"","month":"2019-05"},{"category":"anti-social-behaviour","location_type":"Force","location":{"latitude":"51.541962","street":{"id":964042,"name":"On or near London Lane"},"longitude":"-0.056753"},"context":"","outcome_status":null,"persistent_id":"","id":74277274,"location_subtype":"","month":"2019-05"},{"category":"anti-social-behaviour","location_type":"Force","location":{"latitude":"51.541962","street":{"id":964042,"name":"On or near London Lane"},"longitude":"-0.056753"},"context":"","outcome_status":null,"persistent_id":"","id":74277275,"location_subtype":"","month":"2019-05"},{"category":"anti-social-behaviour","location_type":"Force","location":{"latitude":"51.537964","street":{"id":964015,"name":"On or near Westgate Street"},"longitude":"-0.056981"},"context":"","outcome_status":null,"persistent_id":"","id":74277276,"location_subtype":"","month":"2019-05"},{"category":"anti-social-behaviour","location_type":"Force","location":{"latitude":"51.537964","street":{"id":964015,"name":"On or near Westgate Street"},"longitude":"-0.056981"},"context":"","outcome_status":null,"persistent_id":"","id":74277277,"location_subtype":"","month":"2019-05"},{"category":"anti-social-behaviour","location_type":"Force","location":{"latitude":"51.537964","street":{"id":964015,"name":"On or near Westgate Street"},"longitude":"-0.056981"},"context":"","outcome_status":null,"persistent_id":"","id":74277278,"location_subtype":"","month":"2019-05"},{"category":"anti-social-behaviour","location_type":"Force","location":{"latitude":"51.535738","street":{"id":964062,"name":"On or near Booth Close"},"longitude":"-0.056700"},"context":"","outcome_status":null,"persistent_id":"","id":74277279,"location_subtype":"","month":"2019-05"},{"category":"anti-social-behaviour","location_type":"Force","location":{"latitude":"51.546241","street":{"id":968790,"name":"On or near Sylvester Road"},"longitude":"-0.056657"},"context":"","outcome_status":null,"persistent_id":"","id":74277284,"location_subtype":"","month":"2019-05"},{"category":"anti-social-behaviour","location_type":"Force","location":{"latitude":"51.546241","street":{"id":968790,"name":"On or near Sylvester Road"},"longitude":"-0.056657"},"context":"","outcome_status":null,"persistent_id":"","id":74277285,"location_subtype":"","month":"2019-05"},{"category":"anti-social-behaviour","location_type":"Force","location":{"latitude":"51.546241","street":{"id":968790,"name":"On or near Sylvester Road"},"longitude":"-0.056657"},"context":"","outcome_status":null,"persistent_id":"","id":74277286,"location_subtype":"","month":"2019-05"},{"category":"anti-social-behaviour","location_type":"Force","location":{"latitude":"51.546241","street":{"id":968790,"name":"On or near Sylvester Road"},"longitude":"-0.056657"},"context":"","outcome_status":null,"persistent_id":"","id":74277287,"location_subtype":"","month":"2019-05"},{"category":"anti-social-behaviour","location_type":"Force","location":{"latitude":"51.546241","street":{"id":968790,"name":"On or near Sylvester Road"},"longitude":"-0.056657"},"context":"","outcome_status":null,"persistent_id":"","id":74277288,"location_subtype":"","month":"2019-05"},{"category":"anti-social-behaviour","location_type":"Force","location":{"latitude":"51.538504","street":{"id":964040,"name":"On or near Mare Street"},"longitude":"-0.057001"},"context":"","outcome_status":null,"persistent_id":"","id":74277289,"location_subtype":"","month":"2019-05"},{"category":"anti-social-behaviour","location_type":"Force","location":{"latitude":"51.544370","street":{"id":968856,"name":"On or near Florfield Road"},"longitude":"-0.057198"},"context":"","outcome_status":null,"persistent_id":"","id":74277291,"location_subtype":"","month":"2019-05"},{"category":"anti-social-behaviour","location_type":"Force","location":{"latitude":"51.544370","street":{"id":968856,"name":"On or near Florfield Road"},"longitude":"-0.057198"},"context":"","outcome_status":null,"persistent_id":"","id":74277292,"location_subtype":"","month":"2019-05"},{"category":"anti-social-behaviour","location_type":"Force","location":{"latitude":"51.538504","street":{"id":964040,"name":"On or near Mare Street"},"longitude":"-0.057001"},"context":"","outcome_status":null,"persistent_id":"","id":74277298,"location_subtype":"","month":"2019-05"},{"category":"anti-social-behaviour","location_type":"Force","location":{"latitude":"51.544592","street":{"id":968850,"name":"On or near Reading Lane"},"longitude":"-0.057535"},"context":"","outcome_status":null,"persistent_id":"","id":74277302,"location_subtype":"","month":"2019-05"},{"category":"anti-social-behaviour","location_type":"Force","location":{"latitude":"51.536844","street":{"id":964064,"name":"On or near Beck Road"},"longitude":"-0.058326"},"context":"","outcome_status":null,"persistent_id":"","id":74277307,"location_subtype":"","month":"2019-05"},{"category":"anti-social-behaviour","location_type":"Force","location":{"latitude":"51.537636","street":{"id":964014,"name":"On or near Westgate Street"},"longitude":"-0.058884"},"context":"","outcome_status":null,"persistent_id":"","id":74277310,"location_subtype":"","month":"2019-05"},{"category":"anti-social-behaviour","location_type":"Force","location":{"latitude":"51.537636","street":{"id":964014,"name":"On or near Westgate Street"},"longitude":"-0.058884"},"context":"","outcome_status":null,"persistent_id":"","id":74277311,"location_subtype":"","month":"2019-05"},{"category":"anti-social-behaviour","location_type":"Force","location":{"latitude":"51.537636","street":{"id":964014,"name":"On or near Westgate Street"},"longitude":"-0.058884"},"context":"","outcome_status":null,"persistent_id":"","id":74277312,"location_subtype":"","month":"2019-05"},{"category":"anti-social-behaviour","location_type":"Force","location":{"latitude":"51.534691","street":{"id":964065,"name":"On or near Ash Grove"},"longitude":"-0.059167"},"context":"","outcome_status":null,"persistent_id":"","id":74277314,"location_subtype":"","month":"2019-05"},{"category":"anti-social-behaviour","location_type":"Force","location":{"latitude":"51.543132","street":{"id":964056,"name":"On or near Eleanor Road"},"longitude":"-0.058953"},"context":"","outcome_status":null,"persistent_id":"","id":74277315,"location_subtype":"","month":"2019-05"},{"category":"anti-social-behaviour","location_type":"Force","location":{"latitude":"51.543132","street":{"id":964056,"name":"On or near Eleanor Road"},"longitude":"-0.058953"},"context":"","outcome_status":null,"persistent_id":"","id":74277316,"location_subtype":"","month":"2019-05"},{"category":"anti-social-behaviour","location_type":"Force","location":{"latitude":"51.538900","street":{"id":964053,"name":"On or near Exmouth Place"},"longitude":"-0.058642"},"context":"","outcome_status":null,"persistent_id":"","id":74277317,"location_subtype":"","month":"2019-05"},{"category":"anti-social-behaviour","location_type":"Force","location":{"latitude":"51.544521","street":{"id":968857,"name":"On or near Eleanor Road"},"longitude":"-0.060292"},"context":"","outcome_status":null,"persistent_id":"","id":74277325,"location_subtype":"","month":"2019-05"},{"category":"anti-social-behaviour","location_type":"Force","location":{"latitude":"51.545740","street":{"id":968847,"name":"On or near Wilton Way"},"longitude":"-0.059548"},"context":"","outcome_status":null,"persistent_id":"","id":74277327,"location_subtype":"","month":"2019-05"},{"category":"anti-social-behaviour","location_type":"Force","location":{"latitude":"51.537636","street":{"id":964014,"name":"On or near Westgate Street"},"longitude":"-0.058884"},"context":"","outcome_status":null,"persistent_id":"","id":74277330,"location_subtype":"","month":"2019-05"},{"category":"anti-social-behaviour","location_type":"Force","location":{"latitude":"51.535791","street":{"id":964068,"name":"On or near Ada Street"},"longitude":"-0.060981"},"context":"","outcome_status":null,"persistent_id":"","id":74277333,"location_subtype":"","month":"2019-05"},{"category":"anti-social-behaviour","location_type":"Force","location":{"latitude":"51.548160","street":{"id":968795,"name":"On or near Marcon Place"},"longitude":"-0.060166"},"context":"","outcome_status":null,"persistent_id":"","id":74277342,"location_subtype":"","month":"2019-05"},{"category":"anti-social-behaviour","location_type":"Force","location":{"latitude":"51.536766","street":{"id":964321,"name":"On or near Broadway Market"},"longitude":"-0.061732"},"context":"","outcome_status":null,"persistent_id":"","id":74277343,"location_subtype":"","month":"2019-05"},{"category":"anti-social-behaviour","location_type":"Force","location":{"latitude":"51.536766","street":{"id":964321,"name":"On or near Broadway Market"},"longitude":"-0.061732"},"context":"","outcome_status":null,"persistent_id":"","id":74277344,"location_subtype":"","month":"2019-05"},{"category":"anti-social-behaviour","location_type":"Force","location":{"latitude":"51.548371","street":{"id":968496,"name":"On or near Spurstowe Terrace"},"longitude":"-0.061470"},"context":"","outcome_status":null,"persistent_id":"","id":74277346,"location_subtype":"","month":"2019-05"},{"category":"anti-social-behaviour","location_type":"Force","location":{"latitude":"51.536977","street":{"id":964259,"name":"On or near Welshpool Street"},"longitude":"-0.062012"},"context":"","outcome_status":null,"persistent_id":"","id":74277347,"location_subtype":"","month":"2019-05"},{"category":"anti-social-behaviour","location_type":"Force","location":{"latitude":"51.536977","street":{"id":964259,"name":"On or near Welshpool Street"},"longitude":"-0.062012"},"context":"","outcome_status":null,"persistent_id":"","id":74277348,"location_subtype":"","month":"2019-05"},{"category":"anti-social-behaviour","location_type":"Force","location":{"latitude":"51.534590","street":{"id":964271,"name":"On or near Pritchard's Road"},"longitude":"-0.062849"},"context":"","outcome_status":null,"persistent_id":"","id":74277351,"location_subtype":"","month":"2019-05"},{"category":"anti-social-behaviour","location_type":"Force","location":{"latitude":"51.548311","street":{"id":968512,"name":"On or near Dalston Lane"},"longitude":"-0.063824"},"context":"","outcome_status":null,"persistent_id":"","id":74277353,"location_subtype":"","month":"2019-05"},{"category":"anti-social-behaviour","location_type":"Force","location":{"latitude":"51.548311","street":{"id":968512,"name":"On or near Dalston Lane"},"longitude":"-0.063824"},"context":"","outcome_status":null,"persistent_id":"","id":74277354,"location_subtype":"","month":"2019-05"},{"category":"anti-social-behaviour","location_type":"Force","location":{"latitude":"51.548311","street":{"id":968512,"name":"On or near Dalston Lane"},"longitude":"-0.063824"},"context":"","outcome_status":null,"persistent_id":"","id":74277355,"location_subtype":"","month":"2019-05"},{"category":"anti-social-behaviour","location_type":"Force","location":{"latitude":"51.548311","street":{"id":968512,"name":"On or near Dalston Lane"},"longitude":"-0.063824"},"context":"","outcome_status":null,"persistent_id":"","id":74277356,"location_subtype":"","month":"2019-05"},{"category":"anti-social-behaviour","location_type":"Force","location":{"latitude":"51.548311","street":{"id":968512,"name":"On or near Dalston Lane"},"longitude":"-0.063824"},"context":"","outcome_status":null,"persistent_id":"","id":74277357,"location_subtype":"","month":"2019-05"},{"category":"anti-social-behaviour","location_type":"Force","location":{"latitude":"51.548311","street":{"id":968512,"name":"On or near Dalston Lane"},"longitude":"-0.063824"},"context":"","outcome_status":null,"persistent_id":"","id":74277360,"location_subtype":"","month":"2019-05"},{"category":"anti-social-behaviour","location_type":"Force","location":{"latitude":"51.548311","street":{"id":968512,"name":"On or near Dalston Lane"},"longitude":"-0.063824"},"context":"","outcome_status":null,"persistent_id":"","id":74277361,"location_subtype":"","month":"2019-05"},{"category":"anti-social-behaviour","location_type":"Force","location":{"latitude":"51.545664","street":{"id":968687,"name":"On or near Greenwood Road"},"longitude":"-0.063633"},"context":"","outcome_status":null,"persistent_id":"","id":74277362,"location_subtype":"","month":"2019-05"},{"category":"anti-social-behaviour","location_type":"Force","location":{"latitude":"51.535227","street":{"id":964300,"name":"On or near Govan Street"},"longitude":"-0.063874"},"context":"","outcome_status":null,"persistent_id":"","id":74277363,"location_subtype":"","month":"2019-05"},{"category":"anti-social-behaviour","location_type":"Force","location":{"latitude":"51.542056","street":{"id":964324,"name":"On or near Appleby Road"},"longitude":"-0.062993"},"context":"","outcome_status":null,"persistent_id":"","id":74277366,"location_subtype":"","month":"2019-05"},{"category":"anti-social-behaviour","location_type":"Force","location":{"latitude":"51.544083","street":{"id":968690,"name":"On or near Forest Road"},