[{"category":"anti-social-behaviour","location_type":"Force","location":{"latitude":"51.480912","street":{"id":944602,"name":"On or near Caroline Close"},"longitude":"-0.344561"},"context":"","outcome_status":null,"persistent_id":"","id":74283900,"location_subtype":"","month":"2019-05"},{"category":"anti-social-behaviour","location_type":"Force","location":{"latitude":"51.466353","street":{"id":944064,"name":"On or near Hanworth Road"},"longitude":"-0.363055"},"context":"","outcome_status":null,"persistent_id":"","id":74284715,"location_subtype":"","month":"2019-05"},{"category":"anti-social-behaviour","location_type":"Force","location":{"latitude":"51.467643","street":{"id":944081,"name":"On or near Shopping Area"},"longitude":"-0.363383"},"context":"","outcome_status":null,"persistent_id":"","id":74284716,"location_subtype":"","month":"2019-05"},{"category":"anti-social-behaviour","location_type":"Force","location":{"latitude":"51.475216","street":{"id":944503,"name":"On or near Elmsworth Avenue"},"longitude":"-0.363501"},"context":"","outcome_status":null,"persistent_id":"","id":74284717,"location_subtype":"","month":"2019-05"},{"category":"anti-social-behaviour","location_type":"Force","location":{"latitude":"51.467193","street":{"id":944065,"name":"On or near Grove Road"},"longitude":"-0.363342"},"context":"","outcome_status":null,"persistent_id":"","id":74284718,"location_subtype":"","month":"2019-05"},{"category":"anti-social-behaviour","location_type":"Force","location":{"latitude":"51.476574","street":{"id":944498,"name":"On or near Highlands Close"},"longitude":"-0.363467"},"context":"","outcome_status":null,"persistent_id":"","id":74284719,"location_subtype":"","month":"2019-05"},{"category":"anti-social-behaviour","location_type":"Force","location":{"latitude":"51.464410","street":{"id":944079,"name":"On or near Anderson's Place"},"longitude":"-0.364319"},"context":"","outcome_status":null,"persistent_id":"","id":74284720,"location_subtype":"","month":"2019-05"},{"category":"anti-social-behaviour","location_type":"Force","location":{"latitude":"51.469113","street":{"id":944082,"name":"On or near Police Station"},"longitude":"-0.364338"},"context":"","outcome_status":null,"persistent_id":"","id":74284721,"location_subtype":"","month":"2019-05"},{"category":"anti-social-behaviour","location_type":"Force","location":{"latitude":"51.480019","street":{"id":944491,"name":"On or near Lime Tree Road"},"longitude":"-0.363559"},"context":"","outcome_status":null,"persistent_id":"","id":74284722,"location_subtype":"","month":"2019-05"},{"category":"anti-social-behaviour","location_type":"Force","location":{"latitude":"51.465093","street":{"id":944071,"name":"On or near Bellview Court"},"longitude":"-0.364928"},"context":"","outcome_status":null,"persistent_id":"","id":74284723,"location_subtype":"","month":"2019-05"},{"category":"anti-social-behaviour","location_type":"Force","location":{"latitude":"51.469113","street":{"id":944082,"name":"On or near Police Station"},"longitude":"-0.364338"},"context":"","outcome_status":null,"persistent_id":"","id":74284724,"location_subtype":"","month":"2019-05"},{"category":"anti-social-behaviour","location_type":"Force","location":{"latitude":"51.476067","street":{"id":944505,"name":"On or near Brookwood Road"},"longitude":"-0.363254"},"context":"","outcome_status":null,"persistent_id":"","id":74284725,"location_subtype":"","month":"2019-05"},{"category":"anti-social-behaviour","location_type":"Force","location":{"latitude":"51.476067","street":{"id":944505,"name":"On or near Brookwood Road"},"longitude":"-0.363254"},"context":"","outcome_status":null,"persistent_id":"","id":74284726,"location_subtype":"","month":"2019-05"},{"category":"anti-social-behaviour","location_type":"Force","location":{"latitude":"51.466133","street":{"id":944046,"name":"On or near Wareham Close"},"longitude":"-0.367267"},"context":"","outcome_status":null,"persistent_id":"","id":74284764,"location_subtype":"","month":"2019-05"},{"category":"anti-social-behaviour","location_type":"Force","location":{"latitude":"51.469503","street":{"id":944793,"name":"On or near Kennet Road"},"longitude":"-0.335831"},"context":"","outcome_status":null,"persistent_id":"","id":74283882,"location_subtype":"","month":"2019-05"},{"category":"anti-social-behaviour","location_type":"Force","location":{"latitude":"51.479715","street":{"id":944582,"name":"On or near Ridgeway Road"},"longitude":"-0.340039"},"context":"","outcome_status":null,"persistent_id":"","id":74283889,"location_subtype":"","month":"2019-05"},{"category":"anti-social-behaviour","location_type":"Force","location":{"latitude":"51.467193","street":{"id":943940,"name":"On or near Christabel Close"},"longitude":"-0.340306"},"context":"","outcome_status":null,"persistent_id":"","id":74283890,"location_subtype":"","month":"2019-05"},{"category":"anti-social-behaviour","location_type":"Force","location":{"latitude":"51.480278","street":{"id":944519,"name":"On or near Sutton Road"},"longitude":"-0.368591"},"context":"","outcome_status":null,"persistent_id":"","id":74284777,"location_subtype":"","month":"2019-05"},{"category":"anti-social-behaviour","location_type":"Force","location":{"latitude":"51.464619","street":{"id":944008,"name":"On or near Hibernia Road"},"longitude":"-0.368976"},"context":"","outcome_status":null,"persistent_id":"","id":74284776,"location_subtype":"","month":"2019-05"},{"category":"anti-social-behaviour","location_type":"Force","location":{"latitude":"51.464619","street":{"id":944008,"name":"On or near Hibernia Road"},"longitude":"-0.368976"},"context":"","outcome_status":null,"persistent_id":"","id":74284775,"location_subtype":"","month":"2019-05"},{"category":"anti-social-behaviour","location_type":"Force","location":{"latitude":"51.466996","street":{"id":944041,"name":"On or near Parking Area"},"longitude":"-0.367956"},"context":"","outcome_status":null,"persistent_id":"","id":74284773,"location_subtype":"","month":"2019-05"},{"category":"anti-social-behaviour","location_type":"Force","location":{"latitude":"51.466996","street":{"id":944041,"name":"On or near Parking Area"},"longitude":"-0.367956"},"context":"","outcome_status":null,"persistent_id":"","id":74284772,"location_subtype":"","month":"2019-05"},{"category":"anti-social-behaviour","location_type":"Force","location":{"latitude":"51.466996","street":{"id":944041,"name":"On or near Parking Area"},"longitude":"-0.367956"},"context":"","outcome_status":null,"persistent_id":"","id":74284770,"location_subtype":"","month":"2019-05"},{"category":"anti-social-behaviour","location_type":"Force","location":{"latitude":"51.466996","street":{"id":944041,"name":"On or near Parking Area"},"longitude":"-0.367956"},"context":"","outcome_status":null,"persistent_id":"","id":74284769,"location_subtype":"","month":"2019-05"},{"category":"anti-social-behaviour","location_type":"Force","location":{"latitude":"51.466996","street":{"id":944041,"name":"On or near Parking Area"},"longitude":"-0.367956"},"context":"","outcome_status":null,"persistent_id":"","id":74284768,"location_subtype":"","month":"2019-05"},{"category":"anti-social-behaviour","location_type":"Force","location":{"latitude":"51.474004","street":{"id":944581,"name":"On or near Sidmouth Avenue"},"longitude":"-0.341845"},"context":"","outcome_status":null,"persistent_id":"","id":74283891,"location_subtype":"","month":"2019-05"},{"category":"anti-social-behaviour","location_type":"Force","location":{"latitude":"51.474004","street":{"id":944581,"name":"On or near Sidmouth Avenue"},"longitude":"-0.341845"},"context":"","outcome_status":null,"persistent_id":"","id":74283892,"location_subtype":"","month":"2019-05"},{"category":"anti-social-behaviour","location_type":"Force","location":{"latitude":"51.474004","street":{"id":944581,"name":"On or near Sidmouth Avenue"},"longitude":"-0.341845"},"context":"","outcome_status":null,"persistent_id":"","id":74283893,"location_subtype":"","month":"2019-05"},{"category":"anti-social-behaviour","location_type":"Force","location":{"latitude":"51.474538","street":{"id":944720,"name":"On or near Primrose Place"},"longitude":"-0.333243"},"context":"","outcome_status":null,"persistent_id":"","id":74283873,"location_subtype":"","month":"2019-05"},{"category":"anti-social-behaviour","location_type":"Force","location":{"latitude":"51.472285","street":{"id":944783,"name":"On or near Copper Mill Drive"},"longitude":"-0.334779"},"context":"","outcome_status":null,"persistent_id":"","id":74283876,"location_subtype":"","month":"2019-05"},{"category":"anti-social-behaviour","location_type":"Force","location":{"latitude":"51.468724","street":{"id":943789,"name":"On or near Wheatley Road"},"longitude":"-0.335442"},"context":"","outcome_status":null,"persistent_id":"","id":74283881,"location_subtype":"","month":"2019-05"},{"category":"anti-social-behaviour","location_type":"Force","location":{"latitude":"51.474717","street":{"id":944745,"name":"On or near Parking Area"},"longitude":"-0.337585"},"context":"","outcome_status":null,"persistent_id":"","id":74283885,"location_subtype":"","month":"2019-05"},{"category":"anti-social-behaviour","location_type":"Force","location":{"latitude":"51.470365","street":{"id":944794,"name":"On or near Howard Road"},"longitude":"-0.336966"},"context":"","outcome_status":null,"persistent_id":"","id":74283886,"location_subtype":"","month":"2019-05"},{"category":"anti-social-behaviour","location_type":"Force","location":{"latitude":"51.475910","street":{"id":944765,"name":"On or near Avenue Road"},"longitude":"-0.338031"},"context":"","outcome_status":null,"persistent_id":"","id":74283887,"location_subtype":"","month":"2019-05"},{"category":"anti-social-behaviour","location_type":"Force","location":{"latitude":"51.474459","street":{"id":944584,"name":"On or near Pembroke Place"},"longitude":"-0.344780"},"context":"","outcome_status":null,"persistent_id":"","id":74283896,"location_subtype":"","month":"2019-05"},{"category":"anti-social-behaviour","location_type":"Force","location":{"latitude":"51.476205","street":{"id":944578,"name":"On or near Stanleycroft Close"},"longitude":"-0.345566"},"context":"","outcome_status":null,"persistent_id":"","id":74283897,"location_subtype":"","month":"2019-05"},{"category":"anti-social-behaviour","location_type":"Force","location":{"latitude":"51.479150","street":{"id":944575,"name":"On or near Thornbury Road"},"longitude":"-0.345863"},"context":"","outcome_status":null,"persistent_id":"","id":74283898,"location_subtype":"","month":"2019-05"},{"category":"anti-social-behaviour","location_type":"Force","location":{"latitude":"51.480912","street":{"id":944602,"name":"On or near Caroline Close"},"longitude":"-0.344561"},"context":"","outcome_status":null,"persistent_id":"","id":74283899,"location_subtype":"","month":"2019-05"},{"category":"anti-social-behaviour","location_type":"Force","location":{"latitude":"51.480956","street":{"id":944614,"name":"On or near Thornbury Avenue"},"longitude":"-0.348289"},"context":"","outcome_status":null,"persistent_id":"","id":74283901,"location_subtype":"","month":"2019-05"},{"category":"anti-social-behaviour","location_type":"Force","location":{"latitude":"51.473533","street":{"id":944593,"name":"On or near Honnor Gardens"},"longitude":"-0.346109"},"context":"","outcome_status":null,"persistent_id":"","id":74283903,"location_subtype":"","month":"2019-05"},{"category":"anti-social-behaviour","location_type":"Force","location":{"latitude":"51.472982","street":{"id":944623,"name":"On or near Star Road"},"longitude":"-0.348462"},"context":"","outcome_status":null,"persistent_id":"","id":74283904,"location_subtype":"","month":"2019-05"},{"category":"anti-social-behaviour","location_type":"Force","location":{"latitude":"51.478248","street":{"id":944587,"name":"On or near Oakley Close"},"longitude":"-0.346947"},"context":"","outcome_status":null,"persistent_id":"","id":74283905,"location_subtype":"","month":"2019-05"},{"category":"anti-social-behaviour","location_type":"Force","location":{"latitude":"51.478248","street":{"id":944587,"name":"On or near Oakley Close"},"longitude":"-0.346947"},"context":"","outcome_status":null,"persistent_id":"","id":74283907,"location_subtype":"","month":"2019-05"},{"category":"anti-social-behaviour","location_type":"Force","location":{"latitude":"51.468111","street":{"id":943914,"name":"On or near Elmer Gardens"},"longitude":"-0.348667"},"context":"","outcome_status":null,"persistent_id":"","id":74283908,"location_subtype":"","month":"2019-05"},{"category":"anti-social-behaviour","location_type":"Force","location":{"latitude":"51.476136","street":{"id":944626,"name":"On or near Spring Grove Road"},"longitude":"-0.348290"},"context":"","outcome_status":null,"persistent_id":"","id":74283909,"location_subtype":"","month":"2019-05"},{"category":"anti-social-behaviour","location_type":"Force","location":{"latitude":"51.471839","street":{"id":944657,"name":"On or near London Road"},"longitude":"-0.349698"},"context":"","outcome_status":null,"persistent_id":"","id":74283910,"location_subtype":"","month":"2019-05"},{"category":"anti-social-behaviour","location_type":"Force","location":{"latitude":"51.471839","street":{"id":944657,"name":"On or near London Road"},"longitude":"-0.349698"},"context":"","outcome_status":null,"persistent_id":"","id":74283911,"location_subtype":"","month":"2019-05"},{"category":"anti-social-behaviour","location_type":"Force","location":{"latitude":"51.460373","street":{"id":943893,"name":"On or near Reapers Way"},"longitude":"-0.349637"},"context":"","outcome_status":null,"persistent_id":"","id":74283912,"location_subtype":"","month":"2019-05"},{"category":"anti-social-behaviour","location_type":"Force","location":{"latitude":"51.471839","street":{"id":944657,"name":"On or near London Road"},"longitude":"-0.349698"},"context":"","outcome_status":null,"persistent_id":"","id":74283913,"location_subtype":"","month":"2019-05"},{"category":"anti-social-behaviour","location_type":"Force","location":{"latitude":"51.465712","street":{"id":943917,"name":"On or near Dalmeny Crescent"},"longitude":"-0.350682"},"context":"","outcome_status":null,"persistent_id":"","id":74283916,"location_subtype":"","month":"2019-05"},{"category":"anti-social-behaviour","location_type":"Force","location":{"latitude":"51.483839","street":{"id":951016,"name":"On or near Jersey Road"},"longitude":"-0.349985"},"context":"","outcome_status":null,"persistent_id":"","id":74283917,"location_subtype":"","month":"2019-05"},{"category":"anti-social-behaviour","location_type":"Force","location":{"latitude":"51.474255","street":{"id":944610,"name":"On or near Worton Way"},"longitude":"-0.351368"},"context":"","outcome_status":null,"persistent_id":"","id":74283918,"location_subtype":"","month":"2019-05"},{"category":"anti-social-behaviour","location_type":"Force","location":{"latitude":"51.460257","street":{"id":943892,"name":"On or near Rosebery Road"},"longitude":"-0.353499"},"context":"","outcome_status":null,"persistent_id":"","id":74283919,"location_subtype":"","month":"2019-05"},{"category":"anti-social-behaviour","location_type":"Force","location":{"latitude":"51.482544","street":{"id":951019,"name":"On or near Bassett Gardens"},"longitude":"-0.352538"},"context":"","outcome_status":null,"persistent_id":"","id":74283920,"location_subtype":"","month":"2019-05"},{"category":"anti-social-behaviour","location_type":"Force","location":{"latitude":"51.466996","street":{"id":944041,"name":"On or near Parking Area"},"longitude":"-0.367956"},"context":"","outcome_status":null,"persistent_id":"","id":74284767,"location_subtype":"","month":"2019-05"},{"category":"anti-social-behaviour","location_type":"Force","location":{"latitude":"51.473521","street":{"id":944504,"name":"On or near Clovelly Road"},"longitude":"-0.367017"},"context":"","outcome_status":null,"persistent_id":"","id":74284766,"location_subtype":"","month":"2019-05"},{"category":"anti-social-behaviour","location_type":"Force","location":{"latitude":"51.466133","street":{"id":944046,"name":"On or near Wareham Close"},"longitude":"-0.367267"},"context":"","outcome_status":null,"persistent_id":"","id":74284765,"location_subtype":"","month":"2019-05"},{"category":"anti-social-behaviour","location_type":"Force","location":{"latitude":"51.468059","street":{"id":944074,"name":"On or near Bell Road"},"longitude":"-0.366132"},"context":"","outcome_status":null,"persistent_id":"","id":74284759,"location_subtype":"","month":"2019-05"},{"category":"anti-social-behaviour","location_type":"Force","location":{"latitude":"51.468059","street":{"id":944074,"name":"On or near Bell Road"},"longitude":"-0.366132"},"context":"","outcome_status":null,"persistent_id":"","id":74284758,"location_subtype":"","month":"2019-05"},{"category":"anti-social-behaviour","location_type":"Force","location":{"latitude":"51.468059","street":{"id":944074,"name":"On or near Bell Road"},"longitude":"-0.366132"},"context":"","outcome_status":null,"persistent_id":"","id":74284757,"location_subtype":"","month":"2019-05"},{"category":"anti-social-behaviour","location_type":"Force","location":{"latitude":"51.468059","street":{"id":944074,"name":"On or near Bell Road"},"longitude":"-0.366132"},"context":"","outcome_status":null,"persistent_id":"","id":74284755,"location_subtype":"","month":"2019-05"},{"category":"anti-social-behaviour","location_type":"Force","location":{"latitude":"51.468059","street":{"id":944074,"name":"On or near Bell Road"},"longitude":"-0.366132"},"context":"","outcome_status":null,"persistent_id":"","id":74284754,"location_subtype":"","month":"2019-05"},{"category":"anti-social-behaviour","location_type":"Force","location":{"latitude":"51.468059","street":{"id":944074,"name":"On or near Bell Road"},"longitude":"-0.366132"},"context":"","outcome_status":null,"persistent_id":"","id":74284752,"location_subtype":"","month":"2019-05"},{"category":"anti-social-behaviour","location_type":"Force","location":{"latitude":"51.468059","street":{"id":944074,"name":"On or near Bell Road"},"longitude":"-0.366132"},"context":"","outcome_status":null,"persistent_id":"","id":74284751,"location_subtype":"","month":"2019-05"},{"category":"anti-social-behaviour","location_type":"Force","location":{"latitude":"51.468059","street":{"id":944074,"name":"On or near Bell Road"},"longitude":"-0.366132"},"context":"","outcome_status":null,"persistent_id":"","id":74284753,"location_subtype":"","month":"2019-05"},{"category":"anti-social-behaviour","location_type":"Force","location":{"latitude":"51.478615","street":{"id":944603,"name":"On or near Aplin Way"},"longitude":"-0.342988"},"context":"","outcome_status":null,"persistent_id":"","id":74283894,"location_subtype":"","month":"2019-05"},{"category":"anti-social-behaviour","location_type":"Force","location":{"latitude":"51.468059","street":{"id":944074,"name":"On or near Bell Road"},"longitude":"-0.366132"},"context":"","outcome_status":null,"persistent_id":"","id":74284750,"location_subtype":"","month":"2019-05"},{"category":"anti-social-behaviour","location_type":"Force","location":{"latitude":"51.468059","street":{"id":944074,"name":"On or near Bell Road"},"longitude":"-0.366132"},"context":"","outcome_status":null,"persistent_id":"","id":74284749,"location_subtype":"","month":"2019-05"},{"category":"anti-social-behaviour","location_type":"Force","location":{"latitude":"51.468059","street":{"id":944074,"name":"On or near Bell Road"},"longitude":"-0.366132"},"context":"","outcome_status":null,"persistent_id":"","id":74284748,"location_subtype":"","month":"2019-05"},{"category":"anti-social-behaviour","location_type":"Force","location":{"latitude":"51.468059","street":{"id":944074,"name":"On or near Bell Road"},"longitude":"-0.366132"},"context":"","outcome_status":null,"persistent_id":"","id":74284747,"location_subtype":"","month":"2019-05"},{"category":"anti-social-behaviour","location_type":"Force","location":{"latitude":"51.473895","street":{"id":944533,"name":"On or near Harte Road"},"longitude":"-0.375183"},"context":"","outcome_status":null,"persistent_id":"","id":74284782,"location_subtype":"","month":"2019-05"},{"category":"anti-social-behaviour","location_type":"Force","location":{"latitude":"51.467764","street":{"id":944006,"name":"On or near Hospital Road"},"longitude":"-0.371412"},"context":"","outcome_status":null,"persistent_id":"","id":74284780,"location_subtype":"","month":"2019-05"},{"category":"anti-social-behaviour","location_type":"Force","location":{"latitude":"51.467764","street":{"id":944006,"name":"On or near Hospital Road"},"longitude":"-0.371412"},"context":"","outcome_status":null,"persistent_id":"","id":74284779,"location_subtype":"","month":"2019-05"},{"category":"anti-social-behaviour","location_type":"Force","location":{"latitude":"51.464003","street":{"id":944023,"name":"On or near Cambria Close"},"longitude":"-0.369344"},"context":"","outcome_status":null,"persistent_id":"","id":74284778,"location_subtype":"","month":"2019-05"},{"category":"anti-social-behaviour","location_type":"Force","location":{"latitude":"51.463489","street":{"id":944080,"name":"On or near Alice Way"},"longitude":"-0.366656"},"context":"","outcome_status":null,"persistent_id":"","id":74284762,"location_subtype":"","month":"2019-05"},{"category":"anti-social-behaviour","location_type":"Force","location":{"latitude":"51.468059","street":{"id":944074,"name":"On or near Bell Road"},"longitude":"-0.366132"},"context":"","outcome_status":null,"persistent_id":"","id":74284756,"location_subtype":"","month":"2019-05"},{"category":"anti-social-behaviour","location_type":"Force","location":{"latitude":"51.463489","street":{"id":944080,"name":"On or near Alice Way"},"longitude":"-0.366656"},"context":"","outcome_status":null,"persistent_id":"","id":74284761,"location_subtype":"","month":"2019-05"},{"category":"anti-social-behaviour","location_type":"Force","location":{"latitude":"51.468059","street":{"id":944074,"name":"On or near Bell Road"},"longitude":"-0.366132"},"context":"","outcome_status":null,"persistent_id":"","id":74284760,"location_subtype":"","month":"2019-05"},{"category":"anti-social-behaviour","location_type":"Force","location":{"latitude":"51.470923","street":{"id":944551,"name":"On or near Dene Avenue"},"longitude":"-0.376181"},"context":"","outcome_status":null,"persistent_id":"","id":74284817,"location_subtype":"","month":"2019-05"},{"category":"anti-social-behaviour","location_type":"Force","location":{"latitude":"51.473533","street":{"id":944593,"name":"On or near Honnor Gardens"},"longitude":"-0.346109"},"context":"","outcome_status":null,"persistent_id":"","id":74283902,"location_subtype":"","month":"2019-05"},{"category":"anti-social-behaviour","location_type":"Force","location":{"latitude":"51.481266","street":{"id":944529,"name":"On or near Old Park Mews"},"longitude":"-0.374978"},"context":"","outcome_status":null,"persistent_id":"","id":74284811,"location_subtype":"","month":"2019-05"},{"category":"anti-social-behaviour","location_type":"Force","location":{"latitude":"51.481266","street":{"id":944529,"name":"On or near Old Park Mews"},"longitude":"-0.374978"},"context":"","outcome_status":null,"persistent_id":"","id":74284810,"location_subtype":"","month":"2019-05"},{"category":"anti-social-behaviour","location_type":"Force","location":{"latitude":"51.481266","street":{"id":944529,"name":"On or near Old Park Mews"},"longitude":"-0.374978"},"context":"","outcome_status":null,"persistent_id":"","id":74284808,"location_subtype":"","month":"2019-05"},{"category":"anti-social-behaviour","location_type":"Force","location":{"latitude":"51.481266","street":{"id":944529,"name":"On or near Old Park Mews"},"longitude":"-0.374978"},"context":"","outcome_status":null,"persistent_id":"","id":74284809,"location_subtype":"","month":"2019-05"},{"category":"anti-social-behaviour","location_type":"Force","location":{"latitude":"51.478136","street":{"id":944639,"name":"On or near Chamberlain Gardens"},"longitude":"-0.354295"},"context":"","outcome_status":null,"persistent_id":"","id":74283921,"location_subtype":"","month":"2019-05"},{"category":"anti-social-behaviour","location_type":"Force","location":{"latitude":"51.478248","street":{"id":944587,"name":"On or near Oakley Close"},"longitude":"-0.346947"},"context":"","outcome_status":null,"persistent_id":"","id":74283906,"location_subtype":"","month":"2019-05"},{"category":"anti-social-behaviour","location_type":"Force","location":{"latitude":"51.470391","street":{"id":944555,"name":"On or near Bulstrode Gardens"},"longitude":"-0.374141"},"context":"","outcome_status":null,"persistent_id":"","id":74284801,"location_subtype":"","month":"2019-05"},{"category":"anti-social-behaviour","location_type":"Force","location":{"latitude":"51.465423","street":{"id":944029,"name":"On or near Benson Close"},"longitude":"-0.373151"},"context":"","outcome_status":null,"persistent_id":"","id":74284791,"location_subtype":"","month":"2019-05"},{"category":"anti-social-behaviour","location_type":"Force","location":{"latitude":"51.465423","street":{"id":944029,"name":"On or near Benson Close"},"longitude":"-0.373151"},"context":"","outcome_status":null,"persistent_id":"","id":74284790,"location_subtype":"","month":"2019-05"},{"category":"anti-social-behaviour","location_type":"Force","location":{"latitude":"51.477656","street":{"id":944534,"name":"On or near Harris Close"},"longitude":"-0.372126"},"context":"","outcome_status":null,"persistent_id":"","id":74284789,"location_subtype":"","month":"2019-05"},{"category":"anti-social-behaviour","location_type":"Force","location":{"latitude":"51.465858","street":{"id":944014,"name":"On or near Estridge Close"},"longitude":"-0.372085"},"context":"","outcome_status":null,"persistent_id":"","id":74284788,"location_subtype":"","month":"2019-05"},{"category":"anti-social-behaviour","location_type":"Force","location":{"latitude":"51.465858","street":{"id":944014,"name":"On or near Estridge Close"},"longitude":"-0.372085"},"context":"","outcome_status":null,"persistent_id":"","id":74284787,"location_subtype":"","month":"2019-05"},{"category":"anti-social-behaviour","location_type":"Force","location":{"latitude":"51.469661","street":{"id":944552,"name":"On or near Clipstone Road"},"longitude":"-0.370755"},"context":"","outcome_status":null,"persistent_id":"","id":74284786,"location_subtype":"","month":"2019-05"},{"category":"anti-social-behaviour","location_type":"Force","location":{"latitude":"51.471245","street":{"id":944786,"name":"On or near Braddock Close"},"longitude":"-0.333104"},"context":"","outcome_status":null,"persistent_id":"","id":74283870,"location_subtype":"","month":"2019-05"},{"category":"anti-social-behaviour","location_type":"Force","location":{"latitude":"51.467465","street":{"id":943788,"name":"On or near Worton Road"},"longitude":"-0.335430"},"context":"","outcome_status":null,"persistent_id":"","id":74283875,"location_subtype":"","month":"2019-05"},{"category":"anti-social-behaviour","location_type":"Force","location":{"latitude":"51.472285","street":{"id":944783,"name":"On or near Copper Mill Drive"},"longitude":"-0.334779"},"context":"","outcome_status":null,"persistent_id":"","id":74283877,"location_subtype":"","month":"2019-05"},{"category":"anti-social-behaviour","location_type":"Force","location":{"latitude":"51.481266","street":{"id":944529,"name":"On or near Old Park Mews"},"longitude":"-0.374978"},"context":"","outcome_status":null,"persistent_id":"","id":74284802,"location_subtype":"","month":"2019-05"},{"category":"anti-social-behaviour","location_type":"Force","location":{"latitude":"51.466996","street":{"id":944041,"name":"On or near Parking Area"},"longitude":"-0.367956"},"context":"","outcome_status":null,"persistent_id":"","id":74284771,"location_subtype":"","month":"2019-05"},{"category":"anti-social-behaviour","location_type":"Force","location":{"latitude":"51.476067","street":{"id":944505,"name":"On or near Brookwood Road"},"longitude":"-0.363254"},"context":"","outcome_status":null,"persistent_id":"","id":74284727,"location_subtype":"","month":"2019-05"},{"category":"anti-social-behaviour","location_type":"Force","location":{"latitude":"51.475075","street":{"id":944492,"name":"On or near Lampton Road"},"longitude":"-0.364960"},"context":"","outcome_status":null,"persistent_id":"","id":74284728,"location_subtype":"","month":"2019-05"},{"category":"anti-social-behaviour","location_type":"Force","location":{"latitude":"51.469914","street":{"id":944565,"name":"On or near Montague Road"},"longitude":"-0.365058"},"context":"","outcome_status":null,"persistent_id":"","id":74284729,"location_subtype":"","month":"2019-05"},{"category":"anti-social-behaviour","location_type":"Force","location":{"latitude":"51.472281","street":{"id":944568,"name":"On or near Lampton Park Road"},"longitude":"-0.365147"},"context":"","outcome_status":null,"persistent_id":"","id":74284730,"location_subtype":"","month":"2019-05"},{"category":"anti-social-behaviour","location_type":"Force","location":{"latitude":"51.472281","street":{"id":944568,"name":"On or near Lampton Park Road"},"longitude":"-0.365147"},"context":"","outcome_status":null,"persistent_id":"","id":74284731,"location_subtype":"","month":"2019-05"},{"category":"anti-social-behaviour","location_type":"Force","location":{"latitude":"51.462506","street":{"id":944078,"name":"On or near Angelfield"},"longitude":"-0.365813"},"context":"","outcome_status":null,"persistent_id":"","id":74284732,"location_subtype":"","month":"2019-05"},{"category":"anti-social-behaviour","location_type":"Force","location":{"latitude":"51.478702","street":{"id":944502,"name":"On or near Great West Road"},"longitude":"-0.365234"},"context":"","outcome_status":null,"persistent_id":"","id":74284733,"location_subtype":"","month":"2019-05"},{"category":"anti-social-behaviour","location_type":"Force","location":{"latitude":"51.478702","street":{"id":944502,"name":"On or near Great West Road"},"longitude":"-0.365234"},"context":"","outcome_status":null,"persistent_id":"","id":74284734,"location_subtype":"","month":"2019-05"},{"category":"anti-social-behaviour","location_type":"Force","location":{"latitude":"51.475075","street":{"id":944492,"name":"On or near Lampton Road"},"longitude":"-0.364960"},"context":"","outcome_status":null,"persistent_id":"","id":74284735,"location_subtype":"","month":"2019-05"},{"category":"anti-social-behaviour","location_type":"Force","location":{"latitude":"51.475075","street":{"id":944492,"name":"On or near Lampton Road"},"longitude":"-0.364960"},"context":"","outcome_status":null,"persistent_id":"","id":74284736,"location_subtype":"","month":"2019-05"},{"category":"anti-social-behaviour","location_type":"Force","location":{"latitude":"51.468059","street":{"id":944074,"name":"On or near Bell Road"},"longitude":"-0.366132"},"context":"","outcome_status":null,"persistent_id":"","id":74284738,"location_subtype":"","month":"2019-05"},{"category":"anti-social-behaviour","location_type":"Force","location":{"latitude":"51.468059","street":{"id":944074,"name":"On or near Bell Road"},"longitude":"-0.366132"},"context":"","outcome_status":null,"persistent_id":"","id":74284737,"location_subtype":"","month":"2019-05"},{"category":"anti-social-behaviour","location_type":"Force","location":{"latitude":"51.468059","street":{"id":944074,"name":"On or near Bell Road"},"longitude":"-0.366132"},"context":"","outcome_status":null,"persistent_id":"","id":74284739,"location_subtype":"","month":"2019-05"},{"category":"anti-social-behaviour","location_type":"Force","location":{"latitude":"51.468059","street":{"id":944074,"name":"On or near Bell Road"},"longitude":"-0.366132"},"context":"","outcome_status":null,"persistent_id":"","id":74284740,"location_subtype":"","month":"2019-05"},{"category":"anti-social-behaviour","location_type":"Force","location":{"latitude":"51.468059","street":{"id":944074,"name":"On or near Bell Road"},"longitude":"-0.366132"},"context":"","outcome_status":null,"persistent_id":"","id":74284741,"location_subtype":"","month":"2019-05"},{"category":"anti-social-behaviour","location_type":"Force","location":{"latitude":"51.468059","street":{"id":944074,"name":"On or near Bell Road"},"longitude":"-0.366132"},"context":"","outcome_status":null,"persistent_id":"","id":74284742,"location_subtype":"","month":"2019-05"},{"category":"anti-social-behaviour","location_type":"Force","location":{"latitude":"51.468059","street":{"id":944074,"name":"On or near Bell Road"},"longitude":"-0.366132"},"context":"","outcome_status":null,"persistent_id":"","id":74284743,"location_subtype":"","month":"2019-05"},{"category":"anti-social-behaviour","location_type":"Force","location":{"latitude":"51.468059","street":{"id":944074,"name":"On or near Bell Road"},"longitude":"-0.366132"},"context":"","outcome_status":null,"persistent_id":"","id":74284744,"location_subtype":"","month":"2019-05"},{"category":"anti-social-behaviour","location_type":"Force","location":{"latitude":"51.468059","street":{"id":944074,"name":"On or near Bell Road"},"longitude":"-0.366132"},"context":"","outcome_status":null,"persistent_id":"","id":74284745,"location_subtype":"","month":"2019-05"},{"category":"anti-social-behaviour","location_type":"Force","location":{"latitude":"51.468059","street":{"id":944074,"name":"On or near Bell Road"},"longitude":"-0.366132"},"context":"","outcome_status":null,"persistent_id":"","id":74284746,"location_subtype":"","month":"2019-05"},{"category":"anti-social-behaviour","location_type":"Force","location":{"latitude":"51.472696","street":{"id":944631,"name":"On or near North Drive"},"longitude":"-0.353699"},"context":"","outcome_status":null,"persistent_id":"","id":74284685,"location_subtype":"","month":"2019-05"},{"category":"anti-social-behaviour","location_type":"Force","location":{"latitude":"51.477412","street":{"id":944619,"name":"On or near Taylor Close"},"longitude":"-0.354652"},"context":"","outcome_status":null,"persistent_id":"","id":74284686,"location_subtype":"","month":"2019-05"},{"category":"anti-social-behaviour","location_type":"Force","location":{"latitude":"51.470829","street":{"id":944658,"name":"On or near London Road"},"longitude":"-0.353953"},"context":"","outcome_status":null,"persistent_id":"","id":74284687,"location_subtype":"","month":"2019-05"},{"category":"anti-social-behaviour","location_type":"Force","location":{"latitude":"51.471020","street":{"id":944673,"name":"On or near Bus\/coach Station"},"longitude":"-0.354767"},"context":"","outcome_status":null,"persistent_id":"","id":74284688,"location_subtype":"","month":"2019-05"},{"category":"anti-social-behaviour","location_type":"Force","location":{"latitude":"51.469554","street":{"id":944650,"name":"On or near Parking Area"},"longitude":"-0.355353"},"context":"","outcome_status":null,"persistent_id":"","id":74284689,"location_subtype":"","month":"2019-05"},{"category":"anti-social-behaviour","location_type":"Force","location":{"latitude":"51.469554","street":{"id":944650,"name":"On or near Parking Area"},"longitude":"-0.355353"},"context":"","outcome_status":null,"persistent_id":"","id":74284690,"location_subtype":"","month":"2019-05"},{"category":"anti-social-behaviour","location_type":"Force","location":{"latitude":"51.471775","street":{"id":944668,"name":"On or near Cecil Road"},"longitude":"-0.356597"},"context":"","outcome_status":null,"persistent_id":"","id":74284691,"location_subtype":"","month":"2019-05"},{"category":"anti-social-behaviour","location_type":"Force","location":{"latitude":"51.471775","street":{"id":944668,"name":"On or near Cecil Road"},"longitude":"-0.356597"},"context":"","outcome_status":null,"persistent_id":"","id":74284692,"location_subtype":"","month":"2019-05"},{"category":"anti-social-behaviour","location_type":"Force","location":{"latitude":"51.474974","street":{"id":944480,"name":"On or near Denbigh Road"},"longitude":"-0.360961"},"context":"","outcome_status":null,"persistent_id":"","id":74284710,"location_subtype":"","month":"2019-05"},{"category":"anti-social-behaviour","location_type":"Force","location":{"latitude":"51.478140","street":{"id":944635,"name":"On or near Gresham Road"},"longitude":"-0.355865"},"context":"","outcome_status":null,"persistent_id":"","id":74284693,"location_subtype":"","month":"2019-05"},{"category":"anti-social-behaviour","location_type":"Force","location":{"latitude":"51.470210","street":{"id":944660,"name":"On or near High Street"},"longitude":"-0.355991"},"context":"","outcome_status":null,"persistent_id":"","id":74284695,"location_subtype":"","month":"2019-05"},{"category":"anti-social-behaviour","location_type":"Force","location":{"latitude":"51.466881","street":{"id":943901,"name":"On or near Livingstone Road"},"longitude":"-0.356485"},"context":"","outcome_status":null,"persistent_id":"","id":74284694,"location_subtype":"","month":"2019-05"},{"category":"anti-social-behaviour","location_type":"Force","location":{"latitude":"51.460412","street":{"id":943896,"name":"On or near Park Road"},"longitude":"-0.358157"},"context":"","outcome_status":null,"persistent_id":"","id":74284696,"location_subtype":"","month":"2019-05"},{"category":"anti-social-behaviour","location_type":"Force","location":{"latitude":"51.460412","street":{"id":943896,"name":"On or near Park Road"},"longitude":"-0.358157"},"context":"","outcome_status":null,"persistent_id":"","id":74284697,"location_subtype":"","month":"2019-05"},{"category":"anti-social-behaviour","location_type":"Force","location":{"latitude":"51.471243","street":{"id":944646,"name":"On or near Parking Area"},"longitude":"-0.357178"},"context":"","outcome_status":null,"persistent_id":"","id":74284698,"location_subtype":"","month":"2019-05"},{"category":"anti-social-behaviour","location_type":"Force","location":{"latitude":"51.475875","street":{"id":944618,"name":"On or near Tennyson Road"},"longitude":"-0.358495"},"context":"","outcome_status":null,"persistent_id":"","id":74284699,"location_subtype":"","month":"2019-05"},{"category":"anti-social-behaviour","location_type":"Force","location":{"latitude":"51.475875","street":{"id":944618,"name":"On or near Tennyson Road"},"longitude":"-0.358495"},"context":"","outcome_status":null,"persistent_id":"","id":74284700,"location_subtype":"","month":"2019-05"},{"category":"anti-social-behaviour","location_type":"Force","location":{"latitude":"51.466374","street":{"id":943970,"name":"On or near Inwood Road"},"longitude":"-0.358807"},"context":"","outcome_status":null,"persistent_id":"","id":74284701,"location_subtype":"","month":"2019-05"},{"category":"anti-social-behaviour","location_type":"Force","location":{"latitude":"51.466374","street":{"id":943970,"name":"On or near Inwood Road"},"longitude":"-0.358807"},"context":"","outcome_status":null,"persistent_id":"","id":74284702,"location_subtype":"","month":"2019-05"},{"category":"anti-social-behaviour","location_type":"Force","location":{"latitude":"51.470280","street":{"id":944648,"name":"On or near Parking Area"},"longitude":"-0.359675"},"context":"","outcome_status":null,"persistent_id":"","id":74284703,"location_subtype":"","month":"2019-05"},{"category":"anti-social-behaviour","location_type":"Force","location":{"latitude":"51.476122","street":{"id":944638,"name":"On or near Colwyn Crescent"},"longitude":"-0.358817"},"context":"","outcome_status":null,"persistent_id":"","id":74284704,"location_subtype":"","month":"2019-05"},{"category":"anti-social-behaviour","location_type":"Force","location":{"latitude":"51.467737","street":{"id":943924,"name":"On or near Bristow Road"},"longitude":"-0.359780"},"context":"","outcome_status":null,"persistent_id":"","id":74284705,"location_subtype":"","month":"2019-05"},{"category":"anti-social-behaviour","location_type":"Force","location":{"latitude":"51.476122","street":{"id":944638,"name":"On or near Colwyn Crescent"},"longitude":"-0.358817"},"context":"","outcome_status":null,"persistent_id":"","id":74284706,"location_subtype":"","month":"2019-05"},{"category":"anti-social-behaviour","location_type":"Force","location":{"latitude":"51.465354","street":{"id":944086,"name":"On or near Pownall Road"},"longitude":"-0.361709"},"context":"","outcome_status":null,"persistent_id":"","id":74284707,"location_subtype":"","month":"2019-05"},{"category":"anti-social-behaviour","location_type":"Force","location":{"latitude":"51.465354","street":{"id":944086,"name":"On or near Pownall Road"},"longitude":"-0.361709"},"context":"","outcome_status":null,"persistent_id":"","id":74284708,"location_subtype":"","month":"2019-05"},{"category":"anti-social-behaviour","location_type":"Force","location":{"latitude":"51.462171","street":{"id":944084,"name":"On or near Parking Area"},"longitude":"-0.362384"},"context":"","outcome_status":null,"persistent_id":"","id":74284709,"location_subtype":"","month":"2019-05"},{"category":"anti-social-behaviour","location_type":"Force","location":{"latitude":"51.474974","street":{"id":944480,"name":"On or near Denbigh Road"},"longitude":"-0.360961"},"context":"","outcome_status":null,"persistent_id":"","id":74284711,"location_subtype":"","month":"2019-05"},{"category":"anti-social-behaviour","location_type":"Force","location":{"latitude":"51.478795","street":{"id":944481,"name":"On or near Brackendale Close"},"longitude":"-0.361529"},"context":"","outcome_status":null,"persistent_id":"","id":74284712,"location_subtype":"","month":"2019-05"},{"category":"anti-social-behaviour","location_type":"Force","location":{"latitude":"51.478795","street":{"id":944481,"name":"On or near Brackendale Close"},"longitude":"-0.361529"},"context":"","outcome_status":null,"persistent_id":"","id":74284713,"location_subtype":"","month":"2019-05"},{"category":"anti-social-behaviour","location_type":"Force","location":{"latitude":"51.466353","street":{"id":944064,"name":"On or near Hanworth Road"},"longitude":"-0.363055"},"context":"","outcome_status":null,"persistent_id":"","id":74284714,"location_subtype":"","month":"2019-05"},{"category":"bicycle-theft","location_type":"Force","location":{"latitude":"51.471725","street":{"id":944548,"name":"On or near Sutton Lane"},"longitude":"-0.378240"},"context":"","outcome_status":{"category":"Status update unavailable","date":"2019-09"},"persistent_id":"2122d69727396862cc4048d89a1eef814d68217e3d72241ca9288093c429f1e3","id":74362148,"location_subtype":"","month":"2019-05"},{"category":"bicycle-theft","location_type":"Force","location":{"latitude":"51.468444","street":{"id":943983,"name":"On or near Strafford Road"},"longitude":"-0.376370"},"context":"","outcome_status":{"category":"Investigation complete; no suspect identified","date":"2020-03"},"persistent_id":"3663bd19a13b0478d76954c47c688d41e94d9b7f77e05b1e66b7a26908cbd37c","id":74302730,"location_subtype":"","month":"2019-05"},{"category":"bicycle-theft","location_type":"Force","location":{"latitude":"51.482247","street":{"id":951015,"name":"On or near Osterley Avenue"},"longitude":"-0.349265"},"context":"","outcome_status":{"category":"Status update unavailable","date":"2019-09"},"persistent_id":"15c2c4cbd8394c51e194e779d80834be6ba49d053dde6efe6516fa53bd69a83f","id":74345826,"location_subtype":"","month":"2019-05"},{"category":"bicycle-theft","location_type":"Force","location":{"latitude":"51.476770","street":{"id":944573,"name":"On or near Weston Gardens"},"longitude":"-0.345416"},"context":"","outcome_status":{"category":"Status update unavailable","date":"2019-09"},"persistent_id":"cab426116001fdf3ad53b5c56c5f297c2222a4cafce7ea00dd4bdb0435c820db","id":74296509,"location_subtype":"","month":"2019-05"},{"category":"bicycle-theft","location_type":"Force","location":{"latitude":"51.473099","street":{"id":944607,"name":"On or near Parking Area"},"longitude":"-0.355499"},"context":"","outcome_status":{"category":"Status update unavailable","date":"2019-09"},"persistent_id":"05c6cf0c986e19da2f2fd772a6c545b6819518f77f8a3baa63f4cbe5d1513a29","id":74294651,"location_subtype":"","month":"2019-05"},{"category":"bicycle-theft","location_type":"BTP","location":{"latitude":"51.481200","street":{"id":1488733,"name":"Osterley (lu Station)"},"longitude":"-0.352154"},"context":"","outcome_status":{"category":"Status update unavailable","date":"2019-09"},"persistent_id":"","id":88717870,"location_subtype":"LU STATION","month":"2019-05"},{"category":"bicycle-theft","location_type":"Force","location":{"latitude":"51.463095","street":{"id":944089,"name":"On or near Ivy Road"},"longitude":"-0.361617"},"context":"","outcome_status":{"category":"Status update unavailable","date":"2019-09"},"persistent_id":"0b11f71ad60317112745d22687aab2aaef9c9e6d20003124c049064e8f53e741","id":74333651,"location_subtype":"","month":"2019-05"},{"category":"bicycle-theft","location_type":"Force","location":{"latitude":"51.464410","street":{"id":944079,"name":"On or near Anderson's Place"},"longitude":"-0.364319"},"context":"","outcome_status":{"category":"Status update unavailable","date":"2019-09"},"persistent_id":"ed978ffb0d035b459e847396f9337354c824d00ed8775e65f4905b818e9f857e","id":74347949,"location_subtype":"","month":"2019-05"},{"category":"bicycle-theft","location_type":"Force","location":{"latitude":"51.468263","street":{"id":944094,"name":"On or near Douglas Road"},"longitude":"-0.362051"},"context":"","outcome_status":{"category":"Status update unavailable","date":"2019-09"},"persistent_id":"edcc6fa3d7dba360793c573a61266c58ada21019533f79e3804b8adc44eaa73d","id":74353619,"location_subtype":"","month":"2019-05"},{"category":"bicycle-theft","location_type":"Force","location":{"latitude":"51.467764","street":{"id":944006,"name":"On or near Hospital Road"},"longitude":"-0.371412"},"context":"","outcome_status":{"category":"Status update unavailable","date":"2019-09"},"persistent_id":"fab89069d3a50809ee833140bfce8818f295c396f8296d0e72295d8e855d0d76","id":74311626,"location_subtype":"","month":"2019-05"},{"category":"bicycle-theft","location_type":"Force","location":{"latitude":"51.475095","street":{"id":944574,"name":"On or near Villiers Road"},"longitude":"-0.344642"},"context":"","outcome_status":{"category":"Status update unavailable","date":"2019-09"},"persistent_id":"5d706ebe27b18367ecad1e327d0724c15c66db4715b7dd1366acae3947bd615d","id":74326753,"location_subtype":"","month":"2019-05"},{"category":"bicycle-theft","location_type":"Force","location":{"latitude":"51.476136","street":{"id":944626,"name":"On or near Spring Grove Road"},"longitude":"-0.348290"},"context":"","outcome_status":{"category":"Status update unavailable","date":"2019-09"},"persistent_id":"07c04283c3ba258dc3996b2aac9d405fedf19d59cc74de61f90bdbf5efe44164","id":74318823,"location_subtype":"","month":"2019-05"},{"category":"bicycle-theft","location_type":"Force","location":{"latitude":"51.475292","street":{"id":944620,"name":"On or near Taunton Avenue"},"longitude":"-0.356716"},"context":"","outcome_status":{"category":"Status update unavailable","date":"2019-09"},"persistent_id":"f132890615f164f79768673f6d7af93a71d99a0721c1121c59a4886ce2c27f60","id":74345414,"location_subtype":"","month":"2019-05"},{"category":"burglary","location_type":"Force","location":{"latitude":"51.474717","street":{"id":944745,"name":"On or near Parking Area"},"longitude":"-0.337585"},"context":"","outcome_status":{"category":"Status update unavailable","date":"2019-09"},"persistent_id":"52e4aa37c8c8d2c7ba20640b5d7a094be8454bae2ae970ab28bc0dc4a1cd154e","id":74344652,"location_subtype":"","month":"2019-05"},{"category":"burglary","location_type":"Force","location":{"latitude":"51.462755","street":{"id":944050,"name":"On or near Station Road"},"longitude":"-0.364335"},"context":"","outcome_status":{"category":"Status update unavailable","date":"2019-09"},"persistent_id":"fb3758801a7fc13fba22d338a1ef6dbf12a8cb97177395242c184a8717289fe4","id":74342373,"location_subtype":"","month":"2019-05"},{"category":"burglary","location_type":"Force","location":{"latitude":"51.469508","street":{"id":944655,"name":"On or near Pears Road"},"longitude":"-0.353367"},"context":"","outcome_status":{"category":"Status update unavailable","date":"2019-09"},"persistent_id":"113f1b143ec3c8e9e18a04f5c1d4c9d80c27bf7ec5927c3ed092eff09fedd485","id":74326251,"location_subtype":"","month":"2019-05"},{"category":"burglary","location_type":"Force","location":{"latitude":"51.473300","street":{"id":944615,"name":"On or near The Orchard"},"longitude":"-0.353173"},"context":"","outcome_status":{"category":"Status update unavailable","date":"2019-09"},"persistent_id":"f00261bc6c8dc4cd668bff2f813ccd7bd5b786052a39ddd25319bc1c461521d8","id":74312659,"location_subtype":"","month":"2019-05"},{"category":"burglary","location_type":"Force","location":{"latitude":"51.463095","street":{"id":944089,"name":"On or near Ivy Road"},"longitude":"-0.361617"},"context":"","outcome_status":{"category":"Status update unavailable","date":"2019-09"},"persistent_id":"2f649b0cf7cf52ffda550a745cd94c803c8bce8e90f5e4bf0e72acd73f0d72cb","id":74341771,"location_subtype":"","month":"2019-05"},{"category":"burglary","location_type":"Force","location":{"latitude":"51.464619","street":{"id":944008,"name":"On or near Hibernia Road"},"longitude":"-0.368976"},"context":"","outcome_status":{"category":"Status update unavailable","date":"2019-09"},"persistent_id":"76d5610e2cb1ac9457cb4fc332091f91a2073bfc369fddee1a4e38642fa2b456","id":74352800,"location_subtype":"","month":"2019-05"},{"category":"burglary","location_type":"Force","location":{"latitude":"51.477656","street":{"id":944534,"name":"On or near Harris Close"},"longitude":"-0.372126"},"context":"","outcome_status":{"category":"Offender given penalty notice","date":"2019-08"},"persistent_id":"24e65d51db95ca05a7dba56a0cb6ea0952405d4ecfab658e6df806ed91646da4","id":74304119,"location_subtype":"","month":"2019-05"},{"category":"burglary","location_type":"Force","location":{"latitude":"51.466353","street":{"id":944064,"name":"On or near Hanworth Road"},"longitude":"-0.363055"},"context":"","outcome_status":{"category":"Awaiting court outcome","date":"2020-09"},"persistent_id":"db75455e2312b949038b3d085e86a7b650ea626db1bca0c29508422f35aa71f1","id":74292693,"location_subtype":"","month":"2019-05"},{"category":"burglary","location_type":"Force","location":{"latitude":"51.469123","street":{"id":944679,"name":"On or near Riverside Walk"},"longitude":"-0.340078"},"context":"","outcome_status":{"category":"Status update unavailable","date":"2019-09"},"persistent_id":"f79ccaf1cba3805cc33546d5abbe567ce5ddb65738bf4aa0f4350b8fe15edb00","id":74352959,"location_subtype":"","month":"2019-05"},{"category":"burglary","location_type":"Force","location":{"latitude":"51.466579","street":{"id":943884,"name":"On or near Fleming Way"},"longitude":"-0.336340"},"context":"","outcome_status":{"category":"Status update unavailable","date":"2019-09"},"persistent_id":"517aa187bd50db5e75beabbef02131f1217baf672f09450805bc4b2695bb7d94","id":74293874,"location_subtype":"","month":"2019-05"},{"category":"burglary","location_type":"Force","location":{"latitude":"51.469503","street":{"id":944793,"name":"On or near Kennet Road"},"longitude":"-0.335831"},"context":"","outcome_status":{"category":"Status update unavailable","date":"2019-09"},"persistent_id":"34a4d011e951b256fab3fe8f53f20aec75581662196d44d54396a80ed08a319f","id":74328192,"location_subtype":"","month":"2019-05"},{"category":"burglary","location_type":"Force","location":{"latitude":"51.465191","street":{"id":944062,"name":"On or near Hanworth Terrace"},"longitude":"-0.362967"},"context":"","outcome_status":{"category":"Status update unavailable","date":"2019-09"},"persistent_id":"bfe51a8e8875ccf1c8e94373bc41daaee0145f3339d7ddc6381660c158c44cf8","id":74350932,"location_subtype":"","month":"2019-05"},{"category":"burglary","location_type":"Force","location":{"latitude":"51.466940","street":{"id":943928,"name":"On or near Worton Road"},"longitude":"-0.344663"},"context":"","outcome_status":{"category":"Investigation complete; no suspect identified","date":"2020-09"},"persistent_id":"0507584797cc4db1921952c3cb6f781973457b0ebb5c217c9a88fa381ff45a03","id":74331030,"location_subtype":"","month":"2019-05"},{"category":"burglary","location_type":"Force","location":{"latitude":"51.474004","street":{"id":944581,"name":"On or near Sidmouth Avenue"},"longitude":"-0.341845"},"context":"","outcome_status":{"category":"Status update unavailable","date":"2019-09"},"persistent_id":"951285f39885a2cde7d160743a913cd1f1a4044c444c47139c6e50d133347d95","id":74294323,"location_subtype":"","month":"2019-05"},{"category":"burglary","location_type":"Force","location":{"latitude":"51.473300","street":{"id":944615,"name":"On or near The Orchard"},"longitude":"-0.353173"},"context":"","outcome_status":{"category":"Status update unavailable","date":"2019-09"},"persistent_id":"b3fd67725622f929a9379d26aa4fe57e80c2214fe06f4abae8b42939308d719d","id":74308931,"location_subtype":"","month":"2019-05"},{"category":"burglary","location_type":"Force","location":{"latitude":"51.465191","street":{"id":944062,"name":"On or near Hanworth Terrace"},"longitude":"-0.362967"},"context":"","outcome_status":{"category":"Status update unavailable","date":"2019-09"},"persistent_id":"3a43e88986c261cf72863de45af44d180d706a8d08cdd2c9ee3ec40285354793","id":74327660,"location_subtype":"","month":"2019-05"},{"category":"burglary","location_type":"Force","location":{"latitude":"51.478795","street":{"id":944481,"name":"On or near Brackendale Close"},"longitude":"-0.361529"},"context":"","outcome_status":{"category":"Status update unavailable","date":"2019-09"},"persistent_id":"3b3cff17a2108db3008387dda7c017cc287e7a126b3fafa2983fb712fe769501","id":74332771,"location_subtype":"","month":"2019-05"},{"category":"burglary","location_type":"Force","location":{"latitude":"51.469782","street":{"id":944667,"name":"On or near Crown Yard"},"longitude":"-0.358800"},"context":"","outcome_status":{"category":"Status update unavailable","date":"2019-09"},"persistent_id":"1b06173e80c00fcc8da9b533fe9cd21b4d3e50bff2036252f6fadeef4fcdb5a8","id":74304118,"location_subtype":"","month":"2019-05"},{"category":"burglary","location_type":"Force","location":{"latitude":"51.481372","street":{"id":944521,"name":"On or near Sutton Hall Road"},"longitude":"-0.371619"},"context":"","outcome_status":{"category":"Status update unavailable","date":"2019-09"},"persistent_id":"1399618b5c314979bf195f91272f863f635b4bcd1a239fe29f711739d8267670","id":74342069,"location_subtype":"","month":"2019-05"},{"category":"burglary","location_type":"Force","location":{"latitude":"51.476770","street":{"id":944573,"name":"On or near Weston Gardens"},"longitude":"-0.345416"},"context":"","outcome_status":{"category":"Status update unavailable","date":"2019-09"},"persistent_id":"3dbf4185b3234246d30a4976cac6ac62cef9bf9cc9a59426342985fe24bf4309","id":74296339,"location_subtype":"","month":"2019-05"},{"category":"burglary","location_type":"Force","location":{"latitude":"51.460947","street":{"id":943903,"name":"On or near Leamington Close"},"longitude":"-0.354597"},"context":"","outcome_status":{"category":"Status update unavailable","date":"2019-09"},"persistent_id":"7960b0d45ae31b6e39a86773017a30c127c65892ce7088b4bb5a960089b6efa6","id":74307389,"location_subtype":"","month":"2019-05"},{"category":"burglary","location_type":"Force","location":{"latitude":"51.472021","street":{"id":944665,"name":"On or near Dominion Close"},"longitude":"-0.352341"},"context":"","outcome_status":{"category":"Status update unavailable","date":"2019-09"},"persistent_id":"2e7641f551a264ab0e46427bf2ceb6c5864201b6f4ef6588e645fb8331219565","id":74321032,"location_subtype":"","month":"2019-05"},{"category":"burglary","location_type":"Force","location":{"latitude":"51.484563","street":{"id":951010,"name":"On or near Lingwood Gardens"},"longitude":"-0.341346"},"context":"","outcome_status":{"category":"Status update unavailable","date":"2019-09"},"persistent_id":"321098aba3b5d1d882d4726228c15b43851f5d911473e3ed20553c66b3152a3d","id":74350810,"location_subtype":"","month":"2019-05"},{"category":"burglary","location_type":"Force","location":{"latitude":"51.476282","street":{"id":944751,"name":"On or near Parkland Grove"},"longitude":"-0.336362"},"context":"","outcome_status":{"category":"Status update unavailable","date":"2019-09"},"persistent_id":"5a7952a8e06e2bda36aa1c52a98cd3e78916e07ec0e2a8ab8be8df8e221d2d95","id":74340275,"location_subtype":"","month":"2019-05"},{"category":"burglary","location_type":"Force","location":{"latitude":"51.466579","street":{"id":943884,"name":"On or near Fleming Way"},"longitude":"-0.336340"},"context":"","outcome_status":{"category":"Status update unavailable","date":"2019-09"},"persistent_id":"6e1b2fb291203a9d265aca573cf8162e8b27ebb49637b89f20add305b4a6add4","id":74333885,"location_subtype":"","month":"2019-05"},{"category":"burglary","location_type":"Force","location":{"latitude":"51.472149","street":{"id":944649,"name":"On or near Parking Area"},"longitude":"-0.357045"},"context":"","outcome_status":{"category":"Status update unavailable","date":"2019-09"},"persistent_id":"40756de3e1fb118e1f14c2fb563a4b39a742a1c517254b97e0db88aec07274de","id":74350040,"location_subtype":"","month":"2019-05"},{"category":"burglary","location_type":"Force","location":{"latitude":"51.465159","street":{"id":944052,"name":"On or near Perkin Close"},"longitude":"-0.367129"},"context":"","outcome_status":{"category":"Status update unavailable","date":"2019-09"},"persistent_id":"653b009454272096d20c19a61ef1587c67dfa9240730cc3553f65758413e9226","id":74333669,"location_subtype":"","month":"2019-05"},{"category":"burglary","location_type":"Force","location":{"latitude":"51.473895","street":{"id":944533,"name":"On or near Harte Road"},"longitude":"-0.375183"},"context":"","outcome_status":{"category":"Investigation complete; no suspect identified","date":"2020-10"},"persistent_id":"846b35e3aa4536216190c22b431f5fcfa72d6ba82ce0a4c44046b02734fd8d6f","id":74359171,"location_subtype":"","month":"2019-05"},{"category":"burglary","location_type":"Force","location":{"latitude":"51.481372","street":{"id":944521,"name":"On or near Sutton Hall Road"},"longitude":"-0.371619"},"context":"","outcome_status":{"category":"Status update unavailable","date":"2019-09"},"persistent_id":"876fe8425e151ad8eaa9c9fd7c4354a592ccffe019b54014b555c2e940e99468","id":74340847,"location_subtype":"","month":"2019-05"},{"category":"burglary","location_type":"Force","location":{"latitude":"51.464662","street":{"id":944087,"name":"On or near Pownall Gardens"},"longitude":"-0.361762"},"context":"","outcome_status":{"category":"Status update unavailable","date":"2019-09"},"persistent_id":"4f3f869e6c89f170cc54c4ed30b514c8743b8ee26318487eac7d7c315e6212e7","id":74307422,"location_subtype":"","month":"2019-05"},{"category":"burglary","location_type":"Force","location":{"latitude":"51.464410","street":{"id":944079,"name":"On or near Anderson's Place"},"longitude":"-0.364319"},"context":"","outcome_status":{"category":"Status update unavailable","date":"2019-09"},"persistent_id":"855bf85bfff35eb33e0bf049221cdf70ca64b3d2c5df6210c6a7de22694ef87b","id":74360950,"location_subtype":"","month":"2019-05"},{"category":"burglary","location_type":"Force","location":{"latitude":"51.480591","street":{"id":944500,"name":"On or near Guernsey Close"},"longitude":"-0.367197"},"context":"","outcome_status":{"category":"Status update unavailable","date":"2019-09"},"persistent_id":"d376d61d5cc5436450a2f763a2383cda343d011de25a547daaf0f33a8297f423","id":74318024,"location_subtype":"","month":"2019-05"},{"category":"burglary","location_type":"Force","location":{"latitude":"51.461431","street":{"id":944090,"name":"On or near Hounslow Gardens"},"longitude":"-0.360913"},"context":"","outcome_status":{"category":"Status update unavailable","date":"2019-09"},"persistent_id":"54e831a26265dce3a912518d001c34969fc00c923810c050f46f1632b1d4c432","id":74357806,"location_subtype":"","month":"2019-05"},{"category":"burglary","location_type":"Force","location":{"latitude":"51.462256","street":{"id":944085,"name":"On or near Whitton Road"},"longitude":"-0.362035"},"context":"","outcome_status":{"category":"Status update unavailable","date":"2019-09"},"persistent_id":"47c24c50cc7762ab7da4d77533b19613c851079d7bff764de35c120bda5aa77e","id":74358374,"location_subtype":"","month":"2019-05"},{"category":"burglary","location_type":"Force","location":{"latitude":"51.470829","street":{"id":944658,"name":"On or near London Road"},"longitude":"-0.353953"},"context":"","outcome_status":{"category":"Status update unavailable","date":"2019-09"},"persistent_id":"45876b0f6887328d3771d803aa9ab6aa98d1e885fef0277180bc09a57e76f366","id":74349091,"location_subtype":"","month":"2019-05"},{"category":"criminal-damage-arson","location_type":"Force","location":{"latitude":"51.467115","street":{"id":944093,"name":"On or near Hanworth Road"},"longitude":"-0.362250"},"context":"","outcome_status":{"category":"Investigation complete; no suspect identified","date":"2020-03"},"persistent_id":"f034ad31feba8306cdabf7071a95be0816bd31717331e3bf7c2a460dc8692bf2","id":74341811,"location_subtype":"","month":"2019-05"},{"category":"criminal-damage-arson","location_type":"Force","location":{"latitude":"51.469425","street":{"id":944663,"name":"On or near Gilbert Street"},"longitude":"-0.358338"},"context":"","outcome_status":{"category":"Investigation complete; no suspect identified","date":"2020-03"},"persistent_id":"8c242ce7fd2acd558e975722d88db664ddd2f2d14387cb2bb0f0978fb167acee","id":74301425,"location_subtype":"","month":"2019-05"},{"category":"criminal-damage-arson","location_type":"Force","location":{"latitude":"51.466996","street":{"id":944041,"name":"On or near Parking Area"},"longitude":"-0.367956"},"context":"","outcome_status":{"category":"Investigation complete; no suspect identified","date":"2020-03"},"persistent_id":"d7926553a319a70a7653572dde10fb5616199cfc68cf01550f70bdbb7953a0d6","id":74334292,"location_subtype":"","month":"2019-05"},{"category":"criminal-damage-arson","location_type":"Force","location":{"latitude":"51.479252","street":{"id":944501,"name":"On or near Great West Road"},"longitude":"-0.362752"},"context":"","outcome_status":{"category":"Investigation complete; no suspect identified","date":"2020-03"},"persistent_id":"dbd55f271b8bfd9c3c2b3b24bd5b30a5a5862c957d7a69a6fc2e9409988b51b0","id":74298973,"location_subtype":"","month":"2019-05"},{"category":"criminal-damage-arson","location_type":"Force","location":{"latitude":"51.468674","street":{"id":944059,"name":"On or near Lampton Road"},"longitude":"-0.366370"},"context":"","outcome_status":{"category":"Status update unavailable","date":"2019-09"},"persistent_id":"750db503864800bd14088d3b6ab7d999bf068c6668371051cefad5777588eeaf","id":74350913,"location_subtype":"","month":"2019-05"},{"category":"criminal-damage-arson","location_type":"Force","location":{"latitude":"51.469771","street":{"id":944795,"name":"On or near Greenwood Road"},"longitude":"-0.338197"},"context":"","outcome_status":{"category":"Status update unavailable","date":"2019-09"},"persistent_id":"403bf26a6f01570b2f5e1805d79883125c061a2870e1430d810c2a75d4ce86b3","id":74292031,"location_subtype":"","month":"2019-05"},{"category":"criminal-damage-arson","location_type":"Force","location":{"latitude":"51.476770","street":{"id":944573,"name":"On or near Weston Gardens"},"longitude":"-0.345416"},"context":"","outcome_status":{"category":"Local resolution","date":"2019-05"},"persistent_id":"75b509a8e734840bc0e0a490512abb29db7f4da3a9f75ca481cb4d79591ed381","id":74337631,"location_subtype":"","month":"2019-05"},{"category":"criminal-damage-arson","location_type":"Force","location":{"latitude":"51.464924","street":{"id":943908,"name":"On or near Heath Road"},"longitude":"-0.352841"},"context":"","outcome_status":{"category":"Status update unavailable","date":"2019-09"},"persistent_id":"8589a5799eda245ddb05fbdfef3a2b0bee40a2bee6bbc486625ac4406a2d44e5","id":74341852,"location_subtype":"","month":"2019-05"},{"category":"criminal-damage-arson","location_type":"Force","location":{"latitude":"51.463676","street":{"id":943995,"name":"On or near Nicholes Road"},"longitude":"-0.371673"},"context":"","outcome_status":{"category":"Status update unavailable","date":"2019-09"},"persistent_id":"883e4d095cff1dd3ffd620e0f88373df4a15c60cf9f67f5c89a6d52073808188","id":74341828,"location_subtype":"","month":"2019-05"},{"category":"criminal-damage-arson","location_type":"Force","location":{"latitude":"51.467115","street":{"id":944093,"name":"On or near Hanworth Road"},"longitude":"-0.362250"},"context":"","outcome_status":{"category":"Status update unavailable","date":"2019-09"},"persistent_id":"f034ad31feba8306cdabf7071a95be0816bd31717331e3bf7c2a460dc8692bf2","id":74341810,"location_subtype":"","month":"2019-05"},{"category":"criminal-damage-arson","location_type":"Force","location":{"latitude":"51.467115","street":{"id":944093,"name":"On or near Hanworth Road"},"longitude":"-0.362250"},"context":"","outcome_status":{"category":"Status update unavailable","date":"2019-09"},"persistent_id":"f034ad31feba8306cdabf7071a95be0816bd31717331e3bf7c2a460dc8692bf2","id":74341809,"location_subtype":"","month":"2019-05"},{"category":"criminal-damage-arson","location_type":"Force","location":{"latitude":"51.467115","street":{"id":944093,"name":"On or near Hanworth Road"},"longitude":"-0.362250"},"context":"","outcome_status":{"category":"Status update unavailable","date":"2019-09"},"persistent_id":"f034ad31feba8306cdabf7071a95be0816bd31717331e3bf7c2a460dc8692bf2","id":74341808,"location_subtype":"","month":"2019-05"},{"category":"criminal-damage-arson","location_type":"Force","location":{"latitude":"51.467643","street":{"id":944081,"name":"On or near Shopping Area"},"longitude":"-0.363383"},"context":"","outcome_status":{"category":"Status update unavailable","date":"2019-09"},"persistent_id":"862687aa780c081c5e86a5e7b2ce8fade9b8ad222abb221d9c25ebe7e3ff1bc6","id":74341753,"location_subtype":"","month":"2019-05"},{"category":"criminal-damage-arson","location_type":"Force","location":{"latitude":"51.470075","street":{"id":944567,"name":"On or near Lampton Road"},"longitude":"-0.366881"},"context":"","outcome_status":{"category":"Status update unavailable","date":"2019-09"},"persistent_id":"1ff5294e8657cc2c2dab1f644c7ccfb35d25c8f32c9cc18a86cf49c681eb1035","id":74359620,"location_subtype":"","month":"2019-05"},{"category":"criminal-damage-arson","location_type":"Force","location":{"latitude":"51.475195","street":{"id":944604,"name":"On or near Further\/higher Educational Building"},"longitude":"-0.342176"},"context":"","outcome_status":{"category":"Status update unavailable","date":"2019-09"},"persistent_id":"562196e3da71023c45a5c2ebd66ebe466ea957e2c64e4059cd108d7849c35bf7","id":74335293,"location_subtype":"","month":"2019-05"},{"category":"criminal-damage-arson","location_type":"Force","location":{"latitude":"51.466032","street":{"id":943906,"name":"On or near Heldmann Close"},"longitude":"-0.347921"},"context":"","outcome_status":{"category":"Status update unavailable","date":"2019-09"},"persistent_id":"330e220b99f917ebcb7989698a82a78e9d0566bed6b6876ee7634c39919aa489","id":74335439,"location_subtype":"","month":"2019-05"},{"category":"criminal-damage-arson","location_type":"Force","location":{"latitude":"51.472755","street":{"id":944479,"name":"On or near Ellington Road"},"longitude":"-0.360464"},"context":"","outcome_status":{"category":"Status update unavailable","date":"2019-09"},"persistent_id":"327461c1d7878ba4b90652aef55714e1b7c5b6dc4c53ed21b7a93a2a65d4d753","id":74366695,"location_subtype":"","month":"2019-05"},{"category":"criminal-damage-arson","location_type":"Force","location":{"latitude":"51.472957","street":{"id":944728,"name":"On or near Linkfield Road"},"longitude":"-0.332710"},"context":"","outcome_status":{"category":"Status update unavailable","date":"2019-09"},"persistent_id":"1e49c7c037cd215096dfaa57412678737c37d330c7549a9eba0110722363fd15","id":74327305,"location_subtype":"","month":"2019-05"},{"category":"criminal-damage-arson","location_type":"Force","location":{"latitude":"51.475002","street":{"id":944591,"name":"On or near London Road"},"longitude":"-0.340599"},"context":"","outcome_status":{"category":"Offender given a caution","date":"2019-05"},"persistent_id":"8445c620f2d0f2249ce4f166fe2f4e55ddb5195941749a03745076d8e5229532","id":74299750,"location_subtype":"","month":"2019-05"},{"category":"criminal-damage-arson","location_type":"Force","location":{"latitude":"51.467737","street":{"id":943924,"name":"On or near Bristow Road"},"longitude":"-0.359780"},"context":"","outcome_status":{"category":"Status update unavailable","date":"2019-09"},"persistent_id":"bea4ffe0868d908ad48663e699deea7ccbef7e87b70fc15be6a4d1fb4c19fe9d","id":74339775,"location_subtype":"","month":"2019-05"},{"category":"criminal-damage-arson","location_type":"Force","location":{"latitude":"51.464924","street":{"id":943908,"name":"On or near Heath Road"},"longitude":"-0.352841"},"context":"","outcome_status":{"category":"Status update unavailable","date":"2019-09"},"persistent_id":"7d6cfe1260167d732e9f421f21c65015749ac98a14a35e840ac20b7f558753d6","id":74327017,"location_subtype":"","month":"2019-05"},{"category":"criminal-damage-arson","location_type":"Force","location":{"latitude":"51.467643","street":{"id":944081,"name":"On or near Shopping Area"},"longitude":"-0.363383"},"context":"","outcome_status":{"category":"Status update unavailable","date":"2019-09"},"persistent_id":"51d01e0ac9f03437c96bfbe72f616b762f04ff02acaabf838da59a3af2261853","id":74334289,"location_subtype":"","month":"2019-05"},{"category":"criminal-damage-arson","location_type":"Force","location":{"latitude":"51.467764","street":{"id":944006,"name":"On or near Hospital Road"},"longitude":"-0.371412"},"context":"","outcome_status":{"category":"Status update unavailable","date":"2019-09"},"persistent_id":"22fbd60eb640f3f310a433c7ac668d6b99061607df80f9fa18432c14ff6793c2","id":74370052,"location_subtype":"","month":"2019-05"},{"category":"criminal-damage-arson","location_type":"Force","location":{"latitude":"51.470757","street":{"id":944564,"name":"On or near Queen's Road"},"longitude":"-0.366180"},"context":"","outcome_status":{"category":"Status update unavailable","date":"2019-09"},"persistent_id":"39d52e1f4ee6484606672392c3f0512de4b9581579f3352f896b89b16e31e127","id":74370341,"location_subtype":"","month":"2019-05"},{"category":"criminal-damage-arson","location_type":"Force","location":{"latitude":"51.479279","street":{"id":944644,"name":"On or near Sports\/recreation Area"},"longitude":"-0.350553"},"context":"","outcome_status":{"category":"Status update unavailable","date":"2019-09"},"persistent_id":"1e3ebb6e609a5c190dff73b3f5c3de1e29bf28f2554bcd04f7179c90da3231a2","id":74370381,"location_subtype":"","month":"2019-05"},{"category":"criminal-damage-arson","location_type":"Force","location":{"latitude":"51.466439","street":{"id":944016,"name":"On or near Cromwell Street"},"longitude":"-0.369890"},"context":"","outcome_status":{"category":"Status update unavailable","date":"2019-09"},"persistent_id":"f79abb433f20c3bd2da33dfcddee26ed5994ed31702c9b33f9d33bf5812fb315","id":74329180,"location_subtype":"","month":"2019-05"},{"category":"criminal-damage-arson","location_type":"Force","location":{"latitude":"51.468375","street":{"id":944076,"name":"On or near Bath Road"},"longitude":"-0.368151"},"context":"","outcome_status":{"category":"Court result unavailable","date":"2020-01"},"persistent_id":"1860ee27027bead02b0bcbc46f32d8a225cb4e8cfd9b0456a89ec65e9ca3da1e","id":74342775,"location_subtype":"","month":"2019-05"},{"category":"criminal-damage-arson","location_type":"Force","location":{"latitude":"51.474900","street":{"id":944538,"name":"On or near George Street"},"longitude":"-0.377609"},"context":"","outcome_status":{"category":"Status update unavailable","date":"2019-09"},"persistent_id":"d5ef9eec2a1a3058a3f770e2c6c48fbccc8e9185865fce7cf7695ecac96a9ada","id":74339542,"location_subtype":"","month":"2019-05"},{"category":"criminal-damage-arson","location_type":"BTP","location":{"latitude":"51.481200","street":{"id":1488733,"name":"Osterley (lu Station)"},"longitude":"-0.352154"},"context":"","outcome_status":{"category":"Status update unavailable","date":"2019-09"},"persistent_id":"","id":88717869,"location_subtype":"LU STATION","month":"2019-05"},{"category":"criminal-damage-arson","location_type":"Force","location":{"latitude":"51.474628","street":{"id":944576,"name":"On or near Thornbury Road"},"longitude":"-0.345955"},"context":"","outcome_status":{"category":"Status update unavailable","date":"2019-09"},"persistent_id":"012a0ff526bdd6ddd6095f1803084e1653ba383a0000eed08df858597a131fd5","id":74324917,"location_subtype":"","month":"2019-05"},{"category":"criminal-damage-arson","location_type":"Force","location":{"latitude":"51.472149","street":{"id":944649,"name":"On or near Parking Area"},"longitude":"-0.357045"},"context":"","outcome_status":{"category":"Status update unavailable","date":"2019-09"},"persistent_id":"d3f67c57a45287cdb8daecc1942042514e13abfe7ffb9647136f28af1c3de6ef","id":74342836,"location_subtype":"","month":"2019-05"},{"category":"criminal-damage-arson","location_type":"BTP","location":{"latitude":"51.473200","street":{"id":1488724,"name":"Hounslow East (lu Station)"},"longitude":"-0.356514"},"context":"","outcome_status":{"category":"Status update unavailable","date":"2019-09"},"persistent_id":"","id":88717948,"location_subtype":"LU STATION","month":"2019-05"},{"category":"criminal-damage-arson","location_type":"Force","location":{"latitude":"51.468444","street":{"id":943983,"name":"On or near Strafford Road"},"longitude":"-0.376370"},"context":"","outcome_status":{"category":"Status update unavailable","date":"2019-09"},"persistent_id":"1a1a60dc4cff4b10f25a19f1dba3f98e460f13af0eee29063026bab276c30fdf","id":74294130,"location_subtype":"","month":"2019-05"},{"category":"criminal-damage-arson","location_type":"Force","location":{"latitude":"51.460412","street":{"id":943896,"name":"On or near Park Road"},"longitude":"-0.358157"},"context":"","outcome_status":{"category":"Status update unavailable","date":"2019-09"},"persistent_id":"48c31d98bc801287d03af9b5a8212434bb34ac9680ca7c9d574458c9c50d05b4","id":74297547,"location_subtype":"","month":"2019-05"},{"category":"criminal-damage-arson","location_type":"Force","location":{"latitude":"51.481539","street":{"id":944629,"name":"On or near Penwerris Avenue"},"longitude":"-0.355224"},"context":"","outcome_status":{"category":"Investigation complete; no suspect identified","date":"2020-03"},"persistent_id":"ec0d7caa1a0625413544155918c899ad465bb2600e1ae8c104496ce5c7973d04","id":74347491,"location_subtype":"","month":"2019-05"},{"category":"criminal-damage-arson","location_type":"Force","location":{"latitude":"51.472021","street":{"id":944665,"name":"On or near Dominion Close"},"longitude":"-0.352341"},"context":"","outcome_status":{"category":"Status update unavailable","date":"2019-09"},"persistent_id":"0ddad716b4362995d8e13ac8b39199cb4e2bb5470117c68f22e21cfcd12ddbc7","id":74297887,"location_subtype":"","month":"2019-05"},{"category":"criminal-damage-arson","location_type":"Force","location":{"latitude":"51.465705","street":{"id":944009,"name":"On or near Grove Road"},"longitude":"-0.370176"},"context":"","outcome_status":{"category":"Status update unavailable","date":"2019-09"},"persistent_id":"54de464556bbe76eafdced405937c1afa14cf87bfb39684f569fb0817ced8e7f","id":74299461,"location_subtype":"","month":"2019-05"},{"category":"criminal-damage-arson","location_type":"Force","location":{"latitude":"51.469113","street":{"id":944082,"name":"On or near Police Station"},"longitude":"-0.364338"},"context":"","outcome_status":{"category":"Offender fined","date":"2019-05"},"persistent_id":"715c367bae83fe5a48135ed5008e9f2eaebdbd9e8770b6cd419c63664b8d80fb","id":74329151,"location_subtype":"","month":"2019-05"},{"category":"drugs","location_type":"Force","location":{"latitude":"51.469683","street":{"id":944561,"name":"On or near Parking Area"},"longitude":"-0.362662"},"context":"","outcome_status":{"category":"Offender given penalty notice","date":"2019-05"},"persistent_id":"4599e9d98c3183cb9df4376bafe620049a45ff70d15713569434b6610e8eafda","id":74305850,"location_subtype":"","month":"2019-05"},{"category":"drugs","location_type":"Force","location":{"latitude":"51.470829","street":{"id":944658,"name":"On or near London Road"},"longitude":"-0.353953"},"context":"","outcome_status":{"category":"Offender given a drugs possession warning","date":"2019-05"},"persistent_id":"e8a137bbd1df15eb7ac7ecb1b684ab3009329bad72d3e21802526cb2097da82f","id":74305849,"location_subtype":"","month":"2019-05"},{"category":"drugs","location_type":"Force","location":{"latitude":"51.474717","street":{"id":944745,"name":"On or near Parking Area"},"longitude":"-0.337585"},"context":"","outcome_status":{"category":"Court result unavailable","date":"2019-11"},"persistent_id":"e4977dccad53e7f675156d074af8f5c589ef9ed2fd37a4bfa64e766a530ca76e","id":74313711,"location_subtype":"","month":"2019-05"},{"category":"drugs","location_type":"Force","location":{"latitude":"51.469782","street":{"id":944667,"name":"On or near Crown Yard"},"longitude":"-0.358800"},"context":"","outcome_status":{"category":"Court result unavailable","date":"2019-11"},"persistent_id":"ad0be1489764054ab5c2bca19344e905ffae12d7e9509da6ea64c006741f17af","id":74353223,"location_subtype":"","month":"2019-05"},{"category":"drugs","location_type":"Force","location":{"latitude":"51.470829","street":{"id":944658,"name":"On or near London Road"},"longitude":"-0.353953"},"context":"","outcome_status":{"category":"Offender given penalty notice","date":"2019-05"},"persistent_id":"99c421bd9be01f44b5dfc4b6f52c6a1f5b390736ffe931e674eb71c98dbeba54","id":74363426,"location_subtype":"","month":"2019-05"},{"category":"drugs","location_type":"Force","location":{"latitude":"51.469425","street":{"id":944663,"name":"On or near Gilbert Street"},"longitude":"-0.358338"},"context":"","outcome_status":{"category":"Local resolution","date":"2019-06"},"persistent_id":"384b12def5a62dd951fdb5bcf55fee6ed504ce85f0439155b0d9a3b488722ef0","id":74372506,"location_subtype":"","month":"2019-05"},{"category":"drugs","location_type":"Force","location":{"latitude":"51.459710","street":{"id":943897,"name":"On or near Park Close"},"longitude":"-0.356829"},"context":"","outcome_status":{"category":"Offender given a caution","date":"2019-05"},"persistent_id":"0455713a2cb698b992e2efd9758aff794586be88ed01e61131fd98137d04b1e0","id":74308667,"location_subtype":"","month":"2019-05"},{"category":"drugs","location_type":"Force","location":{"latitude":"51.468874","street":{"id":943904,"name":"On or near James Street"},"longitude":"-0.352382"},"context":"","outcome_status":{"category":"Local resolution","date":"2019-06"},"persistent_id":"390e2b8b23cae5afafcdb5a92e74f6fd3f84b4881a3b6e41e69b49b359962180","id":74308521,"location_subtype":"","month":"2019-05"},{"category":"drugs","location_type":"Force","location":{"latitude":"51.482796","street":{"id":951008,"name":"On or near St Mary's Crescent"},"longitude":"-0.344838"},"context":"","outcome_status":{"category":"Local resolution","date":"2019-05"},"persistent_id":"75c6256ef7c2d58ae87790ac4b9503bb682a60db95f1d83a81a44ed1e900fefe","id":74303455,"location_subtype":"","month":"2019-05"},{"category":"drugs","location_type":"Force","location":{"latitude":"51.469425","street":{"id":944663,"name":"On or near Gilbert Street"},"longitude":"-0.358338"},"context":"","outcome_status":{"category":"Investigation complete; no suspect identified","date":"2020-03"},"persistent_id":"0c9b36c739b2424dbbe2c54a870bb7aa567792da269200d1791ceb00e3dbc5c4","id":74334695,"location_subtype":"","month":"2019-05"},{"category":"drugs","location_type":"Force","location":{"latitude":"51.467737","street":{"id":943924,"name":"On or near Bristow Road"},"longitude":"-0.359780"},"context":"","outcome_status":{"category":"Offender given a caution","date":"2019-06"},"persistent_id":"9bceeb31b7e31b4368892500b9f1ddc99fddf119326a9c1ced3e2b0e7b535462","id":74308384,"location_subtype":"","month":"2019-05"},{"category":"drugs","location_type":"Force","location":{"latitude":"51.466374","street":{"id":943970,"name":"On or near Inwood Road"},"longitude":"-0.358807"},"context":"","outcome_status":{"category":"Local resolution","date":"2019-08"},"persistent_id":"358d90e3733f6a3060fd23d3790cbc376523625d18304a7c7818ca42731844de","id":74330534,"location_subtype":"","month":"2019-05"},{"category":"drugs","location_type":"BTP","location":{"latitude":"51.473200","street":{"id":1488724,"name":"Hounslow East (lu Station)"},"longitude":"-0.356514"},"context":"","outcome_status":{"category":"Status update unavailable","date":"2019-09"},"persistent_id":"","id":88717949,"location_subtype":"LU STATION","month":"2019-05"},{"category":"drugs","location_type":"Force","location":{"latitude":"51.472957","street":{"id":944728,"name":"On or near Linkfield Road"},"longitude":"-0.332710"},"context":"","outcome_status":{"category":"Court result unavailable","date":"2020-07"},"persistent_id":"3fc4140c2aea23eefa28902e02d95f821642348e4302ae278f7d3c5996b9d8a3","id":74306652,"location_subtype":"","month":"2019-05"},{"category":"drugs","location_type":"Force","location":{"latitude":"51.469372","street":{"id":944653,"name":"On or near School Road"},"longitude":"-0.356497"},"context":"","outcome_status":{"category":"Court result unavailable","date":"2020-08"},"persistent_id":"e0288b5adf13e07d335834cfee1c1eac974d5836d6b8489d020dab7feeb85d66","id":74315865,"location_subtype":"","month":"2019-05"},{"category":"drugs","location_type":"Force","location":{"latitude":"51.483451","street":{"id":951076,"name":"On or near Heston Road"},"longitude":"-0.369802"},"context":"","outcome_status":{"category":"Local resolution","date":"2019-10"},"persistent_id":"2b95d77feaf1af9b58df37093ed9d7853710b25d85e4ff1b82eb805ae7614bdb","id":74317259,"location_subtype":"","month":"2019-05"},{"category":"drugs","location_type":"Force","location":{"latitude":"51.468808","street":{"id":943913,"name":"On or near Fairfields Road"},"longitude":"-0.358619"},"context":"","outcome_status":{"category":"Offender given penalty notice","date":"2019-05"},"persistent_id":"0e34e6e9d98b83681cd3840ad308a99bf3a6ffa20e78a08df635340fd9d57245","id":74343002,"location_subtype":"","month":"2019-05"},{"category":"drugs","location_type":"Force","location":{"latitude":"51.473874","street":{"id":944633,"name":"On or near Kingsley Road"},"longitude":"-0.357559"},"context":"","outcome_status":{"category":"Offender given a caution","date":"2019-05"},"persistent_id":"422516940efd7d756a9c2f8147ede207995072cf88371bebc75c42ff87f121ef","id":74307465,"location_subtype":"","month":"2019-05"},{"category":"drugs","location_type":"Force","location":{"latitude":"51.468263","street":{"id":944094,"name":"On or near Douglas Road"},"longitude":"-0.362051"},"context":"","outcome_status":{"category":"Local resolution","date":"2019-05"},"persistent_id":"948473672b9c5aad8dae7f5ff596fe5bafe38bed686f99eaad418149ee5cff43","id":74338926,"location_subtype":"","month":"2019-05"},{"category":"drugs","location_type":"Force","location":{"latitude":"51.468808","street":{"id":943913,"name":"On or near Fairfields Road"},"longitude":"-0.358619"},"context":"","outcome_status":{"category":"Court result unavailable","date":"2019-11"},"persistent_id":"3012e83a0f820ae4716972c6a645c65ee0bc11e35c8d21e762d32e2dd23f3d97","id":74332936,"location_subtype":"","month":"2019-05"},{"category":"drugs","location_type":"Force","location":{"latitude":"51.471839","street":{"id":944657,"name":"On or near London Road"},"longitude":"-0.349698"},"context":"","outcome_status":{"category":"Local resolution","date":"2019-05"},"persistent_id":"a124d4d45ffb44abba965118969f6bc4adb1d12f160896a263b95b4e539802e3","id":74325352,"location_subtype":"","month":"2019-05"},{"category":"drugs","location_type":"Force","location":{"latitude":"51.469425","street":{"id":944663,"name":"On or near Gilbert Street"},"longitude":"-0.358338"},"context":"","outcome_status":{"category":"Local resolution","date":"2019-05"},"persistent_id":"8ea3b66d58df9ba46c776df090c7705a19006fe20eef4b85d51cb7472b98ff3b","id":74335704,"location_subtype":"","month":"2019-05"},{"category":"drugs","location_type":"Force","location":{"latitude":"51.467737","street":{"id":943924,"name":"On or near Bristow Road"},"longitude":"-0.359780"},"context":"","outcome_status":{"category":"Court result unavailable","date":"2019-11"},"persistent_id":"0d1c48c3c29d5fed276bce5ea88c24e9a1eda5fb2685a63a3c853396a9c9dc8b","id":74335213,"location_subtype":"","month":"2019-05"},{"category":"drugs","location_type":"Force","location":{"latitude":"51.474717","street":{"id":944745,"name":"On or near Parking Area"},"longitude":"-0.337585"},"context":"","outcome_status":{"category":"Court result unavailable","date":"2019-11"},"persistent_id":"284feacadc5ce9a3221a2964b1f06627cfe18cd1107827b4cf0019389c03ec78","id":74340746,"location_subtype":"","month":"2019-05"},{"category":"drugs","location_type":"Force","location":{"latitude":"51.469425","street":{"id":944663,"name":"On or near Gilbert Street"},"longitude":"-0.358338"},"context":"","outcome_status":{"category":"Court result unavailable","date":"2020-01"},"persistent_id":"a344ed928e5a282198e36ed8b3925e059a8c155b2ff3deaf1d439ecf8bc022d8","id":74341731,"location_subtype":"","month":"2019-05"},{"category":"drugs","location_type":"Force","location":{"latitude":"51.483839","street":{"id":951016,"name":"On or near Jersey Road"},"longitude":"-0.349985"},"context":"","outcome_status":{"category":"Offender given penalty notice","date":"2019-05"},"persistent_id":"e8e02625d98c16fee575c1d5f3b7c09c4e79ead6121a762ceef33910c5c68f0a","id":74338101,"location_subtype":"","month":"2019-05"},{"category":"drugs","location_type":"Force","location":{"latitude":"51.467737","street":{"id":943924,"name":"On or near Bristow Road"},"longitude":"-0.359780"},"context":"","outcome_status":{"category":"Offender given a caution","date":"2019-05"},"persistent_id":"2fa8dd9c184c84b17912881ec17f93ca07b51684ab7d8c4022d9a364616d118d","id":74332187,"location_subtype":"","month":"2019-05"},{"category":"drugs","location_type":"Force","location":{"latitude":"51.468674","street":{"id":944059,"name":"On or near Lampton Road"},"longitude":"-0.366370"},"context":"","outcome_status":{"category":"Court result unavailable","date":"2019-11"},"persistent_id":"82474edb40f41c16d79e169a605ef23ded9f3d96eab174bd971901927b8c05d4","id":74298868,"location_subtype":"","month":"2019-05"},{"category":"drugs","location_type":"Force","location":{"latitude":"51.466881","street":{"id":943901,"name":"On or near Livingstone Road"},"longitude":"-0.356485"},"context":"","outcome_status":{"category":"Offender given a drugs possession warning","date":"2019-05"},"persistent_id":"c3b81f04b3455457faf7eb817f3ba8a4a48331aee644ce6ad373037523fbcb4d","id":74297970,"location_subtype":"","month":"2019-05"},{"category":"drugs","location_type":"Force","location":{"latitude":"51.462398","street":{"id":943898,"name":"On or near Maswell Park Road"},"longitude":"-0.360001"},"context":"","outcome_status":{"category":"Offender given a drugs possession warning","date":"2019-05"},"persistent_id":"a1c4f98de1384e05cf43772e0b1a1fe37d35e90e2576fd5a30db5258b7b7f39c","id":74324884,"location_subtype":"","month":"2019-05"},{"category":"drugs","location_type":"Force","location":{"latitude":"51.476122","street":{"id":944638,"name":"On or near Colwyn Crescent"},"longitude":"-0.358817"},"context":"","outcome_status":{"category":"Local resolution","date":"2019-05"},"persistent_id":"3d9b70bc66155d24f48dfd7700e0f932f5eadfdfc015a7e8db1f606d76c3dfa0","id":74342922,"location_subtype":"","month":"2019-05"},{"category":"drugs","location_type":"Force","location":{"latitude":"51.466881","street":{"id":943901,"name":"On or near Livingstone Road"},"longitude":"-0.356485"},"context":"","outcome_status":{"category":"Offender given a caution","date":"2019-05"},"persistent_id":"cbb7cc6cf5af4d8adf808f6d44893579587a39194cc46fbd9877d091ec0a5bd0","id":74339498,"location_subtype":"","month":"2019-05"},{"category":"drugs","location_type":"Force","location":{"latitude":"51.469113","street":{"id":944082,"name":"On or near Police Station"},"longitude":"-0.364338"},"context":"","outcome_status":{"category":"Offender given a caution","date":"2019-05"},"persistent_id":"9e2cf571911878374afc734dfdfb582029ed1f308da567c184fa71bf47199c70","id":74329788,"location_subtype":"","month":"2019-05"},{"category":"other-theft","location_type":"Force","location":{"latitude":"51.474047","street":{"id":944613,"name":"On or near Tiverton Road"},"longitude":"-0.359007"},"context":"","outcome_status":{"category":"Status update unavailable","date":"2019-09"},"persistent_id":"40d58286d0b223b24b83f01b012472d2441a6485e83edddcc9d21766ec3aea61","id":74366285,"location_subtype":"","month":"2019-05"},{"category":"other-theft","location_type":"Force","location":{"latitude":"51.468263","street":{"id":944094,"name":"On or near Douglas Road"},"longitude":"-0.362051"},"context":"","outcome_status":{"category":"Status update unavailable","date":"2019-09"},"persistent_id":"2bac62c05a6490e900b7810d2e83d277d9fcbcb9f52c1edeaa11b52a2d07ac22","id":74323369,"location_subtype":"","month":"2019-05"},{"category":"other-theft","location_type":"Force","location":{"latitude":"51.467643","street":{"id":944081,"name":"On or near Shopping Area"},"longitude":"-0.363383"},"context":"","outcome_status":{"category":"Status update unavailable","date":"2019-09"},"persistent_id":"e38e8565c7438456b01fec7748af43f43627fad08f911f5ace750fb6840c98e9","id":74339902,"location_subtype":"","month":"2019-05"},{"category":"other-theft","location_type":"Force","location":{"latitude":"51.480628","street":{"id":944632,"name":"On or near Lulworth Avenue"},"longitude":"-0.358857"},"context":"","outcome_status":{"category":"Status update unavailable","date":"2019-09"},"persistent_id":"096204ec1da50b9581de694947b3008123bac819bb0d3c0e0120397a5f17e339","id":74323858,"location_subtype":"","month":"2019-05"},{"category":"other-theft","location_type":"Force","location":{"latitude":"51.466996","street":{"id":944041,"name":"On or near Parking Area"},"longitude":"-0.367956"},"context":"","outcome_status":{"category":"Status update unavailable","date":"2019-09"},"persistent_id":"e6f0fc48357d0410932b24d33c4ce9051b8438e8f311580750343448cee2ff68","id":74293334,"location_subtype":"","month":"2019-05"},{"category":"other-theft","location_type":"Force","location":{"latitude":"51.473874","street":{"id":944633,"name":"On or near Kingsley Road"},"longitude":"-0.357559"},"context":"","outcome_status":{"category":"Investigation complete; no suspect identified","date":"2020-03"},"persistent_id":"ae8bc292a90465a88055ed5be875b92c16158fa0a4bce497e19d2cfb7074f3af","id":74294774,"location_subtype":"","month":"2019-05"},{"category":"other-theft","location_type":"Force","location":{"latitude":"51.478955","street":{"id":944510,"name":"On or near Petrol Station"},"longitude":"-0.362057"},"context":"","outcome_status":{"category":"Status update unavailable","date":"2019-09"},"persistent_id":"401feefe9e8f0aa19db7a71c4387228d8db72eb41efef22d1167d90c56bef21e","id":74341898,"location_subtype":"","month":"2019-05"},{"category":"other-theft","location_type":"Force","location":{"latitude":"51.478955","street":{"id":944510,"name":"On or near Petrol Station"},"longitude":"-0.362057"},"context":"","outcome_status":{"category":"Status update unavailable","date":"2019-09"},"persistent_id":"03735b51a388f2962da77d0ca1a9e74c293df60cf3c7517edd8a173be01cf4b4","id":74356413,"location_subtype":"","month":"2019-05"},{"category":"other-theft","location_type":"Force","location":{"latitude":"51.466353","street":{"id":944064,"name":"On or near Hanworth Road"},"longitude":"-0.363055"},"context":"","outcome_status":{"category":"Status update unavailable","date":"2019-09"},"persistent_id":"c4e9e36315164a0839e5e898d7bd4227f19097a84458f9ca1cf2c9b2e9f266d3","id":74357259,"location_subtype":"","month":"2019-05"},{"category":"other-theft","location_type":"Force","location":{"latitude":"51.471775","street":{"id":944668,"name":"On or near Cecil Road"},"longitude":"-0.356597"},"context":"","outcome_status":{"category":"Status update unavailable","date":"2019-09"},"persistent_id":"98d25fade39fa007078b7324f8d0fec945dfd10c4a7745561289183bb288f1bf","id":74351954,"location_subtype":"","month":"2019-05"},{"category":"other-theft","location_type":"Force","location":{"latitude":"51.470075","street":{"id":944567,"name":"On or near Lampton Road"},"longitude":"-0.366881"},"context":"","outcome_status":{"category":"Status update unavailable","date":"2019-09"},"persistent_id":"01fd9794575391c14f679ad044098c3bab670445fb8494e0727046462c083e90","id":74310765,"location_subtype":"","month":"2019-05"},{"category":"other-theft","location_type":"Force","location":{"latitude":"51.471775","street":{"id":944668,"name":"On or near Cecil Road"},"longitude":"-0.356597"},"context":"","outcome_status":{"category":"Investigation complete; no suspect identified","date":"2020-03"},"persistent_id":"da63d03467e99172c8349f89593ad070a64e643fe2eba876cd314ece08601c27","id":74346226,"location_subtype":"","month":"2019-05"},{"category":"other-theft","location_type":"Force","location":{"latitude":"51.469113","street":{"id":944082,"name":"On or near Police Station"},"longitude":"-0.364338"},"context":"","outcome_status":{"category":"Status update unavailable","date":"2019-09"},"persistent_id":"be0539a53e90b4f532fa17e2261be77ea44052482af5ed8036362050a17df634","id":74353789,"location_subtype":"","month":"2019-05"},{"category":"other-theft","location_type":"Force","location":{"latitude":"51.471020","street":{"id":944673,"name":"On or near Bus\/coach Station"},"longitude":"-0.354767"},"context":"","outcome_status":{"category":"Status update unavailable","date":"2019-09"},"persistent_id":"4136926da875d979de77418cfc37fbfcab2af3b97cd440c2fe729e45a2af2303","id":74345059,"location_subtype":"","month":"2019-05"},{"category":"other-theft","location_type":"Force","location":{"latitude":"51.470210","street":{"id":944660,"name":"On or near High Street"},"longitude":"-0.355991"},"context":"","outcome_status":{"category":"Investigation complete; no suspect identified","date":"2020-03"},"persistent_id":"8ccc9f551027d35332ca20cfad8e32e388c2dba46d10ea2f3477978a89924948","id":74300565,"location_subtype":"","month":"2019-05"},{"category":"other-theft","location_type":"Force","location":{"latitude":"51.467764","street":{"id":944006,"name":"On or near Hospital Road"},"longitude":"-0.371412"},"context":"","outcome_status":{"category":"Investigation complete; no suspect identified","date":"2020-08"},"persistent_id":"50b27d021aebcf23524a9eda888bf4d316f87dda0171bd692659379217b7c6c4","id":74296627,"location_subtype":"","month":"2019-05"},{"category":"other-theft","location_type":"Force","location":{"latitude":"51.460823","street":{"id":944091,"name":"On or near Hounslow Avenue"},"longitude":"-0.361180"},"context":"","outcome_status":{"category":"Investigation complete; no suspect identified","date":"2020-03"},"persistent_id":"04001b1b0c0d845e4b009c1d346913691c0e5203da0476bc43d7ef911688cdac","id":74313344,"location_subtype":"","month":"2019-05"},{"category":"other-theft","location_type":"Force","location":{"latitude":"51.467643","street":{"id":944081,"name":"On or near Shopping Area"},"longitude":"-0.363383"},"context":"","outcome_status":{"category":"Status update unavailable","date":"2019-09"},"persistent_id":"7dfa41109a81ad30bf4dbfe34314902a6e1046c13d3bc23a2b596b913672101e","id":74315301,"location_subtype":"","month":"2019-05"},{"category":"other-theft","location_type":"Force","location":{"latitude":"51.469113","street":{"id":944082,"name":"On or near Police Station"},"longitude":"-0.364338"},"context":"","outcome_status":{"category":"Status update unavailable","date":"2019-09"},"persistent_id":"b91a3132a515163e3321227574c2f6f52907a50e9e5a705ac77a1bd3df9a0f58","id":74344569,"location_subtype":"","month":"2019-05"},{"category":"other-theft","location_type":"Force","location":{"latitude":"51.474717","street":{"id":944745,"name":"On or near Parking Area"},"longitude":"-0.337585"},"context":"","outcome_status":{"category":"Status update unavailable","date":"2019-09"},"persistent_id":"6ae0827f5b07e61be3c3ef47bc9d6122585ddee5930c12f2ebcbc899130c1d85","id":74315998,"location_subtype":"","month":"2019-05"},{"category":"other-theft","location_type":"Force","location":{"latitude":"51.466996","street":{"id":944041,"name":"On or near Parking Area"},"longitude":"-0.367956"},"context":"","outcome_status":{"category":"Status update unavailable","date":"2019-09"},"persistent_id":"d844a2ab8b043ef7dd4b19c7412b479f5b79ac2cf353c7e65b170ffdf94703cc","id":74341678,"location_subtype":"","month":"2019-05"},{"category":"other-theft","location_type":"Force","location":{"latitude":"51.460257","street":{"id":943892,"name":"On or near Rosebery Road"},"longitude":"-0.353499"},"context":"","outcome_status":{"category":"Status update unavailable","date":"2019-09"},"persistent_id":"6c3170ac281d0c220f0ddb6817041d3d1f2298eea5a0489b2e943d41dcc09712","id":74341599,"location_subtype":"","month":"2019-05"},{"category":"other-theft","location_type":"Force","location":{"latitude":"51.467643","street":{"id":944081,"name":"On or near Shopping Area"},"longitude":"-0.363383"},"context":"","outcome_status":{"category":"Status update unavailable","date":"2019-09"},"persistent_id":"4290ae9facef29935c16db4a7ac0a4171de3313e56e84ac97af646dbe3688f5d","id":74298023,"location_subtype":"","month":"2019-05"},{"category":"other-theft","location_type":"Force","location":{"latitude":"51.475121","street":{"id":923946,"name":"On or near Sports\/recreation Area"},"longitude":"-0.370229"},"context":"","outcome_status":{"category":"Status update unavailable","date":"2019-09"},"persistent_id":"5bf829cd3885238853604f7777c913f883e2d7d25a45b5c47dfc20d503d025c1","id":74353840,"location_subtype":"","month":"2019-05"},{"category":"other-theft","location_type":"Force","location":{"latitude":"51.467643","street":{"id":944081,"name":"On or near Shopping Area"},"longitude":"-0.363383"},"context":"","outcome_status":{"category":"Status update unavailable","date":"2019-09"},"persistent_id":"3d3b91aadc158f5f832ebbaea2e8920085e3c49c1d5212f9388df9c3ec5d1d8a","id":74337193,"location_subtype":"","month":"2019-05"},{"category":"other-theft","location_type":"Force","location":{"latitude":"51.468059","street":{"id":944074,"name":"On or near Bell Road"},"longitude":"-0.366132"},"context":"","outcome_status":{"category":"Investigation complete; no suspect identified","date":"2020-03"},"persistent_id":"3606b21cea11bb6963124ccb64e389c6a097b703eac5810658a3e30d08f1ee25","id":74308774,"location_subtype":"","month":"2019-05"},{"category":"other-theft","location_type":"Force","location":{"latitude":"51.466940","street":{"id":943928,"name":"On or near Worton Road"},"longitude":"-0.344663"},"context":"","outcome_status":{"category":"Status update unavailable","date":"2019-09"},"persistent_id":"c6b3ee5910c600ac7702d8c4432148b31ae01c059b71f1f2020f73128e9cb9e8","id":74317821,"location_subtype":"","month":"2019-05"},{"category":"other-theft","location_type":"Force","location":{"latitude":"51.469855","street":{"id":944659,"name":"On or near Holloway Street"},"longitude":"-0.360136"},