[{"category":"anti-social-behaviour","location_type":"Force","location":{"latitude":"51.497802","street":{"id":952786,"name":"On or near Fairfax Place"},"longitude":"-0.208250"},"context":"","outcome_status":null,"persistent_id":"","id":74279132,"location_subtype":"","month":"2019-05"},{"category":"anti-social-behaviour","location_type":"Force","location":{"latitude":"51.497802","street":{"id":952786,"name":"On or near Fairfax Place"},"longitude":"-0.208250"},"context":"","outcome_status":null,"persistent_id":"","id":74279133,"location_subtype":"","month":"2019-05"},{"category":"anti-social-behaviour","location_type":"Force","location":{"latitude":"51.497802","street":{"id":952786,"name":"On or near Fairfax Place"},"longitude":"-0.208250"},"context":"","outcome_status":null,"persistent_id":"","id":74279134,"location_subtype":"","month":"2019-05"},{"category":"anti-social-behaviour","location_type":"Force","location":{"latitude":"51.497802","street":{"id":952786,"name":"On or near Fairfax Place"},"longitude":"-0.208250"},"context":"","outcome_status":null,"persistent_id":"","id":74279135,"location_subtype":"","month":"2019-05"},{"category":"anti-social-behaviour","location_type":"Force","location":{"latitude":"51.508483","street":{"id":957495,"name":"On or near Penzance Street"},"longitude":"-0.211088"},"context":"","outcome_status":null,"persistent_id":"","id":74279151,"location_subtype":"","month":"2019-05"},{"category":"anti-social-behaviour","location_type":"Force","location":{"latitude":"51.511320","street":{"id":957398,"name":"On or near Walmer Road"},"longitude":"-0.211971"},"context":"","outcome_status":null,"persistent_id":"","id":74279154,"location_subtype":"","month":"2019-05"},{"category":"anti-social-behaviour","location_type":"Force","location":{"latitude":"51.504216","street":{"id":952504,"name":"On or near Upper Addison Gardens"},"longitude":"-0.213690"},"context":"","outcome_status":null,"persistent_id":"","id":74279158,"location_subtype":"","month":"2019-05"},{"category":"anti-social-behaviour","location_type":"Force","location":{"latitude":"51.501237","street":{"id":952526,"name":"On or near Elsham Road"},"longitude":"-0.212985"},"context":"","outcome_status":null,"persistent_id":"","id":74279161,"location_subtype":"","month":"2019-05"},{"category":"anti-social-behaviour","location_type":"Force","location":{"latitude":"51.492188","street":{"id":950151,"name":"On or near Mornington Avenue"},"longitude":"-0.205748"},"context":"","outcome_status":null,"persistent_id":"","id":74284018,"location_subtype":"","month":"2019-05"},{"category":"anti-social-behaviour","location_type":"Force","location":{"latitude":"51.493288","street":{"id":950153,"name":"On or near Matheson Road"},"longitude":"-0.205949"},"context":"","outcome_status":null,"persistent_id":"","id":74284023,"location_subtype":"","month":"2019-05"},{"category":"anti-social-behaviour","location_type":"Force","location":{"latitude":"51.493955","street":{"id":952809,"name":"On or near Lisgar Terrace"},"longitude":"-0.206600"},"context":"","outcome_status":null,"persistent_id":"","id":74284039,"location_subtype":"","month":"2019-05"},{"category":"anti-social-behaviour","location_type":"Force","location":{"latitude":"51.483510","street":{"id":950323,"name":"On or near Brecon Road"},"longitude":"-0.211604"},"context":"","outcome_status":null,"persistent_id":"","id":74284061,"location_subtype":"","month":"2019-05"},{"category":"anti-social-behaviour","location_type":"Force","location":{"latitude":"51.494260","street":{"id":952821,"name":"On or near Theatre\/concert Hall"},"longitude":"-0.211256"},"context":"","outcome_status":null,"persistent_id":"","id":74284062,"location_subtype":"","month":"2019-05"},{"category":"anti-social-behaviour","location_type":"Force","location":{"latitude":"51.489210","street":{"id":950422,"name":"On or near Palliser Road"},"longitude":"-0.212663"},"context":"","outcome_status":null,"persistent_id":"","id":74284069,"location_subtype":"","month":"2019-05"},{"category":"anti-social-behaviour","location_type":"Force","location":{"latitude":"51.493707","street":{"id":950364,"name":"On or near Albion Mews"},"longitude":"-0.232353"},"context":"","outcome_status":null,"persistent_id":"","id":74285717,"location_subtype":"","month":"2019-05"},{"category":"anti-social-behaviour","location_type":"Force","location":{"latitude":"51.496907","street":{"id":952450,"name":"On or near Aldensley Road"},"longitude":"-0.232834"},"context":"","outcome_status":null,"persistent_id":"","id":74285716,"location_subtype":"","month":"2019-05"},{"category":"anti-social-behaviour","location_type":"Force","location":{"latitude":"51.499139","street":{"id":952551,"name":"On or near Brackenbury Road"},"longitude":"-0.231783"},"context":"","outcome_status":null,"persistent_id":"","id":74285715,"location_subtype":"","month":"2019-05"},{"category":"anti-social-behaviour","location_type":"Force","location":{"latitude":"51.501146","street":{"id":952621,"name":"On or near Augustus Close"},"longitude":"-0.231287"},"context":"","outcome_status":null,"persistent_id":"","id":74285714,"location_subtype":"","month":"2019-05"},{"category":"anti-social-behaviour","location_type":"Force","location":{"latitude":"51.498320","street":{"id":952477,"name":"On or near Faroe Road"},"longitude":"-0.215678"},"context":"","outcome_status":null,"persistent_id":"","id":74285097,"location_subtype":"","month":"2019-05"},{"category":"anti-social-behaviour","location_type":"Force","location":{"latitude":"51.502966","street":{"id":952586,"name":"On or near Miller's Way"},"longitude":"-0.222571"},"context":"","outcome_status":null,"persistent_id":"","id":74285150,"location_subtype":"","month":"2019-05"},{"category":"anti-social-behaviour","location_type":"Force","location":{"latitude":"51.503515","street":{"id":952594,"name":"On or near Theatre\/concert Hall"},"longitude":"-0.224438"},"context":"","outcome_status":null,"persistent_id":"","id":74285185,"location_subtype":"","month":"2019-05"},{"category":"anti-social-behaviour","location_type":"Force","location":{"latitude":"51.502281","street":{"id":952580,"name":"On or near Woodger Road"},"longitude":"-0.224875"},"context":"","outcome_status":null,"persistent_id":"","id":74285216,"location_subtype":"","month":"2019-05"},{"category":"anti-social-behaviour","location_type":"Force","location":{"latitude":"51.503724","street":{"id":952623,"name":"On or near Further\/higher Educational Building"},"longitude":"-0.228133"},"context":"","outcome_status":null,"persistent_id":"","id":74285244,"location_subtype":"","month":"2019-05"},{"category":"anti-social-behaviour","location_type":"Force","location":{"latitude":"51.501146","street":{"id":952621,"name":"On or near Augustus Close"},"longitude":"-0.231287"},"context":"","outcome_status":null,"persistent_id":"","id":74285713,"location_subtype":"","month":"2019-05"},{"category":"anti-social-behaviour","location_type":"Force","location":{"latitude":"51.501572","street":{"id":952606,"name":"On or near St Stephen's Avenue"},"longitude":"-0.230925"},"context":"","outcome_status":null,"persistent_id":"","id":74285712,"location_subtype":"","month":"2019-05"},{"category":"anti-social-behaviour","location_type":"Force","location":{"latitude":"51.501572","street":{"id":952606,"name":"On or near St Stephen's Avenue"},"longitude":"-0.230925"},"context":"","outcome_status":null,"persistent_id":"","id":74285711,"location_subtype":"","month":"2019-05"},{"category":"anti-social-behaviour","location_type":"Force","location":{"latitude":"51.493936","street":{"id":952967,"name":"On or near Collingham Place"},"longitude":"-0.189544"},"context":"","outcome_status":null,"persistent_id":"","id":74278011,"location_subtype":"","month":"2019-05"},{"category":"anti-social-behaviour","location_type":"Force","location":{"latitude":"51.493140","street":{"id":950362,"name":"On or near Argyle Place"},"longitude":"-0.231122"},"context":"","outcome_status":null,"persistent_id":"","id":74285710,"location_subtype":"","month":"2019-05"},{"category":"anti-social-behaviour","location_type":"Force","location":{"latitude":"51.493140","street":{"id":950362,"name":"On or near Argyle Place"},"longitude":"-0.231122"},"context":"","outcome_status":null,"persistent_id":"","id":74285709,"location_subtype":"","month":"2019-05"},{"category":"anti-social-behaviour","location_type":"Force","location":{"latitude":"51.502035","street":{"id":952617,"name":"On or near Goldhawk Mews"},"longitude":"-0.230633"},"context":"","outcome_status":null,"persistent_id":"","id":74285708,"location_subtype":"","month":"2019-05"},{"category":"anti-social-behaviour","location_type":"Force","location":{"latitude":"51.491109","street":{"id":950350,"name":"On or near Great West Road"},"longitude":"-0.229990"},"context":"","outcome_status":null,"persistent_id":"","id":74285698,"location_subtype":"","month":"2019-05"},{"category":"anti-social-behaviour","location_type":"Force","location":{"latitude":"51.505127","street":{"id":952620,"name":"On or near Coverdale Road"},"longitude":"-0.229332"},"context":"","outcome_status":null,"persistent_id":"","id":74285696,"location_subtype":"","month":"2019-05"},{"category":"anti-social-behaviour","location_type":"Force","location":{"latitude":"51.491109","street":{"id":950350,"name":"On or near Great West Road"},"longitude":"-0.229990"},"context":"","outcome_status":null,"persistent_id":"","id":74285697,"location_subtype":"","month":"2019-05"},{"category":"anti-social-behaviour","location_type":"Force","location":{"latitude":"51.505127","street":{"id":952620,"name":"On or near Coverdale Road"},"longitude":"-0.229332"},"context":"","outcome_status":null,"persistent_id":"","id":74285695,"location_subtype":"","month":"2019-05"},{"category":"anti-social-behaviour","location_type":"Force","location":{"latitude":"51.506551","street":{"id":952605,"name":"On or near Stanlake Villas"},"longitude":"-0.228311"},"context":"","outcome_status":null,"persistent_id":"","id":74285252,"location_subtype":"","month":"2019-05"},{"category":"anti-social-behaviour","location_type":"Force","location":{"latitude":"51.493504","street":{"id":950345,"name":"On or near Leamore Street"},"longitude":"-0.229624"},"context":"","outcome_status":null,"persistent_id":"","id":74285251,"location_subtype":"","month":"2019-05"},{"category":"anti-social-behaviour","location_type":"Force","location":{"latitude":"51.491890","street":{"id":950357,"name":"On or near Bridge Avenue"},"longitude":"-0.229340"},"context":"","outcome_status":null,"persistent_id":"","id":74285250,"location_subtype":"","month":"2019-05"},{"category":"anti-social-behaviour","location_type":"Force","location":{"latitude":"51.501761","street":{"id":952616,"name":"On or near Goldhawk Road"},"longitude":"-0.229736"},"context":"","outcome_status":null,"persistent_id":"","id":74285248,"location_subtype":"","month":"2019-05"},{"category":"anti-social-behaviour","location_type":"Force","location":{"latitude":"51.501761","street":{"id":952616,"name":"On or near Goldhawk Road"},"longitude":"-0.229736"},"context":"","outcome_status":null,"persistent_id":"","id":74285247,"location_subtype":"","month":"2019-05"},{"category":"anti-social-behaviour","location_type":"Force","location":{"latitude":"51.495511","street":{"id":952630,"name":"On or near Kilmarsh Road"},"longitude":"-0.228537"},"context":"","outcome_status":null,"persistent_id":"","id":74285245,"location_subtype":"","month":"2019-05"},{"category":"anti-social-behaviour","location_type":"Force","location":{"latitude":"51.503724","street":{"id":952623,"name":"On or near Further\/higher Educational Building"},"longitude":"-0.228133"},"context":"","outcome_status":null,"persistent_id":"","id":74285243,"location_subtype":"","month":"2019-05"},{"category":"anti-social-behaviour","location_type":"Force","location":{"latitude":"51.503724","street":{"id":952623,"name":"On or near Further\/higher Educational Building"},"longitude":"-0.228133"},"context":"","outcome_status":null,"persistent_id":"","id":74285242,"location_subtype":"","month":"2019-05"},{"category":"anti-social-behaviour","location_type":"Force","location":{"latitude":"51.503724","street":{"id":952623,"name":"On or near Further\/higher Educational Building"},"longitude":"-0.228133"},"context":"","outcome_status":null,"persistent_id":"","id":74285241,"location_subtype":"","month":"2019-05"},{"category":"anti-social-behaviour","location_type":"Force","location":{"latitude":"51.503724","street":{"id":952623,"name":"On or near Further\/higher Educational Building"},"longitude":"-0.228133"},"context":"","outcome_status":null,"persistent_id":"","id":74285240,"location_subtype":"","month":"2019-05"},{"category":"anti-social-behaviour","location_type":"Force","location":{"latitude":"51.503724","street":{"id":952623,"name":"On or near Further\/higher Educational Building"},"longitude":"-0.228133"},"context":"","outcome_status":null,"persistent_id":"","id":74285239,"location_subtype":"","month":"2019-05"},{"category":"anti-social-behaviour","location_type":"Force","location":{"latitude":"51.503724","street":{"id":952623,"name":"On or near Further\/higher Educational Building"},"longitude":"-0.228133"},"context":"","outcome_status":null,"persistent_id":"","id":74285238,"location_subtype":"","month":"2019-05"},{"category":"anti-social-behaviour","location_type":"Force","location":{"latitude":"51.490495","street":{"id":950348,"name":"On or near Hammersmith Bridge Road"},"longitude":"-0.228026"},"context":"","outcome_status":null,"persistent_id":"","id":74285237,"location_subtype":"","month":"2019-05"},{"category":"anti-social-behaviour","location_type":"Force","location":{"latitude":"51.493317","street":{"id":950371,"name":"On or near Shopping Area"},"longitude":"-0.227945"},"context":"","outcome_status":null,"persistent_id":"","id":74285236,"location_subtype":"","month":"2019-05"},{"category":"anti-social-behaviour","location_type":"Force","location":{"latitude":"51.502210","street":{"id":952615,"name":"On or near Goldhawk Road"},"longitude":"-0.227874"},"context":"","outcome_status":null,"persistent_id":"","id":74285235,"location_subtype":"","month":"2019-05"},{"category":"anti-social-behaviour","location_type":"Force","location":{"latitude":"51.502210","street":{"id":952615,"name":"On or near Goldhawk Road"},"longitude":"-0.227874"},"context":"","outcome_status":null,"persistent_id":"","id":74285233,"location_subtype":"","month":"2019-05"},{"category":"anti-social-behaviour","location_type":"Force","location":{"latitude":"51.492845","street":{"id":950245,"name":"On or near Earl's Court Gardens"},"longitude":"-0.191691"},"context":"","outcome_status":null,"persistent_id":"","id":74278046,"location_subtype":"","month":"2019-05"},{"category":"anti-social-behaviour","location_type":"Force","location":{"latitude":"51.502210","street":{"id":952615,"name":"On or near Goldhawk Road"},"longitude":"-0.227874"},"context":"","outcome_status":null,"persistent_id":"","id":74285232,"location_subtype":"","month":"2019-05"},{"category":"anti-social-behaviour","location_type":"Force","location":{"latitude":"51.497778","street":{"id":952546,"name":"On or near Hammersmith Grove"},"longitude":"-0.227398"},"context":"","outcome_status":null,"persistent_id":"","id":74285231,"location_subtype":"","month":"2019-05"},{"category":"anti-social-behaviour","location_type":"Force","location":{"latitude":"51.493317","street":{"id":950371,"name":"On or near Shopping Area"},"longitude":"-0.227945"},"context":"","outcome_status":null,"persistent_id":"","id":74285230,"location_subtype":"","month":"2019-05"},{"category":"anti-social-behaviour","location_type":"Force","location":{"latitude":"51.505610","street":{"id":952610,"name":"On or near Poplar Mews"},"longitude":"-0.226157"},"context":"","outcome_status":null,"persistent_id":"","id":74285228,"location_subtype":"","month":"2019-05"},{"category":"anti-social-behaviour","location_type":"Force","location":{"latitude":"51.502989","street":{"id":952612,"name":"On or near Market Lane"},"longitude":"-0.226461"},"context":"","outcome_status":null,"persistent_id":"","id":74285222,"location_subtype":"","month":"2019-05"},{"category":"anti-social-behaviour","location_type":"Force","location":{"latitude":"51.502989","street":{"id":952612,"name":"On or near Market Lane"},"longitude":"-0.226461"},"context":"","outcome_status":null,"persistent_id":"","id":74285221,"location_subtype":"","month":"2019-05"},{"category":"anti-social-behaviour","location_type":"Force","location":{"latitude":"51.502989","street":{"id":952612,"name":"On or near Market Lane"},"longitude":"-0.226461"},"context":"","outcome_status":null,"persistent_id":"","id":74285220,"location_subtype":"","month":"2019-05"},{"category":"anti-social-behaviour","location_type":"Force","location":{"latitude":"51.505392","street":{"id":952603,"name":"On or near Uxbridge Road"},"longitude":"-0.226036"},"context":"","outcome_status":null,"persistent_id":"","id":74285219,"location_subtype":"","month":"2019-05"},{"category":"anti-social-behaviour","location_type":"Force","location":{"latitude":"51.488261","street":{"id":950368,"name":"On or near Theatre\/concert Hall"},"longitude":"-0.226586"},"context":"","outcome_status":null,"persistent_id":"","id":74285218,"location_subtype":"","month":"2019-05"},{"category":"anti-social-behaviour","location_type":"Force","location":{"latitude":"51.488261","street":{"id":950368,"name":"On or near Theatre\/concert Hall"},"longitude":"-0.226586"},"context":"","outcome_status":null,"persistent_id":"","id":74285217,"location_subtype":"","month":"2019-05"},{"category":"anti-social-behaviour","location_type":"Force","location":{"latitude":"51.503515","street":{"id":952594,"name":"On or near Theatre\/concert Hall"},"longitude":"-0.224438"},"context":"","outcome_status":null,"persistent_id":"","id":74285215,"location_subtype":"","month":"2019-05"},{"category":"anti-social-behaviour","location_type":"Force","location":{"latitude":"51.492917","street":{"id":950387,"name":"On or near Hammersmith Broadway"},"longitude":"-0.224691"},"context":"","outcome_status":null,"persistent_id":"","id":74285213,"location_subtype":"","month":"2019-05"},{"category":"anti-social-behaviour","location_type":"Force","location":{"latitude":"51.492917","street":{"id":950387,"name":"On or near Hammersmith Broadway"},"longitude":"-0.224691"},"context":"","outcome_status":null,"persistent_id":"","id":74285212,"location_subtype":"","month":"2019-05"},{"category":"anti-social-behaviour","location_type":"Force","location":{"latitude":"51.492917","street":{"id":950387,"name":"On or near Hammersmith Broadway"},"longitude":"-0.224691"},"context":"","outcome_status":null,"persistent_id":"","id":74285211,"location_subtype":"","month":"2019-05"},{"category":"anti-social-behaviour","location_type":"Force","location":{"latitude":"51.492917","street":{"id":950387,"name":"On or near Hammersmith Broadway"},"longitude":"-0.224691"},"context":"","outcome_status":null,"persistent_id":"","id":74285210,"location_subtype":"","month":"2019-05"},{"category":"anti-social-behaviour","location_type":"Force","location":{"latitude":"51.492917","street":{"id":950387,"name":"On or near Hammersmith Broadway"},"longitude":"-0.224691"},"context":"","outcome_status":null,"persistent_id":"","id":74285209,"location_subtype":"","month":"2019-05"},{"category":"anti-social-behaviour","location_type":"Force","location":{"latitude":"51.497733","street":{"id":952575,"name":"On or near Supermarket"},"longitude":"-0.224389"},"context":"","outcome_status":null,"persistent_id":"","id":74285208,"location_subtype":"","month":"2019-05"},{"category":"anti-social-behaviour","location_type":"Force","location":{"latitude":"51.492223","street":{"id":950400,"name":"On or near Supermarket"},"longitude":"-0.224574"},"context":"","outcome_status":null,"persistent_id":"","id":74285207,"location_subtype":"","month":"2019-05"},{"category":"anti-social-behaviour","location_type":"Force","location":{"latitude":"51.492223","street":{"id":950400,"name":"On or near Supermarket"},"longitude":"-0.224574"},"context":"","outcome_status":null,"persistent_id":"","id":74285206,"location_subtype":"","month":"2019-05"},{"category":"anti-social-behaviour","location_type":"Force","location":{"latitude":"51.499433","street":{"id":952573,"name":"On or near Batoum Gardens"},"longitude":"-0.223861"},"context":"","outcome_status":null,"persistent_id":"","id":74285205,"location_subtype":"","month":"2019-05"},{"category":"anti-social-behaviour","location_type":"Force","location":{"latitude":"51.503312","street":{"id":952593,"name":"On or near Theatre\/concert Hall"},"longitude":"-0.224042"},"context":"","outcome_status":null,"persistent_id":"","id":74285204,"location_subtype":"","month":"2019-05"},{"category":"anti-social-behaviour","location_type":"Force","location":{"latitude":"51.494629","street":{"id":952646,"name":"On or near Police Station"},"longitude":"-0.224336"},"context":"","outcome_status":null,"persistent_id":"","id":74285203,"location_subtype":"","month":"2019-05"},{"category":"anti-social-behaviour","location_type":"Force","location":{"latitude":"51.494629","street":{"id":952646,"name":"On or near Police Station"},"longitude":"-0.224336"},"context":"","outcome_status":null,"persistent_id":"","id":74285202,"location_subtype":"","month":"2019-05"},{"category":"anti-social-behaviour","location_type":"Force","location":{"latitude":"51.493133","street":{"id":950374,"name":"On or near Pedestrian Subway"},"longitude":"-0.224078"},"context":"","outcome_status":null,"persistent_id":"","id":74285199,"location_subtype":"","month":"2019-05"},{"category":"anti-social-behaviour","location_type":"Force","location":{"latitude":"51.493133","street":{"id":950374,"name":"On or near Pedestrian Subway"},"longitude":"-0.224078"},"context":"","outcome_status":null,"persistent_id":"","id":74285200,"location_subtype":"","month":"2019-05"},{"category":"anti-social-behaviour","location_type":"Force","location":{"latitude":"51.493133","street":{"id":950374,"name":"On or near Pedestrian Subway"},"longitude":"-0.224078"},"context":"","outcome_status":null,"persistent_id":"","id":74285198,"location_subtype":"","month":"2019-05"},{"category":"anti-social-behaviour","location_type":"Force","location":{"latitude":"51.493133","street":{"id":950374,"name":"On or near Pedestrian Subway"},"longitude":"-0.224078"},"context":"","outcome_status":null,"persistent_id":"","id":74285197,"location_subtype":"","month":"2019-05"},{"category":"anti-social-behaviour","location_type":"Force","location":{"latitude":"51.493133","street":{"id":950374,"name":"On or near Pedestrian Subway"},"longitude":"-0.224078"},"context":"","outcome_status":null,"persistent_id":"","id":74285196,"location_subtype":"","month":"2019-05"},{"category":"anti-social-behaviour","location_type":"Force","location":{"latitude":"51.493133","street":{"id":950374,"name":"On or near Pedestrian Subway"},"longitude":"-0.224078"},"context":"","outcome_status":null,"persistent_id":"","id":74285195,"location_subtype":"","month":"2019-05"},{"category":"anti-social-behaviour","location_type":"Force","location":{"latitude":"51.493133","street":{"id":950374,"name":"On or near Pedestrian Subway"},"longitude":"-0.224078"},"context":"","outcome_status":null,"persistent_id":"","id":74285194,"location_subtype":"","month":"2019-05"},{"category":"anti-social-behaviour","location_type":"Force","location":{"latitude":"51.494629","street":{"id":952646,"name":"On or near Police Station"},"longitude":"-0.224336"},"context":"","outcome_status":null,"persistent_id":"","id":74285193,"location_subtype":"","month":"2019-05"},{"category":"anti-social-behaviour","location_type":"Force","location":{"latitude":"51.494629","street":{"id":952646,"name":"On or near Police Station"},"longitude":"-0.224336"},"context":"","outcome_status":null,"persistent_id":"","id":74285192,"location_subtype":"","month":"2019-05"},{"category":"anti-social-behaviour","location_type":"Force","location":{"latitude":"51.494629","street":{"id":952646,"name":"On or near Police Station"},"longitude":"-0.224336"},"context":"","outcome_status":null,"persistent_id":"","id":74285191,"location_subtype":"","month":"2019-05"},{"category":"anti-social-behaviour","location_type":"Force","location":{"latitude":"51.501202","street":{"id":952727,"name":"On or near Phillimore Walk"},"longitude":"-0.194242"},"context":"","outcome_status":null,"persistent_id":"","id":74278059,"location_subtype":"","month":"2019-05"},{"category":"anti-social-behaviour","location_type":"Force","location":{"latitude":"51.494629","street":{"id":952646,"name":"On or near Police Station"},"longitude":"-0.224336"},"context":"","outcome_status":null,"persistent_id":"","id":74285190,"location_subtype":"","month":"2019-05"},{"category":"anti-social-behaviour","location_type":"Force","location":{"latitude":"51.503515","street":{"id":952594,"name":"On or near Theatre\/concert Hall"},"longitude":"-0.224438"},"context":"","outcome_status":null,"persistent_id":"","id":74285189,"location_subtype":"","month":"2019-05"},{"category":"anti-social-behaviour","location_type":"Force","location":{"latitude":"51.503515","street":{"id":952594,"name":"On or near Theatre\/concert Hall"},"longitude":"-0.224438"},"context":"","outcome_status":null,"persistent_id":"","id":74285188,"location_subtype":"","month":"2019-05"},{"category":"anti-social-behaviour","location_type":"Force","location":{"latitude":"51.503515","street":{"id":952594,"name":"On or near Theatre\/concert Hall"},"longitude":"-0.224438"},"context":"","outcome_status":null,"persistent_id":"","id":74285186,"location_subtype":"","month":"2019-05"},{"category":"anti-social-behaviour","location_type":"Force","location":{"latitude":"51.503515","street":{"id":952594,"name":"On or near Theatre\/concert Hall"},"longitude":"-0.224438"},"context":"","outcome_status":null,"persistent_id":"","id":74285187,"location_subtype":"","month":"2019-05"},{"category":"anti-social-behaviour","location_type":"Force","location":{"latitude":"51.503515","street":{"id":952594,"name":"On or near Theatre\/concert Hall"},"longitude":"-0.224438"},"context":"","outcome_status":null,"persistent_id":"","id":74285184,"location_subtype":"","month":"2019-05"},{"category":"anti-social-behaviour","location_type":"Force","location":{"latitude":"51.498505","street":{"id":952570,"name":"On or near Lena Gardens"},"longitude":"-0.223725"},"context":"","outcome_status":null,"persistent_id":"","id":74285182,"location_subtype":"","month":"2019-05"},{"category":"anti-social-behaviour","location_type":"Force","location":{"latitude":"51.498505","street":{"id":952570,"name":"On or near Lena Gardens"},"longitude":"-0.223725"},"context":"","outcome_status":null,"persistent_id":"","id":74285181,"location_subtype":"","month":"2019-05"},{"category":"anti-social-behaviour","location_type":"Force","location":{"latitude":"51.500032","street":{"id":952568,"name":"On or near Melrose Gardens"},"longitude":"-0.223636"},"context":"","outcome_status":null,"persistent_id":"","id":74285180,"location_subtype":"","month":"2019-05"},{"category":"anti-social-behaviour","location_type":"Force","location":{"latitude":"51.492223","street":{"id":950400,"name":"On or near Supermarket"},"longitude":"-0.224574"},"context":"","outcome_status":null,"persistent_id":"","id":74285173,"location_subtype":"","month":"2019-05"},{"category":"anti-social-behaviour","location_type":"Force","location":{"latitude":"51.492223","street":{"id":950400,"name":"On or near Supermarket"},"longitude":"-0.224574"},"context":"","outcome_status":null,"persistent_id":"","id":74285172,"location_subtype":"","month":"2019-05"},{"category":"anti-social-behaviour","location_type":"Force","location":{"latitude":"51.492223","street":{"id":950400,"name":"On or near Supermarket"},"longitude":"-0.224574"},"context":"","outcome_status":null,"persistent_id":"","id":74285171,"location_subtype":"","month":"2019-05"},{"category":"anti-social-behaviour","location_type":"Force","location":{"latitude":"51.492223","street":{"id":950400,"name":"On or near Supermarket"},"longitude":"-0.224574"},"context":"","outcome_status":null,"persistent_id":"","id":74285170,"location_subtype":"","month":"2019-05"},{"category":"anti-social-behaviour","location_type":"Force","location":{"latitude":"51.492223","street":{"id":950400,"name":"On or near Supermarket"},"longitude":"-0.224574"},"context":"","outcome_status":null,"persistent_id":"","id":74285169,"location_subtype":"","month":"2019-05"},{"category":"anti-social-behaviour","location_type":"Force","location":{"latitude":"51.493101","street":{"id":950385,"name":"On or near Hammersmith Road"},"longitude":"-0.223733"},"context":"","outcome_status":null,"persistent_id":"","id":74285168,"location_subtype":"","month":"2019-05"},{"category":"anti-social-behaviour","location_type":"Force","location":{"latitude":"51.489965","street":{"id":950388,"name":"On or near Fulham Palace Road"},"longitude":"-0.223293"},"context":"","outcome_status":null,"persistent_id":"","id":74285166,"location_subtype":"","month":"2019-05"},{"category":"anti-social-behaviour","location_type":"Force","location":{"latitude":"51.493175","street":{"id":950233,"name":"On or near Longridge Road"},"longitude":"-0.197382"},"context":"","outcome_status":null,"persistent_id":"","id":74278099,"location_subtype":"","month":"2019-05"},{"category":"anti-social-behaviour","location_type":"Force","location":{"latitude":"51.505331","street":{"id":952591,"name":"On or near Aldine Street"},"longitude":"-0.222609"},"context":"","outcome_status":null,"persistent_id":"","id":74285164,"location_subtype":"","month":"2019-05"},{"category":"anti-social-behaviour","location_type":"Force","location":{"latitude":"51.499433","street":{"id":952573,"name":"On or near Batoum Gardens"},"longitude":"-0.223861"},"context":"","outcome_status":null,"persistent_id":"","id":74285163,"location_subtype":"","month":"2019-05"},{"category":"anti-social-behaviour","location_type":"Force","location":{"latitude":"51.497697","street":{"id":952574,"name":"On or near Barb Mews"},"longitude":"-0.223209"},"context":"","outcome_status":null,"persistent_id":"","id":74285165,"location_subtype":"","month":"2019-05"},{"category":"anti-social-behaviour","location_type":"Force","location":{"latitude":"51.489067","street":{"id":950393,"name":"On or near Chancellor's Road"},"longitude":"-0.223429"},"context":"","outcome_status":null,"persistent_id":"","id":74285160,"location_subtype":"","month":"2019-05"},{"category":"anti-social-behaviour","location_type":"Force","location":{"latitude":"51.489067","street":{"id":950393,"name":"On or near Chancellor's Road"},"longitude":"-0.223429"},"context":"","outcome_status":null,"persistent_id":"","id":74285159,"location_subtype":"","month":"2019-05"},{"category":"anti-social-behaviour","location_type":"Force","location":{"latitude":"51.508221","street":{"id":957321,"name":"On or near Princedale Road"},"longitude":"-0.209787"},"context":"","outcome_status":null,"persistent_id":"","id":74279136,"location_subtype":"","month":"2019-05"},{"category":"anti-social-behaviour","location_type":"Force","location":{"latitude":"51.489067","street":{"id":950393,"name":"On or near Chancellor's Road"},"longitude":"-0.223429"},"context":"","outcome_status":null,"persistent_id":"","id":74285158,"location_subtype":"","month":"2019-05"},{"category":"anti-social-behaviour","location_type":"Force","location":{"latitude":"51.489067","street":{"id":950393,"name":"On or near Chancellor's Road"},"longitude":"-0.223429"},"context":"","outcome_status":null,"persistent_id":"","id":74285157,"location_subtype":"","month":"2019-05"},{"category":"anti-social-behaviour","location_type":"Force","location":{"latitude":"51.487612","street":{"id":950382,"name":"On or near Playfair Street"},"longitude":"-0.222909"},"context":"","outcome_status":null,"persistent_id":"","id":74285155,"location_subtype":"","month":"2019-05"},{"category":"anti-social-behaviour","location_type":"Force","location":{"latitude":"51.502966","street":{"id":952586,"name":"On or near Miller's Way"},"longitude":"-0.222571"},"context":"","outcome_status":null,"persistent_id":"","id":74285153,"location_subtype":"","month":"2019-05"},{"category":"anti-social-behaviour","location_type":"Force","location":{"latitude":"51.502966","street":{"id":952586,"name":"On or near Miller's Way"},"longitude":"-0.222571"},"context":"","outcome_status":null,"persistent_id":"","id":74285154,"location_subtype":"","month":"2019-05"},{"category":"anti-social-behaviour","location_type":"Force","location":{"latitude":"51.487137","street":{"id":950167,"name":"On or near Fane Street"},"longitude":"-0.203569"},"context":"","outcome_status":null,"persistent_id":"","id":74284003,"location_subtype":"","month":"2019-05"},{"category":"anti-social-behaviour","location_type":"Force","location":{"latitude":"51.502966","street":{"id":952586,"name":"On or near Miller's Way"},"longitude":"-0.222571"},"context":"","outcome_status":null,"persistent_id":"","id":74285152,"location_subtype":"","month":"2019-05"},{"category":"anti-social-behaviour","location_type":"Force","location":{"latitude":"51.502966","street":{"id":952586,"name":"On or near Miller's Way"},"longitude":"-0.222571"},"context":"","outcome_status":null,"persistent_id":"","id":74285151,"location_subtype":"","month":"2019-05"},{"category":"anti-social-behaviour","location_type":"Force","location":{"latitude":"51.502966","street":{"id":952586,"name":"On or near Miller's Way"},"longitude":"-0.222571"},"context":"","outcome_status":null,"persistent_id":"","id":74285149,"location_subtype":"","month":"2019-05"},{"category":"anti-social-behaviour","location_type":"Force","location":{"latitude":"51.502966","street":{"id":952586,"name":"On or near Miller's Way"},"longitude":"-0.222571"},"context":"","outcome_status":null,"persistent_id":"","id":74285148,"location_subtype":"","month":"2019-05"},{"category":"anti-social-behaviour","location_type":"Force","location":{"latitude":"51.502966","street":{"id":952586,"name":"On or near Miller's Way"},"longitude":"-0.222571"},"context":"","outcome_status":null,"persistent_id":"","id":74285147,"location_subtype":"","month":"2019-05"},{"category":"anti-social-behaviour","location_type":"Force","location":{"latitude":"51.507840","street":{"id":957502,"name":"On or near Parking Area"},"longitude":"-0.221402"},"context":"","outcome_status":null,"persistent_id":"","id":74285146,"location_subtype":"","month":"2019-05"},{"category":"anti-social-behaviour","location_type":"Force","location":{"latitude":"51.489067","street":{"id":950393,"name":"On or near Chancellor's Road"},"longitude":"-0.223429"},"context":"","outcome_status":null,"persistent_id":"","id":74285156,"location_subtype":"","month":"2019-05"},{"category":"anti-social-behaviour","location_type":"Force","location":{"latitude":"51.503456","street":{"id":952592,"name":"On or near Petrol Station"},"longitude":"-0.221673"},"context":"","outcome_status":null,"persistent_id":"","id":74285144,"location_subtype":"","month":"2019-05"},{"category":"anti-social-behaviour","location_type":"Force","location":{"latitude":"51.488668","street":{"id":950397,"name":"On or near Biscay Road"},"longitude":"-0.222580"},"context":"","outcome_status":null,"persistent_id":"","id":74285145,"location_subtype":"","month":"2019-05"},{"category":"anti-social-behaviour","location_type":"Force","location":{"latitude":"51.492324","street":{"id":950395,"name":"On or near Butterwick"},"longitude":"-0.222366"},"context":"","outcome_status":null,"persistent_id":"","id":74285143,"location_subtype":"","month":"2019-05"},{"category":"anti-social-behaviour","location_type":"Force","location":{"latitude":"51.494805","street":{"id":952643,"name":"On or near Luxemburg Gardens"},"longitude":"-0.221708"},"context":"","outcome_status":null,"persistent_id":"","id":74285142,"location_subtype":"","month":"2019-05"},{"category":"anti-social-behaviour","location_type":"Force","location":{"latitude":"51.494805","street":{"id":952643,"name":"On or near Luxemburg Gardens"},"longitude":"-0.221708"},"context":"","outcome_status":null,"persistent_id":"","id":74285141,"location_subtype":"","month":"2019-05"},{"category":"anti-social-behaviour","location_type":"Force","location":{"latitude":"51.494805","street":{"id":952643,"name":"On or near Luxemburg Gardens"},"longitude":"-0.221708"},"context":"","outcome_status":null,"persistent_id":"","id":74285139,"location_subtype":"","month":"2019-05"},{"category":"anti-social-behaviour","location_type":"Force","location":{"latitude":"51.494805","street":{"id":952643,"name":"On or near Luxemburg Gardens"},"longitude":"-0.221708"},"context":"","outcome_status":null,"persistent_id":"","id":74285140,"location_subtype":"","month":"2019-05"},{"category":"anti-social-behaviour","location_type":"Force","location":{"latitude":"51.497067","street":{"id":952479,"name":"On or near Dunsany Road"},"longitude":"-0.221418"},"context":"","outcome_status":null,"persistent_id":"","id":74285138,"location_subtype":"","month":"2019-05"},{"category":"anti-social-behaviour","location_type":"Force","location":{"latitude":"51.503456","street":{"id":952592,"name":"On or near Petrol Station"},"longitude":"-0.221673"},"context":"","outcome_status":null,"persistent_id":"","id":74285136,"location_subtype":"","month":"2019-05"},{"category":"anti-social-behaviour","location_type":"Force","location":{"latitude":"51.486418","street":{"id":950383,"name":"On or near Parfrey Street"},"longitude":"-0.222480"},"context":"","outcome_status":null,"persistent_id":"","id":74285134,"location_subtype":"","month":"2019-05"},{"category":"anti-social-behaviour","location_type":"Force","location":{"latitude":"51.486418","street":{"id":950383,"name":"On or near Parfrey Street"},"longitude":"-0.222480"},"context":"","outcome_status":null,"persistent_id":"","id":74285133,"location_subtype":"","month":"2019-05"},{"category":"anti-social-behaviour","location_type":"Force","location":{"latitude":"51.497067","street":{"id":952479,"name":"On or near Dunsany Road"},"longitude":"-0.221418"},"context":"","outcome_status":null,"persistent_id":"","id":74285137,"location_subtype":"","month":"2019-05"},{"category":"anti-social-behaviour","location_type":"Force","location":{"latitude":"51.497299","street":{"id":952473,"name":"On or near Haarlem Road"},"longitude":"-0.220703"},"context":"","outcome_status":null,"persistent_id":"","id":74285132,"location_subtype":"","month":"2019-05"},{"category":"anti-social-behaviour","location_type":"Force","location":{"latitude":"51.488669","street":{"id":950450,"name":"On or near Beryl Road"},"longitude":"-0.220852"},"context":"","outcome_status":null,"persistent_id":"","id":74285130,"location_subtype":"","month":"2019-05"},{"category":"anti-social-behaviour","location_type":"Force","location":{"latitude":"51.502209","street":{"id":952514,"name":"On or near Rockley Road"},"longitude":"-0.220137"},"context":"","outcome_status":null,"persistent_id":"","id":74285131,"location_subtype":"","month":"2019-05"},{"category":"anti-social-behaviour","location_type":"Force","location":{"latitude":"51.488669","street":{"id":950450,"name":"On or near Beryl Road"},"longitude":"-0.220852"},"context":"","outcome_status":null,"persistent_id":"","id":74285129,"location_subtype":"","month":"2019-05"},{"category":"anti-social-behaviour","location_type":"Force","location":{"latitude":"51.488669","street":{"id":950450,"name":"On or near Beryl Road"},"longitude":"-0.220852"},"context":"","outcome_status":null,"persistent_id":"","id":74285128,"location_subtype":"","month":"2019-05"},{"category":"anti-social-behaviour","location_type":"Force","location":{"latitude":"51.505180","street":{"id":952509,"name":"On or near Shepherd's Bush Place"},"longitude":"-0.219747"},"context":"","outcome_status":null,"persistent_id":"","id":74285126,"location_subtype":"","month":"2019-05"},{"category":"anti-social-behaviour","location_type":"Force","location":{"latitude":"51.488669","street":{"id":950450,"name":"On or near Beryl Road"},"longitude":"-0.220852"},"context":"","outcome_status":null,"persistent_id":"","id":74285127,"location_subtype":"","month":"2019-05"},{"category":"anti-social-behaviour","location_type":"Force","location":{"latitude":"51.494509","street":{"id":952653,"name":"On or near Rowan Road"},"longitude":"-0.219947"},"context":"","outcome_status":null,"persistent_id":"","id":74285124,"location_subtype":"","month":"2019-05"},{"category":"anti-social-behaviour","location_type":"Force","location":{"latitude":"51.501795","street":{"id":952503,"name":"On or near Westwick Gardens"},"longitude":"-0.220067"},"context":"","outcome_status":null,"persistent_id":"","id":74285123,"location_subtype":"","month":"2019-05"},{"category":"anti-social-behaviour","location_type":"Force","location":{"latitude":"51.504246","street":{"id":952532,"name":"On or near A402"},"longitude":"-0.219236"},"context":"","outcome_status":null,"persistent_id":"","id":74285121,"location_subtype":"","month":"2019-05"},{"category":"anti-social-behaviour","location_type":"Force","location":{"latitude":"51.503763","street":{"id":952536,"name":"On or near Supermarket"},"longitude":"-0.218794"},"context":"","outcome_status":null,"persistent_id":"","id":74285120,"location_subtype":"","month":"2019-05"},{"category":"anti-social-behaviour","location_type":"Force","location":{"latitude":"51.503763","street":{"id":952536,"name":"On or near Supermarket"},"longitude":"-0.218794"},"context":"","outcome_status":null,"persistent_id":"","id":74285119,"location_subtype":"","month":"2019-05"},{"category":"anti-social-behaviour","location_type":"Force","location":{"latitude":"51.504246","street":{"id":952532,"name":"On or near A402"},"longitude":"-0.219236"},"context":"","outcome_status":null,"persistent_id":"","id":74285118,"location_subtype":"","month":"2019-05"},{"category":"anti-social-behaviour","location_type":"Force","location":{"latitude":"51.502087","street":{"id":952515,"name":"On or near Richmond Way"},"longitude":"-0.217419"},"context":"","outcome_status":null,"persistent_id":"","id":74285117,"location_subtype":"","month":"2019-05"},{"category":"anti-social-behaviour","location_type":"Force","location":{"latitude":"51.502087","street":{"id":952515,"name":"On or near Richmond Way"},"longitude":"-0.217419"},"context":"","outcome_status":null,"persistent_id":"","id":74285116,"location_subtype":"","month":"2019-05"},{"category":"anti-social-behaviour","location_type":"Force","location":{"latitude":"51.500816","street":{"id":952492,"name":"On or near Addison Gardens"},"longitude":"-0.217814"},"context":"","outcome_status":null,"persistent_id":"","id":74285115,"location_subtype":"","month":"2019-05"},{"category":"anti-social-behaviour","location_type":"Force","location":{"latitude":"51.493053","street":{"id":950420,"name":"On or near Shortlands"},"longitude":"-0.219399"},"context":"","outcome_status":null,"persistent_id":"","id":74285114,"location_subtype":"","month":"2019-05"},{"category":"anti-social-behaviour","location_type":"Force","location":{"latitude":"51.493053","street":{"id":950420,"name":"On or near Shortlands"},"longitude":"-0.219399"},"context":"","outcome_status":null,"persistent_id":"","id":74285113,"location_subtype":"","month":"2019-05"},{"category":"anti-social-behaviour","location_type":"Force","location":{"latitude":"51.486937","street":{"id":950446,"name":"On or near Claybrook Road"},"longitude":"-0.218125"},"context":"","outcome_status":null,"persistent_id":"","id":74285111,"location_subtype":"","month":"2019-05"},{"category":"anti-social-behaviour","location_type":"Force","location":{"latitude":"51.493053","street":{"id":950420,"name":"On or near Shortlands"},"longitude":"-0.219399"},"context":"","outcome_status":null,"persistent_id":"","id":74285112,"location_subtype":"","month":"2019-05"},{"category":"anti-social-behaviour","location_type":"Force","location":{"latitude":"51.487137","street":{"id":950167,"name":"On or near Fane Street"},"longitude":"-0.203569"},"context":"","outcome_status":null,"persistent_id":"","id":74284004,"location_subtype":"","month":"2019-05"},{"category":"anti-social-behaviour","location_type":"Force","location":{"latitude":"51.486937","street":{"id":950446,"name":"On or near Claybrook Road"},"longitude":"-0.218125"},"context":"","outcome_status":null,"persistent_id":"","id":74285110,"location_subtype":"","month":"2019-05"},{"category":"anti-social-behaviour","location_type":"Force","location":{"latitude":"51.500305","street":{"id":952484,"name":"On or near Bolingbroke Road"},"longitude":"-0.217330"},"context":"","outcome_status":null,"persistent_id":"","id":74285108,"location_subtype":"","month":"2019-05"},{"category":"anti-social-behaviour","location_type":"Force","location":{"latitude":"51.495494","street":{"id":952654,"name":"On or near Oxford Gate"},"longitude":"-0.216134"},"context":"","outcome_status":null,"persistent_id":"","id":74285109,"location_subtype":"","month":"2019-05"},{"category":"anti-social-behaviour","location_type":"Force","location":{"latitude":"51.503336","street":{"id":952502,"name":"On or near Woodstock Grove"},"longitude":"-0.216779"},"context":"","outcome_status":null,"persistent_id":"","id":74285107,"location_subtype":"","month":"2019-05"},{"category":"anti-social-behaviour","location_type":"Force","location":{"latitude":"51.503336","street":{"id":952502,"name":"On or near Woodstock Grove"},"longitude":"-0.216779"},"context":"","outcome_status":null,"persistent_id":"","id":74285106,"location_subtype":"","month":"2019-05"},{"category":"anti-social-behaviour","location_type":"Force","location":{"latitude":"51.503336","street":{"id":952502,"name":"On or near Woodstock Grove"},"longitude":"-0.216779"},"context":"","outcome_status":null,"persistent_id":"","id":74285105,"location_subtype":"","month":"2019-05"},{"category":"anti-social-behaviour","location_type":"Force","location":{"latitude":"51.508598","street":{"id":957489,"name":"On or near St Anns Road"},"longitude":"-0.215637"},"context":"","outcome_status":null,"persistent_id":"","id":74285102,"location_subtype":"","month":"2019-05"},{"category":"anti-social-behaviour","location_type":"Force","location":{"latitude":"51.487179","street":{"id":950448,"name":"On or near Chelmsford Close"},"longitude":"-0.215710"},"context":"","outcome_status":null,"persistent_id":"","id":74285098,"location_subtype":"","month":"2019-05"},{"category":"anti-social-behaviour","location_type":"Force","location":{"latitude":"51.494166","street":{"id":952658,"name":"On or near Hammersmith Road"},"longitude":"-0.213968"},"context":"","outcome_status":null,"persistent_id":"","id":74285095,"location_subtype":"","month":"2019-05"},{"category":"anti-social-behaviour","location_type":"Force","location":{"latitude":"51.498344","street":{"id":952462,"name":"On or near Porten Road"},"longitude":"-0.214309"},"context":"","outcome_status":null,"persistent_id":"","id":74285094,"location_subtype":"","month":"2019-05"},{"category":"anti-social-behaviour","location_type":"Force","location":{"latitude":"51.499727","street":{"id":952457,"name":"On or near Sinclair Road"},"longitude":"-0.213592"},"context":"","outcome_status":null,"persistent_id":"","id":74285093,"location_subtype":"","month":"2019-05"},{"category":"anti-social-behaviour","location_type":"Force","location":{"latitude":"51.491865","street":{"id":950459,"name":"On or near Further\/higher Educational Building"},"longitude":"-0.214014"},"context":"","outcome_status":null,"persistent_id":"","id":74285092,"location_subtype":"","month":"2019-05"},{"category":"anti-social-behaviour","location_type":"Force","location":{"latitude":"51.487092","street":{"id":950440,"name":"On or near Field Road"},"longitude":"-0.213567"},"context":"","outcome_status":null,"persistent_id":"","id":74285091,"location_subtype":"","month":"2019-05"},{"category":"anti-social-behaviour","location_type":"Force","location":{"latitude":"51.485854","street":{"id":950418,"name":"On or near Spencer Mews"},"longitude":"-0.213774"},"context":"","outcome_status":null,"persistent_id":"","id":74285090,"location_subtype":"","month":"2019-05"},{"category":"anti-social-behaviour","location_type":"Force","location":{"latitude":"51.485854","street":{"id":950418,"name":"On or near Spencer Mews"},"longitude":"-0.213774"},"context":"","outcome_status":null,"persistent_id":"","id":74285089,"location_subtype":"","month":"2019-05"},{"category":"anti-social-behaviour","location_type":"Force","location":{"latitude":"51.495318","street":{"id":952656,"name":"On or near Lyons Walk"},"longitude":"-0.212223"},"context":"","outcome_status":null,"persistent_id":"","id":74285087,"location_subtype":"","month":"2019-05"},{"category":"anti-social-behaviour","location_type":"Force","location":{"latitude":"51.497568","street":{"id":952471,"name":"On or near Hazlitt Road"},"longitude":"-0.212956"},"context":"","outcome_status":null,"persistent_id":"","id":74285088,"location_subtype":"","month":"2019-05"},{"category":"anti-social-behaviour","location_type":"Force","location":{"latitude":"51.490121","street":{"id":950427,"name":"On or near Margravine Gardens"},"longitude":"-0.213463"},"context":"","outcome_status":null,"persistent_id":"","id":74284073,"location_subtype":"","month":"2019-05"},{"category":"anti-social-behaviour","location_type":"Force","location":{"latitude":"51.490121","street":{"id":950427,"name":"On or near Margravine Gardens"},"longitude":"-0.213463"},"context":"","outcome_status":null,"persistent_id":"","id":74284072,"location_subtype":"","month":"2019-05"},{"category":"anti-social-behaviour","location_type":"Force","location":{"latitude":"51.490121","street":{"id":950427,"name":"On or near Margravine Gardens"},"longitude":"-0.213463"},"context":"","outcome_status":null,"persistent_id":"","id":74284071,"location_subtype":"","month":"2019-05"},{"category":"anti-social-behaviour","location_type":"Force","location":{"latitude":"51.497568","street":{"id":952471,"name":"On or near Hazlitt Road"},"longitude":"-0.212956"},"context":"","outcome_status":null,"persistent_id":"","id":74284070,"location_subtype":"","month":"2019-05"},{"category":"anti-social-behaviour","location_type":"Force","location":{"latitude":"51.489210","street":{"id":950422,"name":"On or near Palliser Road"},"longitude":"-0.212663"},"context":"","outcome_status":null,"persistent_id":"","id":74284068,"location_subtype":"","month":"2019-05"},{"category":"anti-social-behaviour","location_type":"Force","location":{"latitude":"51.483744","street":{"id":950403,"name":"On or near Humbolt Road"},"longitude":"-0.212171"},"context":"","outcome_status":null,"persistent_id":"","id":74284067,"location_subtype":"","month":"2019-05"},{"category":"anti-social-behaviour","location_type":"Force","location":{"latitude":"51.491596","street":{"id":950163,"name":"On or near Glazbury Road"},"longitude":"-0.211144"},"context":"","outcome_status":null,"persistent_id":"","id":74284063,"location_subtype":"","month":"2019-05"},{"category":"anti-social-behaviour","location_type":"Force","location":{"latitude":"51.495496","street":{"id":952813,"name":"On or near Earsby Street"},"longitude":"-0.209176"},"context":"","outcome_status":null,"persistent_id":"","id":74284051,"location_subtype":"","month":"2019-05"},{"category":"anti-social-behaviour","location_type":"Force","location":{"latitude":"51.493313","street":{"id":950144,"name":"On or near North End Road"},"longitude":"-0.208729"},"context":"","outcome_status":null,"persistent_id":"","id":74284050,"location_subtype":"","month":"2019-05"},{"category":"anti-social-behaviour","location_type":"Force","location":{"latitude":"51.490625","street":{"id":950215,"name":"On or near Warwick Road"},"longitude":"-0.196489"},"context":"","outcome_status":null,"persistent_id":"","id":74278073,"location_subtype":"","month":"2019-05"},{"category":"anti-social-behaviour","location_type":"Force","location":{"latitude":"51.491488","street":{"id":950131,"name":"On or near Trevanion Road"},"longitude":"-0.209333"},"context":"","outcome_status":null,"persistent_id":"","id":74284047,"location_subtype":"","month":"2019-05"},{"category":"anti-social-behaviour","location_type":"Force","location":{"latitude":"51.487674","street":{"id":950152,"name":"On or near May Street"},"longitude":"-0.207480"},"context":"","outcome_status":null,"persistent_id":"","id":74284044,"location_subtype":"","month":"2019-05"},{"category":"anti-social-behaviour","location_type":"Force","location":{"latitude":"51.488452","street":{"id":950177,"name":"On or near Challoner Crescent"},"longitude":"-0.206053"},"context":"","outcome_status":null,"persistent_id":"","id":74284038,"location_subtype":"","month":"2019-05"},{"category":"anti-social-behaviour","location_type":"Force","location":{"latitude":"51.485080","street":{"id":950120,"name":"On or near Parking Area"},"longitude":"-0.206660"},"context":"","outcome_status":null,"persistent_id":"","id":74284037,"location_subtype":"","month":"2019-05"},{"category":"anti-social-behaviour","location_type":"Force","location":{"latitude":"51.490381","street":{"id":950182,"name":"On or near Beaumont Avenue"},"longitude":"-0.205761"},"context":"","outcome_status":null,"persistent_id":"","id":74284027,"location_subtype":"","month":"2019-05"},{"category":"anti-social-behaviour","location_type":"Force","location":{"latitude":"51.490381","street":{"id":950182,"name":"On or near Beaumont Avenue"},"longitude":"-0.205761"},"context":"","outcome_status":null,"persistent_id":"","id":74284026,"location_subtype":"","month":"2019-05"},{"category":"anti-social-behaviour","location_type":"Force","location":{"latitude":"51.490381","street":{"id":950182,"name":"On or near Beaumont Avenue"},"longitude":"-0.205761"},"context":"","outcome_status":null,"persistent_id":"","id":74284025,"location_subtype":"","month":"2019-05"},{"category":"anti-social-behaviour","location_type":"Force","location":{"latitude":"51.493288","street":{"id":950153,"name":"On or near Matheson Road"},"longitude":"-0.205949"},"context":"","outcome_status":null,"persistent_id":"","id":74284024,"location_subtype":"","month":"2019-05"},{"category":"anti-social-behaviour","location_type":"Force","location":{"latitude":"51.492188","street":{"id":950151,"name":"On or near Mornington Avenue"},"longitude":"-0.205748"},"context":"","outcome_status":null,"persistent_id":"","id":74284017,"location_subtype":"","month":"2019-05"},{"category":"anti-social-behaviour","location_type":"Force","location":{"latitude":"51.492818","street":{"id":950137,"name":"On or near Stanwick Road"},"longitude":"-0.205204"},"context":"","outcome_status":null,"persistent_id":"","id":74284012,"location_subtype":"","month":"2019-05"},{"category":"anti-social-behaviour","location_type":"Force","location":{"latitude":"51.484434","street":{"id":950156,"name":"On or near Lillie Road"},"longitude":"-0.204972"},"context":"","outcome_status":null,"persistent_id":"","id":74284010,"location_subtype":"","month":"2019-05"},{"category":"anti-social-behaviour","location_type":"Force","location":{"latitude":"51.488957","street":{"id":950149,"name":"On or near Mund Street"},"longitude":"-0.203786"},"context":"","outcome_status":null,"persistent_id":"","id":74284005,"location_subtype":"","month":"2019-05"},{"category":"anti-social-behaviour","location_type":"Force","location":{"latitude":"51.485336","street":{"id":950155,"name":"On or near Lillie Road"},"longitude":"-0.202790"},"context":"","outcome_status":null,"persistent_id":"","id":74284002,"location_subtype":"","month":"2019-05"},{"category":"anti-social-behaviour","location_type":"Force","location":{"latitude":"51.485336","street":{"id":950155,"name":"On or near Lillie Road"},"longitude":"-0.202790"},"context":"","outcome_status":null,"persistent_id":"","id":74284001,"location_subtype":"","month":"2019-05"},{"category":"anti-social-behaviour","location_type":"Force","location":{"latitude":"51.485336","street":{"id":950155,"name":"On or near Lillie Road"},"longitude":"-0.202790"},"context":"","outcome_status":null,"persistent_id":"","id":74284000,"location_subtype":"","month":"2019-05"},{"category":"anti-social-behaviour","location_type":"Force","location":{"latitude":"51.486457","street":{"id":950234,"name":"On or near Lillie Yard"},"longitude":"-0.197330"},"context":"","outcome_status":null,"persistent_id":"","id":74283965,"location_subtype":"","month":"2019-05"},{"category":"anti-social-behaviour","location_type":"Force","location":{"latitude":"51.510599","street":{"id":957410,"name":"On or near St Anns Road"},"longitude":"-0.216582"},"context":"","outcome_status":null,"persistent_id":"","id":74279198,"location_subtype":"","month":"2019-05"},{"category":"anti-social-behaviour","location_type":"Force","location":{"latitude":"51.506635","street":{"id":952516,"name":"On or near Norland Road"},"longitude":"-0.216103"},"context":"","outcome_status":null,"persistent_id":"","id":74279191,"location_subtype":"","month":"2019-05"},{"category":"anti-social-behaviour","location_type":"Force","location":{"latitude":"51.502403","street":{"id":952531,"name":"On or near Addison Gardens"},"longitude":"-0.214568"},"context":"","outcome_status":null,"persistent_id":"","id":74279182,"location_subtype":"","month":"2019-05"},{"category":"anti-social-behaviour","location_type":"Force","location":{"latitude":"51.502403","street":{"id":952531,"name":"On or near Addison Gardens"},"longitude":"-0.214568"},"context":"","outcome_status":null,"persistent_id":"","id":74279181,"location_subtype":"","month":"2019-05"},{"category":"anti-social-behaviour","location_type":"Force","location":{"latitude":"51.502403","street":{"id":952531,"name":"On or near Addison Gardens"},"longitude":"-0.214568"},"context":"","outcome_status":null,"persistent_id":"","id":74279180,"location_subtype":"","month":"2019-05"},{"category":"anti-social-behaviour","location_type":"Force","location":{"latitude":"51.511044","street":{"id":957432,"name":"On or near Gorham Place"},"longitude":"-0.213927"},"context":"","outcome_status":null,"persistent_id":"","id":74279179,"location_subtype":"","month":"2019-05"},{"category":"anti-social-behaviour","location_type":"Force","location":{"latitude":"51.511044","street":{"id":957432,"name":"On or near Gorham Place"},"longitude":"-0.213927"},"context":"","outcome_status":null,"persistent_id":"","id":74279187,"location_subtype":"","month":"2019-05"},{"category":"anti-social-behaviour","location_type":"Force","location":{"latitude":"51.502403","street":{"id":952531,"name":"On or near Addison Gardens"},"longitude":"-0.214568"},"context":"","outcome_status":null,"persistent_id":"","id":74279173,"location_subtype":"","month":"2019-05"},{"category":"anti-social-behaviour","location_type":"Force","location":{"latitude":"51.500405","street":{"id":952458,"name":"On or near Russell Gardens Mews"},"longitude":"-0.212658"},"context":"","outcome_status":null,"persistent_id":"","id":74279170,"location_subtype":"","month":"2019-05"},{"category":"anti-social-behaviour","location_type":"Force","location":{"latitude":"51.512176","street":{"id":957417,"name":"On or near Runcorn Place"},"longitude":"-0.212673"},"context":"","outcome_status":null,"persistent_id":"","id":74279168,"location_subtype":"","month":"2019-05"},{"category":"anti-social-behaviour","location_type":"Force","location":{"latitude":"51.501237","street":{"id":952526,"name":"On or near Elsham Road"},"longitude":"-0.212985"},"context":"","outcome_status":null,"persistent_id":"","id":74279162,"location_subtype":"","month":"2019-05"},{"category":"anti-social-behaviour","location_type":"Force","location":{"latitude":"51.496311","street":{"id":952900,"name":"On or near Osten Mews"},"longitude":"-0.187332"},"context":"","outcome_status":null,"persistent_id":"","id":74278002,"location_subtype":"","month":"2019-05"},{"category":"anti-social-behaviour","location_type":"Force","location":{"latitude":"51.493710","street":{"id":952964,"name":"On or near Courtfield Gardens"},"longitude":"-0.188300"},"context":"","outcome_status":null,"persistent_id":"","id":74278007,"location_subtype":"","month":"2019-05"},{"category":"anti-social-behaviour","location_type":"Force","location":{"latitude":"51.493710","street":{"id":952964,"name":"On or near Courtfield Gardens"},"longitude":"-0.188300"},"context":"","outcome_status":null,"persistent_id":"","id":74278008,"location_subtype":"","month":"2019-05"},{"category":"anti-social-behaviour","location_type":"Force","location":{"latitude":"51.502516","street":{"id":952936,"name":"On or near Kensington Road"},"longitude":"-0.188484"},"context":"","outcome_status":null,"persistent_id":"","id":74278009,"location_subtype":"","month":"2019-05"},{"category":"anti-social-behaviour","location_type":"Force","location":{"latitude":"51.502516","street":{"id":952936,"name":"On or near Kensington Road"},"longitude":"-0.188484"},"context":"","outcome_status":null,"persistent_id":"","id":74278010,"location_subtype":"","month":"2019-05"},{"category":"anti-social-behaviour","location_type":"Force","location":{"latitude":"51.495407","street":{"id":952833,"name":"On or near Pennant Mews"},"longitude":"-0.191056"},"context":"","outcome_status":null,"persistent_id":"","id":74278024,"location_subtype":"","month":"2019-05"},{"category":"anti-social-behaviour","location_type":"Force","location":{"latitude":"51.495407","street":{"id":952833,"name":"On or near Pennant Mews"},"longitude":"-0.191056"},"context":"","outcome_status":null,"persistent_id":"","id":74278025,"location_subtype":"","month":"2019-05"},{"category":"anti-social-behaviour","location_type":"Force","location":{"latitude":"51.496783","street":{"id":952884,"name":"On or near Thomas Place"},"longitude":"-0.189950"},"context":"","outcome_status":null,"persistent_id":"","id":74278026,"location_subtype":"","month":"2019-05"},{"category":"anti-social-behaviour","location_type":"Force","location":{"latitude":"51.496783","street":{"id":952884,"name":"On or near Thomas Place"},"longitude":"-0.189950"},"context":"","outcome_status":null,"persistent_id":"","id":74278027,"location_subtype":"","month":"2019-05"},{"category":"anti-social-behaviour","location_type":"Force","location":{"latitude":"51.496783","street":{"id":952884,"name":"On or near Thomas Place"},"longitude":"-0.189950"},"context":"","outcome_status":null,"persistent_id":"","id":74278028,"location_subtype":"","month":"2019-05"},{"category":"anti-social-behaviour","location_type":"Force","location":{"latitude":"51.491173","street":{"id":949957,"name":"On or near Bramham Gardens"},"longitude":"-0.190028"},"context":"","outcome_status":null,"persistent_id":"","id":74278029,"location_subtype":"","month":"2019-05"},{"category":"anti-social-behaviour","location_type":"Force","location":{"latitude":"51.500808","street":{"id":952731,"name":"On or near Kensington Square"},"longitude":"-0.190237"},"context":"","outcome_status":null,"persistent_id":"","id":74278032,"location_subtype":"","month":"2019-05"},{"category":"anti-social-behaviour","location_type":"Force","location":{"latitude":"51.500808","street":{"id":952731,"name":"On or near Kensington Square"},"longitude":"-0.190237"},"context":"","outcome_status":null,"persistent_id":"","id":74278033,"location_subtype":"","month":"2019-05"},{"category":"anti-social-behaviour","location_type":"Force","location":{"latitude":"51.491069","street":{"id":950242,"name":"On or near Earl's Court Road"},"longitude":"-0.191444"},"context":"","outcome_status":null,"persistent_id":"","id":74278035,"location_subtype":"","month":"2019-05"},{"category":"anti-social-behaviour","location_type":"Force","location":{"latitude":"51.491069","street":{"id":950242,"name":"On or near Earl's Court Road"},"longitude":"-0.191444"},"context":"","outcome_status":null,"persistent_id":"","id":74278036,"location_subtype":"","month":"2019-05"},{"category":"anti-social-behaviour","location_type":"Force","location":{"latitude":"51.495407","street":{"id":952833,"name":"On or near Pennant Mews"},"longitude":"-0.191056"},"context":"","outcome_status":null,"persistent_id":"","id":74278038,"location_subtype":"","month":"2019-05"},{"category":"anti-social-behaviour","location_type":"Force","location":{"latitude":"51.495407","street":{"id":952833,"name":"On or near Pennant Mews"},"longitude":"-0.191056"},"context":"","outcome_status":null,"persistent_id":"","id":74278039,"location_subtype":"","month":"2019-05"},{"category":"anti-social-behaviour","location_type":"Force","location":{"latitude":"51.501632","street":{"id":952733,"name":"On or near Kensington High Street"},"longitude":"-0.191790"},"context":"","outcome_status":null,"persistent_id":"","id":74278040,"location_subtype":"","month":"2019-05"},{"category":"anti-social-behaviour","location_type":"Force","location":{"latitude":"51.501632","street":{"id":952733,"name":"On or near Kensington High Street"},"longitude":"-0.191790"},"context":"","outcome_status":null,"persistent_id":"","id":74278041,"location_subtype":"","month":"2019-05"},{"category":"anti-social-behaviour","location_type":"Force","location":{"latitude":"51.492845","street":{"id":950245,"name":"On or near Earl's Court Gardens"},"longitude":"-0.191691"},"context":"","outcome_status":null,"persistent_id":"","id":74278042,"location_subtype":"","month":"2019-05"},{"category":"anti-social-behaviour","location_type":"Force","location":{"latitude":"51.492845","street":{"id":950245,"name":"On or near Earl's Court Gardens"},"longitude":"-0.191691"},"context":"","outcome_status":null,"persistent_id":"","id":74278043,"location_subtype":"","month":"2019-05"},{"category":"anti-social-behaviour","location_type":"Force","location":{"latitude":"51.492845","street":{"id":950245,"name":"On or near Earl's Court Gardens"},"longitude":"-0.191691"},"context":"","outcome_status":null,"persistent_id":"","id":74278044,"location_subtype":"","month":"2019-05"},{"category":"anti-social-behaviour","location_type":"Force","location":{"latitude":"51.492845","street":{"id":950245,"name":"On or near Earl's Court Gardens"},"longitude":"-0.191691"},"context":"","outcome_status":null,"persistent_id":"","id":74278045,"location_subtype":"","month":"2019-05"},{"category":"anti-social-behaviour","location_type":"Force","location":{"latitude":"51.489945","street":{"id":950239,"name":"On or near Farnell Mews"},"longitude":"-0.192007"},"context":"","outcome_status":null,"persistent_id":"","id":74278047,"location_subtype":"","month":"2019-05"},{"category":"anti-social-behaviour","location_type":"Force","location":{"latitude":"51.493276","street":{"id":952843,"name":"On or near Hogarth Road"},"longitude":"-0.192236"},"context":"","outcome_status":null,"persistent_id":"","id":74278048,"location_subtype":"","month":"2019-05"},{"category":"anti-social-behaviour","location_type":"Force","location":{"latitude":"51.493276","street":{"id":952843,"name":"On or near Hogarth Road"},"longitude":"-0.192236"},"context":"","outcome_status":null,"persistent_id":"","id":74278049,"location_subtype":"","month":"2019-05"},{"category":"anti-social-behaviour","location_type":"Force","location":{"latitude":"51.493445","street":{"id":952842,"name":"On or near Kenway Road"},"longitude":"-0.192747"},"context":"","outcome_status":null,"persistent_id":"","id":74278050,"location_subtype":"","month":"2019-05"},{"category":"anti-social-behaviour","location_type":"Force","location":{"latitude":"51.500004","street":{"id":952682,"name":"On or near Wright's Lane"},"longitude":"-0.192935"},"context":"","outcome_status":null,"persistent_id":"","id":74278051,"location_subtype":"","month":"2019-05"},{"category":"anti-social-behaviour","location_type":"Force","location":{"latitude":"51.498768","street":{"id":952701,"name":"On or near Cheniston Gardens"},"longitude":"-0.192710"},"context":"","outcome_status":null,"persistent_id":"","id":74278053,"location_subtype":"","month":"2019-05"},{"category":"anti-social-behaviour","location_type":"Force","location":{"latitude":"51.496485","street":{"id":952690,"name":"On or near Radley Mews"},"longitude":"-0.193304"},"context":"","outcome_status":null,"persistent_id":"","id":74278056,"location_subtype":"","month":"2019-05"},{"category":"anti-social-behaviour","location_type":"Force","location":{"latitude":"51.501202","street":{"id":952727,"name":"On or near Phillimore Walk"},"longitude":"-0.194242"},"context":"","outcome_status":null,"persistent_id":"","id":74278057,"location_subtype":"","month":"2019-05"},{"category":"anti-social-behaviour","location_type":"Force","location":{"latitude":"51.501202","street":{"id":952727,"name":"On or near Phillimore Walk"},"longitude":"-0.194242"},"context":"","outcome_status":null,"persistent_id":"","id":74278058,"location_subtype":"","month":"2019-05"},{"category":"anti-social-behaviour","location_type":"Force","location":{"latitude":"51.506587","street":{"id":957310,"name":"On or near Berkeley Gardens"},"longitude":"-0.194130"},"context":"","outcome_status":null,"persistent_id":"","id":74278060,"location_subtype":"","month":"2019-05"},{"category":"anti-social-behaviour","location_type":"Force","location":{"latitude":"51.501202","street":{"id":952727,"name":"On or near Phillimore Walk"},"longitude":"-0.194242"},"context":"","outcome_status":null,"persistent_id":"","id":74278061,"location_subtype":"","month":"2019-05"},{"category":"anti-social-behaviour","location_type":"Force","location":{"latitude":"51.501202","street":{"id":952727,"name":"On or near Phillimore Walk"},"longitude":"-0.194242"},"context":"","outcome_status":null,"persistent_id":"","id":74278062,"location_subtype":"","month":"2019-05"},{"category":"anti-social-behaviour","location_type":"Force","location":{"latitude":"51.501202","street":{"id":952727,"name":"On or near Phillimore Walk"},"longitude":"-0.194242"},"context":"","outcome_status":null,"persistent_id":"","id":74278063,"location_subtype":"","month":"2019-05"},{"category":"anti-social-behaviour","location_type":"Force","location":{"latitude":"51.501202","street":{"id":952727,"name":"On or near Phillimore Walk"},"longitude":"-0.194242"},"context":"","outcome_status":null,"persistent_id":"","id":74278064,"location_subtype":"","month":"2019-05"},{"category":"anti-social-behaviour","location_type":"Force","location":{"latitude":"51.501202","street":{"id":952727,"name":"On or near Phillimore Walk"},"longitude":"-0.194242"},"context":"","outcome_status":null,"persistent_id":"","id":74278065,"location_subtype":"","month":"2019-05"},{"category":"anti-social-behaviour","location_type":"Force","location":{"latitude":"51.501202","street":{"id":952727,"name":"On or near Phillimore Walk"},"longitude":"-0.194242"},"context":"","outcome_status":null,"persistent_id":"","id":74278066,"location_subtype":"","month":"2019-05"},{"category":"anti-social-behaviour","location_type":"Force","location":{"latitude":"51.488755","street":{"id":950236,"name":"On or near Kempsford Gardens"},"longitude":"-0.194762"},"context":"","outcome_status":null,"persistent_id":"","id":74278067,"location_subtype":"","month":"2019-05"},{"category":"anti-social-behaviour","location_type":"Force","location":{"latitude":"51.491620","street":{"id":950216,"name":"On or near Trebovir Road"},"longitude":"-0.195110"},"context":"","outcome_status":null,"persistent_id":"","id":74278068,"location_subtype":"","month":"2019-05"},{"category":"anti-social-behaviour","location_type":"Force","location":{"latitude":"51.491620","street":{"id":950216,"name":"On or near Trebovir Road"},"longitude":"-0.195110"},"context":"","outcome_status":null,"persistent_id":"","id":74278069,"location_subtype":"","month":"2019-05"},{"category":"anti-social-behaviour","location_type":"Force","location":{"latitude":"51.491620","street":{"id":950216,"name":"On or near Trebovir Road"},"longitude":"-0.195110"},"context":"","outcome_status":null,"persistent_id":"","id":74278070,"location_subtype":"","month":"2019-05"},{"category":"anti-social-behaviour","location_type":"Force","location":{"latitude":"51.491620","street":{"id":950216,"name":"On or near Trebovir Road"},"longitude":"-0.195110"},"context":"","outcome_status":null,"persistent_id":"","id":74278071,"location_subtype":"","month":"2019-05"},{"category":"anti-social-behaviour","location_type":"Force","location":{"latitude":"51.499502","street":{"id":952706,"name":"On or near Adam And Eve Mews"},"longitude":"-0.194828"},"context":"","outcome_status":null,"persistent_id":"","id":74278072,"location_subtype":"","month":"2019-05"},{"category":"anti-social-behaviour","location_type":"Force","location":{"latitude":"51.490625","street":{"id":950215,"name":"On or near Warwick Road"},"longitude":"-0.196489"},"context":"","outcome_status":null,"persistent_id":"","id":74278074,"location_subtype":"","month":"2019-05"},{"category":"anti-social-behaviour","location_type":"Force","location":{"latitude":"51.490625","street":{"id":950215,"name":"On or near Warwick Road"},"longitude":"-0.196489"},"context":"","outcome_status":null,"persistent_id":"","id":74278075,"location_subtype":"","month":"2019-05"},{"category":"anti-social-behaviour","location_type":"Force","location":{"latitude":"51.490625","street":{"id":950215,"name":"On or near Warwick Road"},"longitude":"-0.196489"},"context":"","outcome_status":null,"persistent_id":"","id":74278076,"location_subtype":"","month":"2019-05"},{"category":"anti-social-behaviour","location_type":"Force","location":{"latitude":"51.490625","street":{"id":950215,"name":"On or near Warwick Road"},"longitude":"-0.196489"},"context":"","outcome_status":null,"persistent_id":"","id":74278077,"location_subtype":"","month":"2019-05"},{"category":"anti-social-behaviour","location_type":"Force","location":{"latitude":"51.504165","street":{"id":952752,"name":"On or near Campden Grove"},"longitude":"-0.194557"},"context":"","outcome_status":null,"persistent_id":"","id":74278078,"location_subtype":"","month":"2019-05"},{"category":"anti-social-behaviour","location_type":"Force","location":{"latitude":"51.491620","street":{"id":950216,"name":"On or near Trebovir Road"},"longitude":"-0.195110"},"context":"","outcome_status":null,"persistent_id":"","id":74278079,"location_subtype":"","month":"2019-05"},{"category":"anti-social-behaviour","location_type":"Force","location":{"latitude":"51.491620","street":{"id":950216,"name":"On or near Trebovir Road"},"longitude":"-0.195110"},"context":"","outcome_status":null,"persistent_id":"","id":74278080,"location_subtype":"","month":"2019-05"},{"category":"anti-social-behaviour","location_type":"Force","location":{"latitude":"51.503087","street":{"id":952739,"name":"On or near Hornton Street"},"longitude":"-0.195161"},"context":"","outcome_status":null,"persistent_id":"","id":74278081,"location_subtype":"","month":"2019-05"},{"category":"anti-social-behaviour","location_type":"Force","location":{"latitude":"51.503087","street":{"id":952739,"name":"On or near Hornton Street"},"longitude":"-0.195161"},"context":"","outcome_status":null,"persistent_id":"","id":74278082,"location_subtype":"","month":"2019-05"},{"category":"anti-social-behaviour","location_type":"Force","location":{"latitude":"51.503087","street":{"id":952739,"name":"On or near Hornton Street"},"longitude":"-0.195161"},"context":"","outcome_status":null,"persistent_id":"","id":74278083,"location_subtype":"","month":"2019-05"},{"category":"anti-social-behaviour","location_type":"Force","location":{"latitude":"51.493175","street":{"id":950233,"name":"On or near Longridge Road"},"longitude":"-0.197382"},"context":"","outcome_status":null,"persistent_id":"","id":74278086,"location_subtype":"","month":"2019-05"},{"category":"anti-social-behaviour","location_type":"Force","location":{"latitude":"51.493175","street":{"id":950233,"name":"On or near Longridge Road"},"longitude":"-0.197382"},"context":"","outcome_status":null,"persistent_id":"","id":74278087,"location_subtype":"","month":"2019-05"},{"category":"anti-social-behaviour","location_type":"Force","location":{"latitude":"51.493175","street":{"id":950233,"name":"On or near Longridge Road"},"longitude":"-0.197382"},"context":"","outcome_status":null,"persistent_id":"","id":74278088,"location_subtype":"","month":"2019-05"},{"category":"anti-social-behaviour","location_type":"Force","location":{"latitude":"51.493175","street":{"id":950233,"name":"On or near Longridge Road"},"longitude":"-0.197382"},"context":"","outcome_status":null,"persistent_id":"","id":74278089,"location_subtype":"","month":"2019-05"},{"category":"anti-social-behaviour","location_type":"Force","location":{"latitude":"51.493175","street":{"id":950233,"name":"On or near Longridge Road"},"longitude":"-0.197382"},"context":"","outcome_status":null,"persistent_id":"","id":74278090,"location_subtype":"","month":"2019-05"},{"category":"anti-social-behaviour","location_type":"Force","location":{"latitude":"51.493175","street":{"id":950233,"name":"On or near Longridge Road"},"longitude":"-0.197382"},"context":"","outcome_status":null,"persistent_id":"","id":74278091,"location_subtype":"","month":"2019-05"},{"category":"anti-social-behaviour","location_type":"Force","location":{"latitude":"51.500546","street":{"id":952685,"name":"On or near Stafford Terrace"},"longitude":"-0.197178"},"context":"","outcome_status":null,"persistent_id":"","id":74278092,"location_subtype":"","month":"2019-05"},{"category":"anti-social-behaviour","location_type":"Force","location":{"latitude":"51.506862","street":{"id":957294,"name":"On or near Peel Street"},"longitude":"-0.196813"},"context":"","outcome_status":null,"persistent_id":"","id":74278093,"location_subtype":"","month":"2019-05"},{"category":"anti-social-behaviour","location_type":"Force","location":{"latitude":"51.506862","street":{"id":957294,"name":"On or near Peel Street"},"longitude":"-0.196813"},"context":"","outcome_status":null,"persistent_id":"","id":74278094,"location_subtype":"","month":"2019-05"},{"category":"anti-social-behaviour","location_type":"Force","location":{"latitude":"51.506862","street":{"id":957294,"name":"On or near Peel Street"},"longitude":"-0.196813"},"context":"","outcome_status":null,"persistent_id":"","id":74278095,"location_subtype":"","month":"2019-05"},{"category":"anti-social-behaviour","location_type":"Force","location":{"latitude":"51.506862","street":{"id":957294,"name":"On or near Peel Street"},"longitude":"-0.196813"},"context":"","outcome_status":null,"persistent_id":"","id":74278096,"location_subtype":"","month":"2019-05"},{"category":"anti-social-behaviour","location_type":"Force","location":{"latitude":"51.493175","street":{"id":950233,"name":"On or near Longridge Road"},"longitude":"-0.197382"},"context":"","outcome_status":null,"persistent_id":"","id":74278097,"location_subtype":"","month":"2019-05"},{"category":"anti-social-behaviour","location_type":"Force","location":{"latitude":"51.493175","street":{"id":950233,"name":"On or near Longridge Road"},"longitude":"-0.197382"},"context":"","outcome_status":null,"persistent_id":"","id":74278098,"location_subtype":"","month":"2019-05"},{"category":"anti-social-behaviour","location_type":"Force","location":{"latitude":"51.504301","street":{"id":952750,"name":"On or near Campden House Close"},"longitude":"-0.196381"},"context":"","outcome_status":null,"persistent_id":"","id":74278101,"location_subtype":"","month":"2019-05"},{"category":"anti-social-behaviour","location_type":"Force","location":{"latitude":"51.508338","street":{"id":957307,"name":"On or near Farmer Street"},"longitude":"-0.196870"},"context":"","outcome_status":null,"persistent_id":"","id":74278102,"location_subtype":"","month":"2019-05"},{"category":"anti-social-behaviour","location_type":"Force","location":{"latitude":"51.494744","street":{"id":952837,"name":"On or near Logan Place"},"longitude":"-0.197666"},"context":"","outcome_status":null,"persistent_id":"","id":74278103,"location_subtype":"","month":"2019-05"},{"category":"anti-social-behaviour","location_type":"Force","location":{"latitude":"51.494744","street":{"id":952837,"name":"On or near Logan Place"},"longitude":"-0.197666"},"context":"","outcome_status":null,"persistent_id":"","id":74278104,"location_subtype":"","month":"2019-05"},{"category":"anti-social-behaviour","location_type":"Force","location":{"latitude":"51.494744","street":{"id":952837,"name":"On or near Logan Place"},"longitude":"-0.197666"},"context":"","outcome_status":null,"persistent_id":"","id":74278105,"location_subtype":"","month":"2019-05"},{"category":"anti-social-behaviour","location_type":"Force","location":{"latitude":"51.492797","street":{"id":950229,"name":"On or near Nevern Road"},"longitude":"-0.197973"},"context":"","outcome_status":null,"persistent_id":"","id":74278109,"location_subtype":"","month":"2019-05"},{"category":"anti-social-behaviour","location_type":"Force","location":{"latitude":"51.492797","street":{"id":950229,"name":"On or near Nevern Road"},"longitude":"-0.197973"},"context":"","outcome_status":null,"persistent_id":"","id":74278110,"location_subtype":"","month":"2019-05"},{"category":"anti-social-behaviour","location_type":"Force","location":{"latitude":"51.492797","street":{"id":950229,"name":"On or near Nevern Road"},"longitude":"-0.197973"},"context":"","outcome_status":null,"persistent_id":"","id":74278111,"location_subtype":"","month":"2019-05"},{"category":"anti-social-behaviour","location_type":"Force","location":{"latitude":"51.498696","street":{"id":952709,"name":"On or near Supermarket"},"longitude":"-0.197914"},"context":"","outcome_status":null,"persistent_id":"","id":74278112,"location_subtype":"","month":"2019-05"},{"category":"anti-social-behaviour","location_type":"Force","location":{"latitude":"51.491777","street":{"id":950228,"name":"On or near Nevern Square"},"longitude":"-0.197092"},"context":"","outcome_status":null,"persistent_id":"","id":74278115,"location_subtype":"","month":"2019-05"},{"category":"anti-social-behaviour","location_type":"Force","location":{"latitude":"51.491777","street":{"id":950228,"name":"On or near Nevern Square"},"longitude":"-0.197092"},"context":"","outcome_status":null,"persistent_id":"","id":74278116,"location_subtype":"","month":"2019-05"},{"category":"anti-social-behaviour","location_type":"Force","location":{"latitude":"51.491777","street":{"id":950228,"name":"On or near Nevern Square"},"longitude":"-0.197092"},"context":"","outcome_status":null,"persistent_id":"","id":74278117,"location_subtype":"","month":"2019-05"},{"category":"anti-social-behaviour","location_type":"Force","location":{"latitude":"51.491777","street":{"id":950228,"name":"On or near Nevern Square"},"longitude":"-0.197092"},"context":"","outcome_status":null,"persistent_id":"","id":74278118,"location_subtype":"","month":"2019-05"},{"category":"anti-social-behaviour","location_type":"Force","location":{"latitude":"51.491777","street":{"id":950228,"name":"On or near Nevern Square"},"longitude":"-0.197092"},"context":"","outcome_status":null,"persistent_id":"","id":74278119,"location_subtype":"","month":"2019-05"},{"category":"anti-social-behaviour","location_type":"Force","location":{"latitude":"51.509028","street":{"id":957319,"name":"On or near Supermarket"},"longitude":"-0.198529"},"context":"","outcome_status":null,"persistent_id":"","id":74278120,"location_subtype":"","month":"2019-05"},{"category":"anti-social-behaviour","location_type":"Force","location":{"latitude":"51.493181","street":{"id":950199,"name":"On or near West Cromwell Road"},"longitude":"-0.198967"},"context":"","outcome_status":null,"persistent_id":"","id":74278121,"location_subtype":"","month":"2019-05"},{"category":"anti-social-behaviour","location_type":"Force","location":{"latitude":"51.492408","street":{"id":950205,"name":"On or near Cluny Mews"},"longitude":"-0.200135"},"context":"","outcome_status":null,"persistent_id":"","id":74278122,"location_subtype":"","month":"2019-05"},{"category":"anti-social-behaviour","location_type":"Force","location":{"latitude":"51.492408","street":{"id":950205,"name":"On or near Cluny Mews"},"longitude":"-0.200135"},"context":"","outcome_status":null,"persistent_id":"","id":74278123,"location_subtype":"","month":"2019-05"},{"category":"anti-social-behaviour","location_type":"Force","location":{"latitude":"51.494957","street":{"id":952826,"name":"On or near Pembroke Road"},"longitude":"-0.199257"},"context":"","outcome_status":null,"persistent_id":"","id":74278125,"location_subtype":"","month":"2019-05"},{"category":"anti-social-behaviour","location_type":"Force","location":{"latitude":"51.509028","street":{"id":957319,"name":"On or near Supermarket"},"longitude":"-0.198529"},"context":"","outcome_status":null,"persistent_id":"","id":74278126,"location_subtype":"","month":"2019-05"},{"category":"anti-social-behaviour","location_type":"Force","location":{"latitude":"51.509028","street":{"id":957319,"name":"On or near Supermarket"},"longitude":"-0.198529"},"context":"","outcome_status":null,"persistent_id":"","id":74278127,"location_subtype":"","month":"2019-05"},{"category":"anti-social-behaviour","location_type":"Force","location":{"latitude":"51.510250","street":{"id":957268,"name":"On or near Horbury Crescent"},"longitude":"-0.199591"},"context":"","outcome_status":null,"persistent_id":"","id":74278128,"location_subtype":"","month":"2019-05"},{"category":"anti-social-behaviour","location_type":"Force","location":{"latitude":"51.490967","street":{"id":950204,"name":"On or near Philbeach Gardens"},"longitude":"-0.200005"},"context":"","outcome_status":null,"persistent_id":"","id":74278130,"location_subtype":"","month":"2019-05"},{"category":"anti-social-behaviour","location_type":"Force","location":{"latitude":"51.492777","street":{"id":950201,"name":"On or near Warwick Road"},"longitude":"-0.200726"},"context":"","outcome_status":null,"persistent_id":"","id":74278131,"location_subtype":"","month":"2019-05"},{"category":"anti-social-behaviour","location_type":"Force","location":{"latitude":"51.492777","street":{"id":950201,"name":"On or near Warwick Road"},"longitude":"-0.200726"},"context":"","outcome_status":null,"persistent_id":"","id":74278132,"location_subtype":"","month":"2019-05"},{"category":"anti-social-behaviour","location_type":"Force","location":{"latitude":"51.508850","street":{"id":957318,"name":"On or near Shopping Area"},"longitude":"-0.199819"},"context":"","outcome_status":null,"persistent_id":"","id":74278136,"location_subtype":"","month":"2019-05"},{"category":"anti-social-behaviour","location_type":"Force","location":{"latitude":"51.496671","street":{"id":952769,"name":"On or near Warwick Gardens"},"longitude":"-0.204246"},"context":"","outcome_status":null,"persistent_id":"","id":74279099,"location_subtype":"","month":"2019-05"},{"category":"anti-social-behaviour","location_type":"Force","location":{"latitude":"51.497153","street":{"id":952792,"name":"On or near Petrol Station"},"longitude":"-0.206374"},"context":"","outcome_status":null,"persistent_id":"","id":74279108,"location_subtype":"","month":"2019-05"},{"category":"anti-social-behaviour","location_type":"Force","location":{"latitude":"51.497153","street":{"id":952792,"name":"On or near Petrol Station"},"longitude":"-0.206374"},"context":"","outcome_status":null,"persistent_id":"","id":74279109,"location_subtype":"","month":"2019-05"},{"category":"anti-social-behaviour","location_type":"Force","location":{"latitude":"51.499939","street":{"id":952776,"name":"On or near Oakwood Court"},"longitude":"-0.206250"},"context":"","outcome_status":null,"persistent_id":"","id":74279114,"location_subtype":"","month":"2019-05"},{"category":"anti-social-behaviour","location_type":"Force","location":{"latitude":"51.507531","street":{"id":957327,"name":"On or near Lansdowne Mews"},"longitude":"-0.206456"},"context":"","outcome_status":null,"persistent_id":"","id":74279123,"location_subtype":"","month":"2019-05"},{"category":"anti-social-behaviour","location_type":"Force","location":{"latitude":"51.497802","street":{"id":952786,"name":"On or near Fairfax Place"},"longitude":"-0.208250"},"context":"","outcome_status":null,"persistent_id":"","id":74279131,"location_subtype":"","month":"2019-05"},{"category":"bicycle-theft","location_type":"Force","location":{"latitude":"51.507298","street":{"id":957331,"name":"On or near Ladbroke Mews"},"longitude":"-0.207647"},"context":"","outcome_status":{"category":"Status update unavailable","date":"2019-09"},"persistent_id":"fd89f701fc08d46ac9bc374bfc9d79358508a861c1d4fe64f63d84707ce8ab4c","id":74313546,"location_subtype":"","month":"2019-05"},{"category":"bicycle-theft","location_type":"Force","location":{"latitude":"51.500305","street":{"id":952484,"name":"On or near Bolingbroke Road"},"longitude":"-0.217330"},"context":"","outcome_status":{"category":"Status update unavailable","date":"2019-09"},"persistent_id":"9bbf026b8e0b23b9bc6924a4abac259d36e2528a745c5eba5445784ddfcfb6f0","id":74296490,"location_subtype":"","month":"2019-05"},{"category":"bicycle-theft","location_type":"Force","location":{"latitude":"51.509619","street":{"id":957483,"name":"On or near West Cross Route"},"longitude":"-0.218955"},"context":"","outcome_status":{"category":"Status update unavailable","date":"2019-09"},"persistent_id":"0a67edbfab743f4142ef8fb04007e687b34bdea0ea1ab33abaeeec9317c88b16","id":74307478,"location_subtype":"","month":"2019-05"},{"category":"bicycle-theft","location_type":"Force","location":{"latitude":"51.501548","street":{"id":952717,"name":"On or near Young Street"},"longitude":"-0.189862"},"context":"","outcome_status":{"category":"Status update unavailable","date":"2019-09"},"persistent_id":"4fcf8d517f5bf6aaeba14402103687256f034fed896a8e197a867b12126ae8e5","id":74323321,"location_subtype":"","month":"2019-05"},{"category":"bicycle-theft","location_type":"Force","location":{"latitude":"51.491998","street":{"id":950363,"name":"On or near Angel Walk"},"longitude":"-0.228155"},"context":"","outcome_status":{"category":"Status update unavailable","date":"2019-09"},"persistent_id":"1a855dab237782866e5ddf52e562f63ab59126744872a29f2defdf86a7eab2ed","id":74341268,"location_subtype":"","month":"2019-05"},{"category":"bicycle-theft","location_type":"Force","location":{"latitude":"51.505127","street":{"id":952620,"name":"On or near Coverdale Road"},"longitude":"-0.229332"},"context":"","outcome_status":{"category":"Status update unavailable","date":"2019-09"},"persistent_id":"1869a3a57ed5cd7ee0ee00d0639e5305b2e5be4e2bff896a119a56787f1954d6","id":74345097,"location_subtype":"","month":"2019-05"},{"category":"bicycle-theft","location_type":"Force","location":{"latitude":"51.487045","street":{"id":950460,"name":"On or near Hospital"},"longitude":"-0.219935"},"context":"","outcome_status":{"category":"Status update unavailable","date":"2019-09"},"persistent_id":"374347a80e1b0ad3491b40fc4617381f379d297e639bb1bf0190b9913fd30c5a","id":74345404,"location_subtype":"","month":"2019-05"},{"category":"bicycle-theft","location_type":"Force","location":{"latitude":"51.507531","street":{"id":957327,"name":"On or near Lansdowne Mews"},"longitude":"-0.206456"},"context":"","outcome_status":{"category":"Status update unavailable","date":"2019-09"},"persistent_id":"f9c2256db2214a273f2804021d444987cc079e2a4d5e69dbc7e10fcb43ac11a3","id":74363674,"location_subtype":"","month":"2019-05"},{"category":"bicycle-theft","location_type":"Force","location":{"latitude":"51.494416","street":{"id":952948,"name":"On or near Parking Area"},"longitude":"-0.189799"},"context":"","outcome_status":{"category":"Status update unavailable","date":"2019-09"},"persistent_id":"72a5ba2a11359e89dc7ecd5c99342cf6ac5d465d0db38b6e75aee19ba86bb71d","id":74295610,"location_subtype":"","month":"2019-05"},{"category":"bicycle-theft","location_type":"Force","location":{"latitude":"51.509005","street":{"id":957289,"name":"On or near Pedestrian Subway"},"longitude":"-0.196412"},"context":"","outcome_status":{"category":"Status update unavailable","date":"2019-09"},"persistent_id":"6f4f1aa92efb7dc0534f3c740779d378351e132cfd122161979a9a48525178a8","id":74296571,"location_subtype":"","month":"2019-05"},{"category":"bicycle-theft","location_type":"Force","location":{"latitude":"51.503945","street":{"id":952510,"name":"On or near Shepherd's Bush Green"},"longitude":"-0.220127"},"context":"","outcome_status":{"category":"Status update unavailable","date":"2019-09"},"persistent_id":"9339c80fc608130408af9976314b8a9117f423b47c1dc7ed31995d206dedcb32","id":74297647,"location_subtype":"","month":"2019-05"},{"category":"bicycle-theft","location_type":"Force","location":{"latitude":"51.504246","street":{"id":952532,"name":"On or near A402"},"longitude":"-0.219236"},"context":"","outcome_status":{"category":"Status update unavailable","date":"2019-09"},"persistent_id":"7f85cd5354b3cba2238d60b2eb4e581157d73bb8b7684ff878a3123a30070a43","id":74299552,"location_subtype":"","month":"2019-05"},{"category":"bicycle-theft","location_type":"Force","location":{"latitude":"51.492841","street":{"id":950365,"name":"On or near Sports\/recreation Area"},"longitude":"-0.229793"},"context":"","outcome_status":{"category":"Status update unavailable","date":"2019-09"},"persistent_id":"fb65d4636f777524682aa32fbfc5da57a56ac92746d7bb968b19a914aa55559a","id":74299939,"location_subtype":"","month":"2019-05"},{"category":"bicycle-theft","location_type":"Force","location":{"latitude":"51.498000","street":{"id":952907,"name":"On or near Kelso Place"},"longitude":"-0.188980"},"context":"","outcome_status":{"category":"Status update unavailable","date":"2019-09"},"persistent_id":"c867d459b1c3d838e813b97b36c3e6ca6c63c512e687978246735ad39d8c6ae4","id":74302625,"location_subtype":"","month":"2019-05"},{"category":"bicycle-theft","location_type":"Force","location":{"latitude":"51.497339","street":{"id":952561,"name":"On or near Theatre\/concert Hall"},"longitude":"-0.227516"},"context":"","outcome_status":{"category":"Status update unavailable","date":"2019-09"},"persistent_id":"b3a4b363417593f2d3e6c429b10176246eed5003c428301e1db0c1aa01dec700","id":74302719,"location_subtype":"","month":"2019-05"},{"category":"bicycle-theft","location_type":"Force","location":{"latitude":"51.496311","street":{"id":952641,"name":"On or near Shepherd's Bush Road"},"longitude":"-0.223767"},"context":"","outcome_status":{"category":"Status update unavailable","date":"2019-09"},"persistent_id":"e9f2eb29953e268e589412983796e7ede778069f1dcbf84559cb4300a4e97a4d","id":74294040,"location_subtype":"","month":"2019-05"},{"category":"bicycle-theft","location_type":"Force","location":{"latitude":"51.502719","street":{"id":952590,"name":"On or near Bamborough Gardens"},"longitude":"-0.224065"},"context":"","outcome_status":{"category":"Status update unavailable","date":"2019-09"},"persistent_id":"c47009c7844e3ee9a7fadf2e50d6ffc6b22ee8cdb792bbc86aa43b852cb279f3","id":74294503,"location_subtype":"","month":"2019-05"},{"category":"bicycle-theft","location_type":"Force","location":{"latitude":"51.503312","street":{"id":952593,"name":"On or near Theatre\/concert Hall"},"longitude":"-0.224042"},"context":"","outcome_status":{"category":"Status update unavailable","date":"2019-09"},"persistent_id":"8f2439efa71a9088e9de9dd4f1465df40d4323e54a2450c0cbf0a45d32befca8","id":74295455,"location_subtype":"","month":"2019-05"},{"category":"bicycle-theft","location_type":"Force","location":{"latitude":"51.497568","street":{"id":952471,"name":"On or near Hazlitt Road"},"longitude":"-0.212956"},"context":"","outcome_status":{"category":"Status update unavailable","date":"2019-09"},"persistent_id":"a3cb97df36d54edeba8bcac566278aadd7eda186e050529335e36fadc81b94d5","id":74307467,"location_subtype":"","month":"2019-05"},{"category":"bicycle-theft","location_type":"Force","location":{"latitude":"51.504246","street":{"id":952532,"name":"On or near A402"},"longitude":"-0.219236"},"context":"","outcome_status":{"category":"Status update unavailable","date":"2019-09"},"persistent_id":"39e8d91b46bb3c0d4f4316753829fd4b4fde367f6d1d00213d8564afcfe8500f","id":74305205,"location_subtype":"","month":"2019-05"},{"category":"bicycle-theft","location_type":"Force","location":{"latitude":"51.503763","street":{"id":952536,"name":"On or near Supermarket"},"longitude":"-0.218794"},"context":"","outcome_status":{"category":"Status update unavailable","date":"2019-09"},"persistent_id":"3e1cb08925414cebfeb9949972aab2dd92c013f605a4f909cf585a30535a2efa","id":74305244,"location_subtype":"","month":"2019-05"},{"category":"bicycle-theft","location_type":"Force","location":{"latitude":"51.487045","street":{"id":950460,"name":"On or near Hospital"},"longitude":"-0.219935"},"context":"","outcome_status":{"category":"Status update unavailable","date":"2019-09"},"persistent_id":"656fe7e8cc9d5135941547879c3b3907670df7f874a6440ab4b4c7c4a9a21ee3","id":74319838,"location_subtype":"","month":"2019-05"},{"category":"bicycle-theft","location_type":"Force","location":{"latitude":"51.486172","street":{"id":950424,"name":"On or near Musard Road"},"longitude":"-0.211644"},"context":"","outcome_status":{"category":"Status update unavailable","date":"2019-09"},"persistent_id":"7c9a2d81da5885497e6189eb4075759f842feb47db42e7be2897e82e96f0715a","id":74325460,"location_subtype":"","month":"2019-05"},{"category":"bicycle-theft","location_type":"Force","location":{"latitude":"51.497568","street":{"id":952471,"name":"On or near Hazlitt Road"},"longitude":"-0.212956"},"context":"","outcome_status":{"category":"Status update unavailable","date":"2019-09"},"persistent_id":"153c65fd56af4ce8e87f66dca3801261ab8ffa9245bf57bd0a7a0111b415d03e","id":74310175,"location_subtype":"","month":"2019-05"},{"category":"bicycle-theft","location_type":"Force","location":{"latitude":"51.497067","street":{"id":952479,"name":"On or near Dunsany Road"},"longitude":"-0.221418"},"context":"","outcome_status":{"category":"Status update unavailable","date":"2019-09"},"persistent_id":"c0d587e19dc466d52f4f7a89fcfbd234b4aa284d6a6c68ee618fdda1547a2e4d","id":74314775,"location_subtype":"","month":"2019-05"},{"category":"bicycle-theft","location_type":"Force","location":{"latitude":"51.504246","street":{"id":952532,"name":"On or near A402"},"longitude":"-0.219236"},"context":"","outcome_status":{"category":"Status update unavailable","date":"2019-09"},"persistent_id":"96f83a9c4e065752d98b539b4a897e05357be5f95741e709b9a23a9f579f9a0e","id":74314792,"location_subtype":"","month":"2019-05"},{"category":"bicycle-theft","location_type":"Force","location":{"latitude":"51.506709","street":{"id":957325,"name":"On or near Norland Place"},"longitude":"-0.209125"},"context":"","outcome_status":{"category":"Status update unavailable","date":"2019-09"},"persistent_id":"84b35a17ee49618cc0104ef13ca51bb3671454de62abb796af346ce8f91c00e9","id":74314798,"location_subtype":"","month":"2019-05"},{"category":"bicycle-theft","location_type":"Force","location":{"latitude":"51.501828","street":{"id":952600,"name":"On or near Wells Road"},"longitude":"-0.226419"},"context":"","outcome_status":{"category":"Status update unavailable","date":"2019-09"},"persistent_id":"d5da7fcb242f11f1988a2c005ec3fb443c04e50b8ca5775dacd0fbc397e78eb0","id":74314799,"location_subtype":"","month":"2019-05"},{"category":"bicycle-theft","location_type":"Force","location":{"latitude":"51.497778","street":{"id":952546,"name":"On or near Hammersmith Grove"},"longitude":"-0.227398"},"context":"","outcome_status":{"category":"Status update unavailable","date":"2019-09"},