[{"category":"anti-social-behaviour","location_type":"Force","location":{"latitude":"51.493189","street":{"id":954453,"name":"On or near Church Hill"},"longitude":"0.057991"},"context":"","outcome_status":null,"persistent_id":"","id":74278502,"location_subtype":"","month":"2019-05"},{"category":"anti-social-behaviour","location_type":"Force","location":{"latitude":"51.492082","street":{"id":954513,"name":"On or near Lord Warwick Street"},"longitude":"0.054987"},"context":"","outcome_status":null,"persistent_id":"","id":74278509,"location_subtype":"","month":"2019-05"},{"category":"anti-social-behaviour","location_type":"Force","location":{"latitude":"51.490479","street":{"id":954503,"name":"On or near Samuel Street"},"longitude":"0.051487"},"context":"","outcome_status":null,"persistent_id":"","id":74278517,"location_subtype":"","month":"2019-05"},{"category":"anti-social-behaviour","location_type":"Force","location":{"latitude":"51.490479","street":{"id":954503,"name":"On or near Samuel Street"},"longitude":"0.051487"},"context":"","outcome_status":null,"persistent_id":"","id":74278518,"location_subtype":"","month":"2019-05"},{"category":"anti-social-behaviour","location_type":"Force","location":{"latitude":"51.493882","street":{"id":954455,"name":"On or near Antelope Road"},"longitude":"0.051798"},"context":"","outcome_status":null,"persistent_id":"","id":74278522,"location_subtype":"","month":"2019-05"},{"category":"anti-social-behaviour","location_type":"Force","location":{"latitude":"51.493882","street":{"id":954455,"name":"On or near Antelope Road"},"longitude":"0.051798"},"context":"","outcome_status":null,"persistent_id":"","id":74278523,"location_subtype":"","month":"2019-05"},{"category":"anti-social-behaviour","location_type":"Force","location":{"latitude":"51.489739","street":{"id":954494,"name":"On or near Lyford Street"},"longitude":"0.049091"},"context":"","outcome_status":null,"persistent_id":"","id":74278531,"location_subtype":"","month":"2019-05"},{"category":"anti-social-behaviour","location_type":"Force","location":{"latitude":"51.493873","street":{"id":954445,"name":"On or near Spindle Close"},"longitude":"0.050775"},"context":"","outcome_status":null,"persistent_id":"","id":74278534,"location_subtype":"","month":"2019-05"},{"category":"anti-social-behaviour","location_type":"Force","location":{"latitude":"51.494321","street":{"id":954483,"name":"On or near Harlinger Street"},"longitude":"0.048303"},"context":"","outcome_status":null,"persistent_id":"","id":74278539,"location_subtype":"","month":"2019-05"},{"category":"anti-social-behaviour","location_type":"Force","location":{"latitude":"51.494321","street":{"id":954483,"name":"On or near Harlinger Street"},"longitude":"0.048303"},"context":"","outcome_status":null,"persistent_id":"","id":74278540,"location_subtype":"","month":"2019-05"},{"category":"anti-social-behaviour","location_type":"Force","location":{"latitude":"51.492145","street":{"id":954486,"name":"On or near Tamar Street"},"longitude":"0.045209"},"context":"","outcome_status":null,"persistent_id":"","id":74278553,"location_subtype":"","month":"2019-05"},{"category":"anti-social-behaviour","location_type":"Force","location":{"latitude":"51.491486","street":{"id":954488,"name":"On or near Clevely Close"},"longitude":"0.043811"},"context":"","outcome_status":null,"persistent_id":"","id":74278558,"location_subtype":"","month":"2019-05"},{"category":"anti-social-behaviour","location_type":"Force","location":{"latitude":"51.494308","street":{"id":954481,"name":"On or near Nightclub"},"longitude":"0.044384"},"context":"","outcome_status":null,"persistent_id":"","id":74278561,"location_subtype":"","month":"2019-05"},{"category":"anti-social-behaviour","location_type":"Force","location":{"latitude":"51.492275","street":{"id":954429,"name":"On or near Eastmoor Street"},"longitude":"0.039294"},"context":"","outcome_status":null,"persistent_id":"","id":74278574,"location_subtype":"","month":"2019-05"},{"category":"anti-social-behaviour","location_type":"Force","location":{"latitude":"51.492231","street":{"id":954427,"name":"On or near Westmoor Street"},"longitude":"0.038183"},"context":"","outcome_status":null,"persistent_id":"","id":74278584,"location_subtype":"","month":"2019-05"},{"category":"anti-social-behaviour","location_type":"Force","location":{"latitude":"51.501133","street":{"id":954473,"name":"On or near Dockland Street"},"longitude":"0.060366"},"context":"","outcome_status":null,"persistent_id":"","id":74279895,"location_subtype":"","month":"2019-05"},{"category":"anti-social-behaviour","location_type":"Force","location":{"latitude":"51.502568","street":{"id":954422,"name":"On or near Petrol Station"},"longitude":"0.025993"},"context":"","outcome_status":null,"persistent_id":"","id":74281734,"location_subtype":"","month":"2019-05"},{"category":"anti-social-behaviour","location_type":"Force","location":{"latitude":"51.502014","street":{"id":954418,"name":"On or near Barrier Point Road"},"longitude":"0.031501"},"context":"","outcome_status":null,"persistent_id":"","id":74280900,"location_subtype":"","month":"2019-05"},{"category":"anti-social-behaviour","location_type":"Force","location":{"latitude":"51.510940","street":{"id":955244,"name":"On or near Cundy Road"},"longitude":"0.032777"},"context":"","outcome_status":null,"persistent_id":"","id":74280866,"location_subtype":"","month":"2019-05"},{"category":"anti-social-behaviour","location_type":"Force","location":{"latitude":"51.502240","street":{"id":954419,"name":"On or near Petrol Station"},"longitude":"0.040272"},"context":"","outcome_status":null,"persistent_id":"","id":74280806,"location_subtype":"","month":"2019-05"},{"category":"anti-social-behaviour","location_type":"Force","location":{"latitude":"51.504102","street":{"id":955192,"name":"On or near Airport\/airfield"},"longitude":"0.047963"},"context":"","outcome_status":null,"persistent_id":"","id":74286176,"location_subtype":"","month":"2019-05"},{"category":"anti-social-behaviour","location_type":"Force","location":{"latitude":"51.500878","street":{"id":954436,"name":"On or near Wards Wharf Approach"},"longitude":"0.038396"},"context":"","outcome_status":null,"persistent_id":"","id":74280776,"location_subtype":"","month":"2019-05"},{"category":"anti-social-behaviour","location_type":"Force","location":{"latitude":"51.514783","street":{"id":955113,"name":"On or near Neatscourt Road"},"longitude":"0.044998"},"context":"","outcome_status":null,"persistent_id":"","id":74280738,"location_subtype":"","month":"2019-05"},{"category":"anti-social-behaviour","location_type":"Force","location":{"latitude":"51.517360","street":{"id":962456,"name":"On or near Robin Crescent"},"longitude":"0.045718"},"context":"","outcome_status":null,"persistent_id":"","id":74280737,"location_subtype":"","month":"2019-05"},{"category":"anti-social-behaviour","location_type":"Force","location":{"latitude":"51.504102","street":{"id":955192,"name":"On or near Airport\/airfield"},"longitude":"0.047963"},"context":"","outcome_status":null,"persistent_id":"","id":74286177,"location_subtype":"","month":"2019-05"},{"category":"anti-social-behaviour","location_type":"Force","location":{"latitude":"51.504102","street":{"id":955192,"name":"On or near Airport\/airfield"},"longitude":"0.047963"},"context":"","outcome_status":null,"persistent_id":"","id":74286178,"location_subtype":"","month":"2019-05"},{"category":"anti-social-behaviour","location_type":"Force","location":{"latitude":"51.510726","street":{"id":955107,"name":"On or near Richard House Drive"},"longitude":"0.045061"},"context":"","outcome_status":null,"persistent_id":"","id":74280734,"location_subtype":"","month":"2019-05"},{"category":"anti-social-behaviour","location_type":"Force","location":{"latitude":"51.514718","street":{"id":955121,"name":"On or near Leamouth Road"},"longitude":"0.046667"},"context":"","outcome_status":null,"persistent_id":"","id":74280041,"location_subtype":"","month":"2019-05"},{"category":"anti-social-behaviour","location_type":"Force","location":{"latitude":"51.512438","street":{"id":955103,"name":"On or near Andrewes Gardens"},"longitude":"0.049014"},"context":"","outcome_status":null,"persistent_id":"","id":74280005,"location_subtype":"","month":"2019-05"},{"category":"anti-social-behaviour","location_type":"Force","location":{"latitude":"51.515679","street":{"id":962477,"name":"On or near Lovage Approach"},"longitude":"0.051884"},"context":"","outcome_status":null,"persistent_id":"","id":74279984,"location_subtype":"","month":"2019-05"},{"category":"anti-social-behaviour","location_type":"Force","location":{"latitude":"51.515679","street":{"id":962477,"name":"On or near Lovage Approach"},"longitude":"0.051884"},"context":"","outcome_status":null,"persistent_id":"","id":74279983,"location_subtype":"","month":"2019-05"},{"category":"anti-social-behaviour","location_type":"Force","location":{"latitude":"51.504102","street":{"id":955192,"name":"On or near Airport\/airfield"},"longitude":"0.047963"},"context":"","outcome_status":null,"persistent_id":"","id":74286179,"location_subtype":"","month":"2019-05"},{"category":"anti-social-behaviour","location_type":"Force","location":{"latitude":"51.512718","street":{"id":955166,"name":"On or near Ashwell Close"},"longitude":"0.051996"},"context":"","outcome_status":null,"persistent_id":"","id":74279982,"location_subtype":"","month":"2019-05"},{"category":"anti-social-behaviour","location_type":"Force","location":{"latitude":"51.502405","street":{"id":955185,"name":"On or near Newland Street"},"longitude":"0.052426"},"context":"","outcome_status":null,"persistent_id":"","id":74279976,"location_subtype":"","month":"2019-05"},{"category":"anti-social-behaviour","location_type":"Force","location":{"latitude":"51.510729","street":{"id":955128,"name":"On or near York Close"},"longitude":"0.053665"},"context":"","outcome_status":null,"persistent_id":"","id":74279974,"location_subtype":"","month":"2019-05"},{"category":"anti-social-behaviour","location_type":"Force","location":{"latitude":"51.514979","street":{"id":955177,"name":"On or near Sage Close"},"longitude":"0.053352"},"context":"","outcome_status":null,"persistent_id":"","id":74279966,"location_subtype":"","month":"2019-05"},{"category":"anti-social-behaviour","location_type":"Force","location":{"latitude":"51.503726","street":{"id":955196,"name":"On or near Camel Road"},"longitude":"0.044258"},"context":"","outcome_status":null,"persistent_id":"","id":74286180,"location_subtype":"","month":"2019-05"},{"category":"anti-social-behaviour","location_type":"Force","location":{"latitude":"51.498382","street":{"id":954533,"name":"On or near Ferry Terminal"},"longitude":"0.059780"},"context":"","outcome_status":null,"persistent_id":"","id":74279921,"location_subtype":"","month":"2019-05"},{"category":"anti-social-behaviour","location_type":"Force","location":{"latitude":"51.498382","street":{"id":954533,"name":"On or near Ferry Terminal"},"longitude":"0.059780"},"context":"","outcome_status":null,"persistent_id":"","id":74279920,"location_subtype":"","month":"2019-05"},{"category":"anti-social-behaviour","location_type":"Force","location":{"latitude":"51.501580","street":{"id":954471,"name":"On or near Grenadier Street"},"longitude":"0.058959"},"context":"","outcome_status":null,"persistent_id":"","id":74279913,"location_subtype":"","month":"2019-05"},{"category":"anti-social-behaviour","location_type":"Force","location":{"latitude":"51.509454","street":{"id":955085,"name":"On or near Artisan Close"},"longitude":"0.067356"},"context":"","outcome_status":null,"persistent_id":"","id":74278888,"location_subtype":"","month":"2019-05"},{"category":"anti-social-behaviour","location_type":"Force","location":{"latitude":"51.501225","street":{"id":954576,"name":"On or near Woodman Street"},"longitude":"0.066364"},"context":"","outcome_status":null,"persistent_id":"","id":74278889,"location_subtype":"","month":"2019-05"},{"category":"anti-social-behaviour","location_type":"Force","location":{"latitude":"51.499888","street":{"id":954478,"name":"On or near Police Station"},"longitude":"0.063652"},"context":"","outcome_status":null,"persistent_id":"","id":74278892,"location_subtype":"","month":"2019-05"},{"category":"anti-social-behaviour","location_type":"Force","location":{"latitude":"51.509069","street":{"id":955081,"name":"On or near Cyprus Place"},"longitude":"0.065220"},"context":"","outcome_status":null,"persistent_id":"","id":74278901,"location_subtype":"","month":"2019-05"},{"category":"anti-social-behaviour","location_type":"Force","location":{"latitude":"51.500682","street":{"id":954474,"name":"On or near Claremont Street"},"longitude":"0.064019"},"context":"","outcome_status":null,"persistent_id":"","id":74278902,"location_subtype":"","month":"2019-05"},{"category":"anti-social-behaviour","location_type":"Force","location":{"latitude":"51.499888","street":{"id":954478,"name":"On or near Police Station"},"longitude":"0.063652"},"context":"","outcome_status":null,"persistent_id":"","id":74278912,"location_subtype":"","month":"2019-05"},{"category":"anti-social-behaviour","location_type":"Force","location":{"latitude":"51.501580","street":{"id":954471,"name":"On or near Grenadier Street"},"longitude":"0.058959"},"context":"","outcome_status":null,"persistent_id":"","id":74279911,"location_subtype":"","month":"2019-05"},{"category":"anti-social-behaviour","location_type":"Force","location":{"latitude":"51.503309","street":{"id":955280,"name":"On or near Oriental Road"},"longitude":"0.041357"},"context":"","outcome_status":null,"persistent_id":"","id":74286181,"location_subtype":"","month":"2019-05"},{"category":"anti-social-behaviour","location_type":"Force","location":{"latitude":"51.501580","street":{"id":954471,"name":"On or near Grenadier Street"},"longitude":"0.058959"},"context":"","outcome_status":null,"persistent_id":"","id":74279910,"location_subtype":"","month":"2019-05"},{"category":"anti-social-behaviour","location_type":"Force","location":{"latitude":"51.509380","street":{"id":955135,"name":"On or near Renfrew Close"},"longitude":"0.060824"},"context":"","outcome_status":null,"persistent_id":"","id":74279901,"location_subtype":"","month":"2019-05"},{"category":"anti-social-behaviour","location_type":"Force","location":{"latitude":"51.492082","street":{"id":954513,"name":"On or near Lord Warwick Street"},"longitude":"0.054987"},"context":"","outcome_status":null,"persistent_id":"","id":74278507,"location_subtype":"","month":"2019-05"},{"category":"anti-social-behaviour","location_type":"Force","location":{"latitude":"51.508160","street":{"id":955220,"name":"On or near Conference\/exhibition Centre"},"longitude":"0.027120"},"context":"","outcome_status":null,"persistent_id":"","id":74281702,"location_subtype":"","month":"2019-05"},{"category":"anti-social-behaviour","location_type":"Force","location":{"latitude":"51.515040","street":{"id":955171,"name":"On or near Parking Area"},"longitude":"0.059076"},"context":"","outcome_status":null,"persistent_id":"","id":74279900,"location_subtype":"","month":"2019-05"},{"category":"anti-social-behaviour","location_type":"Force","location":{"latitude":"51.507467","street":{"id":955087,"name":"On or near Further\/higher Educational Building"},"longitude":"0.064758"},"context":"","outcome_status":null,"persistent_id":"","id":74278894,"location_subtype":"","month":"2019-05"},{"category":"anti-social-behaviour","location_type":"Force","location":{"latitude":"51.493818","street":{"id":954442,"name":"On or near Woolwich High Street"},"longitude":"0.063666"},"context":"","outcome_status":null,"persistent_id":"","id":74278464,"location_subtype":"","month":"2019-05"},{"category":"anti-social-behaviour","location_type":"Force","location":{"latitude":"51.495138","street":{"id":954456,"name":"On or near Ferry Terminal"},"longitude":"0.061723"},"context":"","outcome_status":null,"persistent_id":"","id":74278483,"location_subtype":"","month":"2019-05"},{"category":"anti-social-behaviour","location_type":"Force","location":{"latitude":"51.491794","street":{"id":954502,"name":"On or near St Mary Street"},"longitude":"0.059080"},"context":"","outcome_status":null,"persistent_id":"","id":74278486,"location_subtype":"","month":"2019-05"},{"category":"anti-social-behaviour","location_type":"Force","location":{"latitude":"51.491794","street":{"id":954502,"name":"On or near St Mary Street"},"longitude":"0.059080"},"context":"","outcome_status":null,"persistent_id":"","id":74278487,"location_subtype":"","month":"2019-05"},{"category":"anti-social-behaviour","location_type":"Force","location":{"latitude":"51.491998","street":{"id":954501,"name":"On or near Sunbury Street"},"longitude":"0.057678"},"context":"","outcome_status":null,"persistent_id":"","id":74278500,"location_subtype":"","month":"2019-05"},{"category":"bicycle-theft","location_type":"Force","location":{"latitude":"51.514884","street":{"id":955184,"name":"On or near Supermarket"},"longitude":"0.057743"},"context":"","outcome_status":{"category":"Status update unavailable","date":"2019-09"},"persistent_id":"9aea0cb6e3a13b81203a5c286497a62bacbaa8a160cb655b6a845469ecfee31c","id":74299743,"location_subtype":"","month":"2019-05"},{"category":"burglary","location_type":"Force","location":{"latitude":"51.504517","street":{"id":955291,"name":"On or near Pankhurst Avenue"},"longitude":"0.027203"},"context":"","outcome_status":{"category":"Status update unavailable","date":"2019-09"},"persistent_id":"48e26fe481124c2a3edfbe3d9e55eb0f6c7e7d7958d81b8771b6ddc5798086ef","id":74314944,"location_subtype":"","month":"2019-05"},{"category":"burglary","location_type":"Force","location":{"latitude":"51.502240","street":{"id":954419,"name":"On or near Petrol Station"},"longitude":"0.040272"},"context":"","outcome_status":{"category":"Status update unavailable","date":"2019-09"},"persistent_id":"6fe94656c4eea05fac84f5445996769841f874bd5b07ad21a81cd3783d86e19a","id":74314636,"location_subtype":"","month":"2019-05"},{"category":"burglary","location_type":"Force","location":{"latitude":"51.503309","street":{"id":955280,"name":"On or near Oriental Road"},"longitude":"0.041357"},"context":"","outcome_status":{"category":"Status update unavailable","date":"2019-09"},"persistent_id":"2bbaea0133afc16248504a52f092eb4a49083a852d2b2e1db7c2acaf7f316e29","id":74305971,"location_subtype":"","month":"2019-05"},{"category":"burglary","location_type":"Force","location":{"latitude":"51.499888","street":{"id":954478,"name":"On or near Police Station"},"longitude":"0.063652"},"context":"","outcome_status":{"category":"Status update unavailable","date":"2019-09"},"persistent_id":"55e0770fb3fa69ffa91282e1f7f2055adc9bad663bbc751ccb3e5e84753f6303","id":74313485,"location_subtype":"","month":"2019-05"},{"category":"burglary","location_type":"Force","location":{"latitude":"51.510376","street":{"id":955252,"name":"On or near Sports\/recreation Area"},"longitude":"0.030000"},"context":"","outcome_status":{"category":"Status update unavailable","date":"2019-09"},"persistent_id":"73533648da8a7dc648150479a98b43d9fcf013dafaf1f311a34b21814a74cbc2","id":74312678,"location_subtype":"","month":"2019-05"},{"category":"burglary","location_type":"Force","location":{"latitude":"51.517927","street":{"id":962467,"name":"On or near Eisenhower Drive"},"longitude":"0.049333"},"context":"","outcome_status":{"category":"Investigation complete; no suspect identified","date":"2020-04"},"persistent_id":"cc5f0cca711fa2362c1f536fa66e1e61341f6b618068cac71508d6724164d029","id":74320403,"location_subtype":"","month":"2019-05"},{"category":"burglary","location_type":"Force","location":{"latitude":"51.492691","street":{"id":954484,"name":"On or near A206"},"longitude":"0.045838"},"context":"","outcome_status":{"category":"Status update unavailable","date":"2019-09"},"persistent_id":"af83e80345584e190b4f6ac56293c46e110fa22ebfff9dcf71c3e038d4dfc34e","id":74310393,"location_subtype":"","month":"2019-05"},{"category":"burglary","location_type":"Force","location":{"latitude":"51.515969","street":{"id":962464,"name":"On or near Pintail Close"},"longitude":"0.047631"},"context":"","outcome_status":{"category":"Status update unavailable","date":"2019-09"},"persistent_id":"7a4354eef57e743085acff77a163075331a0c44d9eb53d7e28d8d2a72a8ed0cf","id":74325020,"location_subtype":"","month":"2019-05"},{"category":"burglary","location_type":"Force","location":{"latitude":"51.501918","street":{"id":954466,"name":"On or near Muir Street"},"longitude":"0.051496"},"context":"","outcome_status":{"category":"Status update unavailable","date":"2019-09"},"persistent_id":"11707cc36f5e0bc0087cb6e1976569bd14c7805f055b914c41a1bfcec1f3e231","id":74366103,"location_subtype":"","month":"2019-05"},{"category":"burglary","location_type":"Force","location":{"latitude":"51.502240","street":{"id":954419,"name":"On or near Petrol Station"},"longitude":"0.040272"},"context":"","outcome_status":{"category":"Status update unavailable","date":"2019-09"},"persistent_id":"d95fd74ff7306d3e703ffb61ce027a49747aed793d66a7e0b347c8580574123d","id":74358348,"location_subtype":"","month":"2019-05"},{"category":"burglary","location_type":"Force","location":{"latitude":"51.493882","street":{"id":954455,"name":"On or near Antelope Road"},"longitude":"0.051798"},"context":"","outcome_status":{"category":"Status update unavailable","date":"2019-09"},"persistent_id":"ee2bcb4549d20d3c0469610aa5bbca352c995caec86dc00512528cee228aeb30","id":74321104,"location_subtype":"","month":"2019-05"},{"category":"burglary","location_type":"Force","location":{"latitude":"51.489739","street":{"id":954494,"name":"On or near Lyford Street"},"longitude":"0.049091"},"context":"","outcome_status":{"category":"Status update unavailable","date":"2019-09"},"persistent_id":"b771360b7fe4101dec771af3c802af465f9cc15854d0e4753e0edfaf37a1e872","id":74346421,"location_subtype":"","month":"2019-05"},{"category":"burglary","location_type":"Force","location":{"latitude":"51.512486","street":{"id":955234,"name":"On or near Randolph Approach"},"longitude":"0.037487"},"context":"","outcome_status":{"category":"Status update unavailable","date":"2019-09"},"persistent_id":"2df2a91ebf877ed85fef98a6a9e5a34a44cd0f9eec08cd8dd1706c8d25ff5bbd","id":74362443,"location_subtype":"","month":"2019-05"},{"category":"burglary","location_type":"Force","location":{"latitude":"51.493677","street":{"id":923897,"name":"On or near Venus Road"},"longitude":"0.054238"},"context":"","outcome_status":{"category":"Status update unavailable","date":"2019-09"},"persistent_id":"9006099a0c5215c5c72e1702241c348b75913a92b8920efd2da671445a18b758","id":74304288,"location_subtype":"","month":"2019-05"},{"category":"burglary","location_type":"Force","location":{"latitude":"51.502240","street":{"id":954419,"name":"On or near Petrol Station"},"longitude":"0.040272"},"context":"","outcome_status":{"category":"Investigation complete; no suspect identified","date":"2020-03"},"persistent_id":"0ccbce0a3e4a5961ac847652f56aa23ce4879b92b40c80f316034f17e3a8a2b3","id":74315664,"location_subtype":"","month":"2019-05"},{"category":"burglary","location_type":"Force","location":{"latitude":"51.512742","street":{"id":955099,"name":"On or near Robson Close"},"longitude":"0.047039"},"context":"","outcome_status":{"category":"Status update unavailable","date":"2019-09"},"persistent_id":"d8da25cf9a2d13ed5e2a897e05be055f250db1fe6624911d90bc1461421e69e4","id":74350843,"location_subtype":"","month":"2019-05"},{"category":"burglary","location_type":"Force","location":{"latitude":"51.504517","street":{"id":955291,"name":"On or near Pankhurst Avenue"},"longitude":"0.027203"},"context":"","outcome_status":{"category":"Status update unavailable","date":"2019-09"},"persistent_id":"3cbe3f8108fc3d22c34e4bd590d8b02db82d9b8dd1ab87c8814af19b03ccce07","id":74350375,"location_subtype":"","month":"2019-05"},{"category":"burglary","location_type":"Force","location":{"latitude":"51.511481","street":{"id":955110,"name":"On or near Emerald Close"},"longitude":"0.045628"},"context":"","outcome_status":{"category":"Status update unavailable","date":"2019-09"},"persistent_id":"f94e69e74040eb06a563ad20a9f9f394f66c048efe768169b5d6ca58a4527dc3","id":74349340,"location_subtype":"","month":"2019-05"},{"category":"burglary","location_type":"Force","location":{"latitude":"51.513510","street":{"id":955183,"name":"On or near Ashen"},"longitude":"0.063230"},"context":"","outcome_status":{"category":"Status update unavailable","date":"2019-09"},"persistent_id":"00867624a98c530cfe0162fa600270e974aaecba27b49a4016efdd026fea2004","id":74349076,"location_subtype":"","month":"2019-05"},{"category":"burglary","location_type":"Force","location":{"latitude":"51.517929","street":{"id":962486,"name":"On or near Beryl Avenue"},"longitude":"0.051236"},"context":"","outcome_status":{"category":"Status update unavailable","date":"2019-09"},"persistent_id":"8798552b1498be98656daa953d7260960baf1c2fd51a4bb3942a514e1052dc26","id":74298005,"location_subtype":"","month":"2019-05"},{"category":"burglary","location_type":"Force","location":{"latitude":"51.502240","street":{"id":954419,"name":"On or near Petrol Station"},"longitude":"0.040272"},"context":"","outcome_status":{"category":"Status update unavailable","date":"2019-09"},"persistent_id":"17002d2f3148cc3064e64784e7a9eefe0af8af57446f0cd5b15ecad06917beb9","id":74345466,"location_subtype":"","month":"2019-05"},{"category":"burglary","location_type":"Force","location":{"latitude":"51.511746","street":{"id":955251,"name":"On or near Alnwick Road"},"longitude":"0.036042"},"context":"","outcome_status":{"category":"Status update unavailable","date":"2019-09"},"persistent_id":"4ae6d03d47a38c5a6e0715be960f43bd2cea0d6687e3d67e3cfa449e433096d1","id":74356071,"location_subtype":"","month":"2019-05"},{"category":"burglary","location_type":"Force","location":{"latitude":"51.501044","street":{"id":954580,"name":"On or near Milk Street"},"longitude":"0.068459"},"context":"","outcome_status":{"category":"Status update unavailable","date":"2019-09"},"persistent_id":"8ffdb83db1ff4dcd645d0b99175a6ac2768847879ab011a106040ed7b6622d7a","id":74346079,"location_subtype":"","month":"2019-05"},{"category":"burglary","location_type":"Force","location":{"latitude":"51.491266","street":{"id":954495,"name":"On or near Glenalvon Way"},"longitude":"0.047129"},"context":"","outcome_status":{"category":"Status update unavailable","date":"2019-09"},"persistent_id":"d9d126f3c6bf869ac7f6f6c7320f2c0e2ec6e4e860e664c0b685d46354a92be5","id":74339942,"location_subtype":"","month":"2019-05"},{"category":"burglary","location_type":"Force","location":{"latitude":"51.515969","street":{"id":962464,"name":"On or near Pintail Close"},"longitude":"0.047631"},"context":"","outcome_status":{"category":"Status update unavailable","date":"2019-09"},"persistent_id":"9e38ed2389a69926537d51fcfa0615d0d3507e58365b6c85626bb79d79345e17","id":74337962,"location_subtype":"","month":"2019-05"},{"category":"burglary","location_type":"Force","location":{"latitude":"51.494133","street":{"id":954573,"name":"On or near Bell Water Gate"},"longitude":"0.064113"},"context":"","outcome_status":{"category":"Court result unavailable","date":"2019-12"},"persistent_id":"01129ccd85f73e04659b834d643af6bcbc8f111749527de5aa6b2b82c9252cae","id":74344686,"location_subtype":"","month":"2019-05"},{"category":"burglary","location_type":"Force","location":{"latitude":"51.493882","street":{"id":954455,"name":"On or near Antelope Road"},"longitude":"0.051798"},"context":"","outcome_status":{"category":"Status update unavailable","date":"2019-09"},"persistent_id":"4a3eeecdc658dfd767b2a21059c55223917194058f5d5a327983861c82af8252","id":74344627,"location_subtype":"","month":"2019-05"},{"category":"burglary","location_type":"Force","location":{"latitude":"51.491266","street":{"id":954495,"name":"On or near Glenalvon Way"},"longitude":"0.047129"},"context":"","outcome_status":{"category":"Status update unavailable","date":"2019-09"},"persistent_id":"31d2051cbc40915ab8eeea80023d0bfc9c553a2268bbeeaeb31e389bd01e3e32","id":74335040,"location_subtype":"","month":"2019-05"},{"category":"burglary","location_type":"Force","location":{"latitude":"51.493882","street":{"id":954455,"name":"On or near Antelope Road"},"longitude":"0.051798"},"context":"","outcome_status":{"category":"Status update unavailable","date":"2019-09"},"persistent_id":"c77bbc01bbb39c937e1694a12bdfabd6053d1a2aec3c350e372694df1cf267f3","id":74336612,"location_subtype":"","month":"2019-05"},{"category":"burglary","location_type":"Force","location":{"latitude":"51.517346","street":{"id":962474,"name":"On or near Peridot Street"},"longitude":"0.052175"},"context":"","outcome_status":{"category":"Status update unavailable","date":"2019-09"},"persistent_id":"46b8a716afcafba89e5a544d25ee61d5fb7a327218c4c1a7b6accebab07640fa","id":74304374,"location_subtype":"","month":"2019-05"},{"category":"burglary","location_type":"Force","location":{"latitude":"51.492691","street":{"id":954484,"name":"On or near A206"},"longitude":"0.045838"},"context":"","outcome_status":{"category":"Status update unavailable","date":"2019-09"},"persistent_id":"e96f4ae5df82b69e3e9fc16675595bdefb702f91e37048fdd456250237f8972f","id":74293031,"location_subtype":"","month":"2019-05"},{"category":"burglary","location_type":"Force","location":{"latitude":"51.490329","street":{"id":954527,"name":"On or near Borgard Road"},"longitude":"0.053915"},"context":"","outcome_status":{"category":"Status update unavailable","date":"2019-09"},"persistent_id":"01de802ba3e7be77da98ee01c614e2b3f1b357a651b7ed278de10b7a0ae7fadd","id":74307913,"location_subtype":"","month":"2019-05"},{"category":"burglary","location_type":"Force","location":{"latitude":"51.503309","street":{"id":955280,"name":"On or near Oriental Road"},"longitude":"0.041357"},"context":"","outcome_status":{"category":"Status update unavailable","date":"2019-09"},"persistent_id":"7603926251b2cf2c4dfb397dfa0ccc4d730499c18d72457a7bd1a9c86247f281","id":74316997,"location_subtype":"","month":"2019-05"},{"category":"burglary","location_type":"Force","location":{"latitude":"51.502014","street":{"id":954418,"name":"On or near Barrier Point Road"},"longitude":"0.031501"},"context":"","outcome_status":{"category":"Status update unavailable","date":"2019-09"},"persistent_id":"9f29806098e66f1b53020b32a7e8fc8fa2612a18e33a39a242c19c8595fd3383","id":74316078,"location_subtype":"","month":"2019-05"},{"category":"criminal-damage-arson","location_type":"Force","location":{"latitude":"51.510726","street":{"id":955107,"name":"On or near Richard House Drive"},"longitude":"0.045061"},"context":"","outcome_status":{"category":"Court result unavailable","date":"2019-11"},"persistent_id":"fbec951b414d77aed4a1c01a077c9af20468738a12397c195bc5e7488b3dfaf8","id":74359138,"location_subtype":"","month":"2019-05"},{"category":"criminal-damage-arson","location_type":"Force","location":{"latitude":"51.492082","street":{"id":954513,"name":"On or near Lord Warwick Street"},"longitude":"0.054987"},"context":"","outcome_status":{"category":"Status update unavailable","date":"2019-09"},"persistent_id":"a85351b7096df03e6ef1c3fb181e99a09acf6e62cdf7c8d07f33cfc6451cfd2e","id":74324496,"location_subtype":"","month":"2019-05"},{"category":"criminal-damage-arson","location_type":"Force","location":{"latitude":"51.517346","street":{"id":962474,"name":"On or near Peridot Street"},"longitude":"0.052175"},"context":"","outcome_status":{"category":"Status update unavailable","date":"2019-09"},"persistent_id":"e9162ae7ef51b84ffb54123b34f45b45562a8936f2b0a8c13b8ce5f1b2821c99","id":74309516,"location_subtype":"","month":"2019-05"},{"category":"criminal-damage-arson","location_type":"Force","location":{"latitude":"51.515188","street":{"id":955180,"name":"On or near Ireland Close"},"longitude":"0.054269"},"context":"","outcome_status":{"category":"Status update unavailable","date":"2019-09"},"persistent_id":"f1c68667670034cb4e1b93640c11bf0bfe0e7b558579bf18cfc03ef71887e978","id":74303763,"location_subtype":"","month":"2019-05"},{"category":"criminal-damage-arson","location_type":"Force","location":{"latitude":"51.511185","street":{"id":955163,"name":"On or near Bayne Close"},"longitude":"0.055861"},"context":"","outcome_status":{"category":"Status update unavailable","date":"2019-09"},"persistent_id":"e15211d17db6daea9adafedabc6a9166c375edfd2085caf5c505e57395f97ff7","id":74328170,"location_subtype":"","month":"2019-05"},{"category":"criminal-damage-arson","location_type":"BTP","location":{"latitude":"51.508500","street":{"id":1488752,"name":"Cyprus (dlr)"},"longitude":"0.063914"},"context":"","outcome_status":{"category":"Status update unavailable","date":"2019-09"},"persistent_id":"","id":88720516,"location_subtype":"LU STATION","month":"2019-05"},{"category":"criminal-damage-arson","location_type":"Force","location":{"latitude":"51.491880","street":{"id":954526,"name":"On or near Bowling Green Row"},"longitude":"0.052097"},"context":"","outcome_status":{"category":"Status update unavailable","date":"2019-09"},"persistent_id":"d8cafc3cb819a34d7371030fa0592ad959d1a2b41d0f08299107dfa6fae40c7a","id":74349010,"location_subtype":"","month":"2019-05"},{"category":"criminal-damage-arson","location_type":"Force","location":{"latitude":"51.501395","street":{"id":954475,"name":"On or near Claremont Close"},"longitude":"0.063864"},"context":"","outcome_status":{"category":"Investigation complete; no suspect identified","date":"2020-05"},"persistent_id":"ffecc5fe3b3e44279630bf6b51ed74a0d36f6df663ad78b60487282a088bdce4","id":74304740,"location_subtype":"","month":"2019-05"},{"category":"criminal-damage-arson","location_type":"Force","location":{"latitude":"51.492082","street":{"id":954513,"name":"On or near Lord Warwick Street"},"longitude":"0.054987"},"context":"","outcome_status":{"category":"Status update unavailable","date":"2019-09"},"persistent_id":"f4852c17293cfcb123b31d5874ceb67c09040ef0c22fac5503007068d62e8bca","id":74297745,"location_subtype":"","month":"2019-05"},{"category":"criminal-damage-arson","location_type":"Force","location":{"latitude":"51.514884","street":{"id":955184,"name":"On or near Supermarket"},"longitude":"0.057743"},"context":"","outcome_status":{"category":"Status update unavailable","date":"2019-09"},"persistent_id":"df46ed81141517a460cb265da6655ebb31fb127a9f23434e540a9726277c4a27","id":74292771,"location_subtype":"","month":"2019-05"},{"category":"criminal-damage-arson","location_type":"Force","location":{"latitude":"51.517346","street":{"id":962474,"name":"On or near Peridot Street"},"longitude":"0.052175"},"context":"","outcome_status":{"category":"Status update unavailable","date":"2019-09"},"persistent_id":"b823572230fa08efdfab3c49408a4ec6166fa063472d68d596106d86da2a0323","id":74299346,"location_subtype":"","month":"2019-05"},{"category":"criminal-damage-arson","location_type":"Force","location":{"latitude":"51.517346","street":{"id":962474,"name":"On or near Peridot Street"},"longitude":"0.052175"},"context":"","outcome_status":{"category":"Status update unavailable","date":"2019-09"},"persistent_id":"b823572230fa08efdfab3c49408a4ec6166fa063472d68d596106d86da2a0323","id":74299347,"location_subtype":"","month":"2019-05"},{"category":"criminal-damage-arson","location_type":"Force","location":{"latitude":"51.515790","street":{"id":962332,"name":"On or near Partridge Close"},"longitude":"0.041367"},"context":"","outcome_status":{"category":"Status update unavailable","date":"2019-09"},"persistent_id":"e232ef1abacdd460766f710b40d785d92e46f09536b5e1f0402824ee1bd7451b","id":74313415,"location_subtype":"","month":"2019-05"},{"category":"criminal-damage-arson","location_type":"Force","location":{"latitude":"51.491925","street":{"id":954489,"name":"On or near Pedestrian Subway"},"longitude":"0.048541"},"context":"","outcome_status":{"category":"Status update unavailable","date":"2019-09"},"persistent_id":"7e3d2d8b6d75c2ecc8a8c12de5b86843e272fe6e16300f6a5720b90e23238724","id":74338376,"location_subtype":"","month":"2019-05"},{"category":"criminal-damage-arson","location_type":"Force","location":{"latitude":"51.511757","street":{"id":955145,"name":"On or near Guildford Road"},"longitude":"0.052486"},"context":"","outcome_status":{"category":"Status update unavailable","date":"2019-09"},"persistent_id":"b0db8b2f44b59f6488e039b4e2ef4480e4ba2f23dcc0735eea11af8da6c14ebb","id":74294088,"location_subtype":"","month":"2019-05"},{"category":"criminal-damage-arson","location_type":"Force","location":{"latitude":"51.491900","street":{"id":954492,"name":"On or near Pett Street"},"longitude":"0.047344"},"context":"","outcome_status":{"category":"Status update unavailable","date":"2019-09"},"persistent_id":"843a1736b7137813ee6c1f792e0e2844857c6c4f526f6d516d142837aca51037","id":74333164,"location_subtype":"","month":"2019-05"},{"category":"criminal-damage-arson","location_type":"Force","location":{"latitude":"51.501756","street":{"id":954469,"name":"On or near Kennard Street"},"longitude":"0.054083"},"context":"","outcome_status":{"category":"Status update unavailable","date":"2019-09"},"persistent_id":"f26fdd64fa4281117eb2bf61c00bda38d546d756c6a06e8973faac9daa635e3e","id":74332997,"location_subtype":"","month":"2019-05"},{"category":"criminal-damage-arson","location_type":"Force","location":{"latitude":"51.510726","street":{"id":955107,"name":"On or near Richard House Drive"},"longitude":"0.045061"},"context":"","outcome_status":{"category":"Status update unavailable","date":"2019-09"},"persistent_id":"579d0ce8c7045d83ad8b8677860d527c9d0ac786f39f60e61c9c0cfa34ea6ce5","id":74309365,"location_subtype":"","month":"2019-05"},{"category":"criminal-damage-arson","location_type":"Force","location":{"latitude":"51.510772","street":{"id":955130,"name":"On or near Winchester Close"},"longitude":"0.052197"},"context":"","outcome_status":{"category":"Investigation complete; no suspect identified","date":"2020-04"},"persistent_id":"e22d861326bb42105d6b3237944ab6bd34eee14de8338e54d60875dc7c24171c","id":74343070,"location_subtype":"","month":"2019-05"},{"category":"criminal-damage-arson","location_type":"Force","location":{"latitude":"51.502519","street":{"id":955187,"name":"On or near Wythes Road"},"longitude":"0.047431"},"context":"","outcome_status":{"category":"Status update unavailable","date":"2019-09"},"persistent_id":"3784f269205aaa5ace46ed466dad3fc6f585c4cfe899b9512fa8c895562bcfdc","id":74330944,"location_subtype":"","month":"2019-05"},{"category":"criminal-damage-arson","location_type":"Force","location":{"latitude":"51.499446","street":{"id":954470,"name":"On or near Henley Road"},"longitude":"0.058071"},"context":"","outcome_status":{"category":"Status update unavailable","date":"2019-09"},"persistent_id":"952240fdc16bfab0baf592bdc0988eaabd2654eb73d9ca631f44cb1009f7f8a1","id":74317930,"location_subtype":"","month":"2019-05"},{"category":"criminal-damage-arson","location_type":"Force","location":{"latitude":"51.509424","street":{"id":955169,"name":"On or near Agnes Close"},"longitude":"0.063925"},"context":"","outcome_status":{"category":"Status update unavailable","date":"2019-09"},"persistent_id":"cc8653ae81e5f36a468f1b9d9d8f2350418ae6187ce04303d963b7166da1ebc4","id":74350733,"location_subtype":"","month":"2019-05"},{"category":"criminal-damage-arson","location_type":"Force","location":{"latitude":"51.501395","street":{"id":954475,"name":"On or near Claremont Close"},"longitude":"0.063864"},"context":"","outcome_status":{"category":"Investigation complete; no suspect identified","date":"2020-03"},"persistent_id":"2715605657a3e472f9b16de5ba11645ad0416fc26c26ee8907bb19fe3edf9aab","id":74308431,"location_subtype":"","month":"2019-05"},{"category":"criminal-damage-arson","location_type":"Force","location":{"latitude":"51.501931","street":{"id":954459,"name":"On or near Tate Road"},"longitude":"0.051742"},"context":"","outcome_status":{"category":"Status update unavailable","date":"2019-09"},"persistent_id":"a28482ea16f3bf96ff2f9c0757e5d7ed0fcbe2c11f7d76aa1c57f5523372c9c5","id":74346608,"location_subtype":"","month":"2019-05"},{"category":"criminal-damage-arson","location_type":"Force","location":{"latitude":"51.509339","street":{"id":955158,"name":"On or near Campion Close"},"longitude":"0.058055"},"context":"","outcome_status":{"category":"Status update unavailable","date":"2019-09"},"persistent_id":"b924af4c6848e87173a648b2278464b6ca6778375105a1727a7a4fa01c1445f8","id":74353158,"location_subtype":"","month":"2019-05"},{"category":"drugs","location_type":"Force","location":{"latitude":"51.508160","street":{"id":955220,"name":"On or near Conference\/exhibition Centre"},"longitude":"0.027120"},"context":"","outcome_status":{"category":"Offender given penalty notice","date":"2019-05"},"persistent_id":"da095f6820be5313aaea13a2295320f619be5d201ce2b4cbf88f2d91aab5d2f2","id":74306106,"location_subtype":"","month":"2019-05"},{"category":"drugs","location_type":"Force","location":{"latitude":"51.498382","street":{"id":954533,"name":"On or near Ferry Terminal"},"longitude":"0.059780"},"context":"","outcome_status":{"category":"Local resolution","date":"2019-05"},"persistent_id":"4003622f1f9c7041d94cfe2c52a3f1867a8560a9b6457ade40c0e0f0a4d9ed69","id":74361020,"location_subtype":"","month":"2019-05"},{"category":"drugs","location_type":"Force","location":{"latitude":"51.493189","street":{"id":954453,"name":"On or near Church Hill"},"longitude":"0.057991"},"context":"","outcome_status":{"category":"Local resolution","date":"2019-05"},"persistent_id":"6dd0e95cbf6adc4c3c6995618a61873df1ff297e438c434c8d2e9adec2c28353","id":74371964,"location_subtype":"","month":"2019-05"},{"category":"drugs","location_type":"Force","location":{"latitude":"51.493677","street":{"id":923897,"name":"On or near Venus Road"},"longitude":"0.054238"},"context":"","outcome_status":{"category":"Local resolution","date":"2019-05"},"persistent_id":"3af388cd6ce1834f87b94de9689175fb589667d002415bc21e681ac00a1741fe","id":74356730,"location_subtype":"","month":"2019-05"},{"category":"drugs","location_type":"Force","location":{"latitude":"51.511746","street":{"id":955251,"name":"On or near Alnwick Road"},"longitude":"0.036042"},"context":"","outcome_status":{"category":"Offender given a caution","date":"2019-05"},"persistent_id":"dab73a9dbf08f57cd1ce4022e808c48dd31655fc72ddfe2a3e1ae54f1a6e622a","id":74311172,"location_subtype":"","month":"2019-05"},{"category":"drugs","location_type":"Force","location":{"latitude":"51.499888","street":{"id":954478,"name":"On or near Police Station"},"longitude":"0.063652"},"context":"","outcome_status":{"category":"Local resolution","date":"2019-06"},"persistent_id":"c4408a047ab356e08ecf7cc19d5eecd16499321bc50c221279be34a00866c0ee","id":74360044,"location_subtype":"","month":"2019-05"},{"category":"drugs","location_type":"Force","location":{"latitude":"51.509069","street":{"id":955081,"name":"On or near Cyprus Place"},"longitude":"0.065220"},"context":"","outcome_status":{"category":"Court result unavailable","date":"2020-08"},"persistent_id":"dd2b50919f8b1189d3e1126b6500184b1c14e43d2617bf06fdb7bad380c508b0","id":74367023,"location_subtype":"","month":"2019-05"},{"category":"drugs","location_type":"Force","location":{"latitude":"51.498943","street":{"id":954464,"name":"On or near Pier Road"},"longitude":"0.061664"},"context":"","outcome_status":{"category":"Local resolution","date":"2019-05"},"persistent_id":"5d602c4bfd85bb2581f2a2b784fc7a64900f7c27a1760b27293b4c0febef2d9d","id":74356727,"location_subtype":"","month":"2019-05"},{"category":"drugs","location_type":"Force","location":{"latitude":"51.490626","street":{"id":954490,"name":"On or near Tivoli Gardens"},"longitude":"0.047230"},"context":"","outcome_status":{"category":"Offender given a drugs possession warning","date":"2019-05"},"persistent_id":"385a0f56be0326f68146689a4e5f2863c1cd46e3f9f064a4086868ef30a5e6b4","id":74338853,"location_subtype":"","month":"2019-05"},{"category":"drugs","location_type":"Force","location":{"latitude":"51.510726","street":{"id":955107,"name":"On or near Richard House Drive"},"longitude":"0.045061"},"context":"","outcome_status":{"category":"Offender given penalty notice","date":"2019-05"},"persistent_id":"508ba0a6fbbef07144a52f1f530996d3427d39db26f328f61bcfd457c4121b91","id":74320017,"location_subtype":"","month":"2019-05"},{"category":"drugs","location_type":"Force","location":{"latitude":"51.508160","street":{"id":955220,"name":"On or near Conference\/exhibition Centre"},"longitude":"0.027120"},"context":"","outcome_status":{"category":"Local resolution","date":"2019-05"},"persistent_id":"1ccc8bb11d61dceab4e1bf4f887064e5095e9062f169b28fb6e725129405ef05","id":74320098,"location_subtype":"","month":"2019-05"},{"category":"drugs","location_type":"Force","location":{"latitude":"51.508160","street":{"id":955220,"name":"On or near Conference\/exhibition Centre"},"longitude":"0.027120"},"context":"","outcome_status":{"category":"Offender given penalty notice","date":"2019-06"},"persistent_id":"1aa9f1b4b38acdf650632f2a0423a1109f7cface113126b6d1eeb157566c1bc6","id":74349176,"location_subtype":"","month":"2019-05"},{"category":"drugs","location_type":"Force","location":{"latitude":"51.493677","street":{"id":923897,"name":"On or near Venus Road"},"longitude":"0.054238"},"context":"","outcome_status":{"category":"Status update unavailable","date":"2019-09"},"persistent_id":"fc7700ea5326259e2606a866bacb1c8d944c285699dcb1cf55b13cbfcb88b6e9","id":74327413,"location_subtype":"","month":"2019-05"},{"category":"drugs","location_type":"Force","location":{"latitude":"51.506833","street":{"id":955086,"name":"On or near Further\/higher Educational Building"},"longitude":"0.068621"},"context":"","outcome_status":{"category":"Local resolution","date":"2019-06"},"persistent_id":"b567daee3158ad1e9e4f1058a7c663bbfb34dcb31602dff210fd0770879c6ae6","id":74297418,"location_subtype":"","month":"2019-05"},{"category":"drugs","location_type":"Force","location":{"latitude":"51.493535","street":{"id":954482,"name":"On or near Ruston Road"},"longitude":"0.047461"},"context":"","outcome_status":{"category":"Local resolution","date":"2019-05"},"persistent_id":"3086203c890e517509daf0096a69c3a77d854e4d6076e7054909a914ff920c22","id":74320526,"location_subtype":"","month":"2019-05"},{"category":"drugs","location_type":"Force","location":{"latitude":"51.492246","street":{"id":954440,"name":"On or near Parking Area"},"longitude":"0.062039"},"context":"","outcome_status":{"category":"Offender given penalty notice","date":"2019-06"},"persistent_id":"1805cc04f23b209aa13d8279ac593470ec67d67766db9c47efb2eafdebbebe08","id":74321939,"location_subtype":"","month":"2019-05"},{"category":"drugs","location_type":"Force","location":{"latitude":"51.509572","street":{"id":955143,"name":"On or near Learoyd Gardens"},"longitude":"0.062677"},"context":"","outcome_status":{"category":"Local resolution","date":"2019-05"},"persistent_id":"9ea3152795a879e39b27c9651c024651a85a986c6a984b42061954e312d7e946","id":74318730,"location_subtype":"","month":"2019-05"},{"category":"drugs","location_type":"Force","location":{"latitude":"51.499888","street":{"id":954478,"name":"On or near Police Station"},"longitude":"0.063652"},"context":"","outcome_status":{"category":"Local resolution","date":"2019-05"},"persistent_id":"ed0167c4da3ce8a715b4913d03c11cbc5224e0764f7b84fa25bfeab164d7f834","id":74359461,"location_subtype":"","month":"2019-05"},{"category":"drugs","location_type":"Force","location":{"latitude":"51.493882","street":{"id":954455,"name":"On or near Antelope Road"},"longitude":"0.051798"},"context":"","outcome_status":{"category":"Local resolution","date":"2019-05"},"persistent_id":"91fdefe61354b18d5908824f313a7b4c3c3c8bc9609bfa7f2ad87a39ff1af3ea","id":74306660,"location_subtype":"","month":"2019-05"},{"category":"drugs","location_type":"Force","location":{"latitude":"51.502405","street":{"id":955185,"name":"On or near Newland Street"},"longitude":"0.052426"},"context":"","outcome_status":{"category":"Local resolution","date":"2019-05"},"persistent_id":"5508d1da59ae4e6ee5aa929b11077f1bd3e98959ca919c818d0e54c1a2b2c132","id":74305926,"location_subtype":"","month":"2019-05"},{"category":"drugs","location_type":"Force","location":{"latitude":"51.493533","street":{"id":954452,"name":"On or near Europe Road"},"longitude":"0.055298"},"context":"","outcome_status":{"category":"Local resolution","date":"2019-09"},"persistent_id":"1cd282d3088f5e6c45beb73e2a19595ccb7e7ab62716380bd898795078f8c855","id":74298999,"location_subtype":"","month":"2019-05"},{"category":"drugs","location_type":"Force","location":{"latitude":"51.490329","street":{"id":954527,"name":"On or near Borgard Road"},"longitude":"0.053915"},"context":"","outcome_status":{"category":"Local resolution","date":"2019-05"},"persistent_id":"933dd28cae072fb847318b6854edd4ccb6ace375b901e159110b1b298498794e","id":74350460,"location_subtype":"","month":"2019-05"},{"category":"drugs","location_type":"Force","location":{"latitude":"51.499888","street":{"id":954478,"name":"On or near Police Station"},"longitude":"0.063652"},"context":"","outcome_status":{"category":"Local resolution","date":"2019-05"},"persistent_id":"7c35ccbf09a836b5f7951b0004ebd437d7be17a47f6385c1e344bda7835a45d3","id":74356739,"location_subtype":"","month":"2019-05"},{"category":"drugs","location_type":"Force","location":{"latitude":"51.492527","street":{"id":954450,"name":"On or near Greenlaw Street"},"longitude":"0.058839"},"context":"","outcome_status":{"category":"Court result unavailable","date":"2019-12"},"persistent_id":"8c80fb40ccf3d0a2dd8eb396f2f3d13a56bf1878d3dfec63c0d0edcd14b9404f","id":74327398,"location_subtype":"","month":"2019-05"},{"category":"drugs","location_type":"Force","location":{"latitude":"51.493818","street":{"id":954442,"name":"On or near Woolwich High Street"},"longitude":"0.063666"},"context":"","outcome_status":{"category":"Court result unavailable","date":"2019-11"},"persistent_id":"1b1da37ef43320f8b0516fa4d29ced3e30cffa6e4e1f0eb7f94a170860cba0e3","id":74369655,"location_subtype":"","month":"2019-05"},{"category":"drugs","location_type":"Force","location":{"latitude":"51.510376","street":{"id":955252,"name":"On or near Sports\/recreation Area"},"longitude":"0.030000"},"context":"","outcome_status":{"category":"Offender given penalty notice","date":"2020-01"},"persistent_id":"144eee070c27853ecfa796f5a23c454562bcaa5d9cb51a52ea91aec36b8a8fd5","id":74327901,"location_subtype":"","month":"2019-05"},{"category":"drugs","location_type":"Force","location":{"latitude":"51.493677","street":{"id":923897,"name":"On or near Venus Road"},"longitude":"0.054238"},"context":"","outcome_status":{"category":"Local resolution","date":"2019-05"},"persistent_id":"da0d275a0a972f8e094ecaf59a216592c914c45acb636b18f3fd7d3d060668a7","id":74363293,"location_subtype":"","month":"2019-05"},{"category":"drugs","location_type":"Force","location":{"latitude":"51.508160","street":{"id":955220,"name":"On or near Conference\/exhibition Centre"},"longitude":"0.027120"},"context":"","outcome_status":{"category":"Local resolution","date":"2019-05"},"persistent_id":"ba7ea1a34386825c4c0b39975dd0b330adb935f7a37e40031e40f0529138cca3","id":74350458,"location_subtype":"","month":"2019-05"},{"category":"other-theft","location_type":"Force","location":{"latitude":"51.492691","street":{"id":954484,"name":"On or near A206"},"longitude":"0.045838"},"context":"","outcome_status":{"category":"Status update unavailable","date":"2019-09"},"persistent_id":"e911611529214aefa93b81fa07412678286338b7531788ad148e10a287ca11ee","id":74346882,"location_subtype":"","month":"2019-05"},{"category":"other-theft","location_type":"Force","location":{"latitude":"51.510692","street":{"id":955232,"name":"On or near Royal Road"},"longitude":"0.039266"},"context":"","outcome_status":{"category":"Status update unavailable","date":"2019-09"},"persistent_id":"9f63c733feacc6cd7087e4d43de0ff7e6b9d1f58fa35d5e2d1aae7255e87fc86","id":74290935,"location_subtype":"","month":"2019-05"},{"category":"other-theft","location_type":"Force","location":{"latitude":"51.513228","street":{"id":955102,"name":"On or near Barry Road"},"longitude":"0.049093"},"context":"","outcome_status":{"category":"Status update unavailable","date":"2019-09"},"persistent_id":"2666e9d10a9e99859c26236eaddbbd7e5b7fcf5e46c4be08c9d6408074d15c8c","id":74309211,"location_subtype":"","month":"2019-05"},{"category":"other-theft","location_type":"Force","location":{"latitude":"51.508160","street":{"id":955220,"name":"On or near Conference\/exhibition Centre"},"longitude":"0.027120"},"context":"","outcome_status":{"category":"Status update unavailable","date":"2019-09"},"persistent_id":"5709256ca768db6581931f80c48d456a9dccb6c1106ca7f2fde568433107b4c6","id":74310791,"location_subtype":"","month":"2019-05"},{"category":"other-theft","location_type":"Force","location":{"latitude":"51.514884","street":{"id":955184,"name":"On or near Supermarket"},"longitude":"0.057743"},"context":"","outcome_status":{"category":"Status update unavailable","date":"2019-09"},"persistent_id":"24de0d37838983e11959803a4e1185400b9971051b3c2b0c297a3af9b474e80e","id":74317202,"location_subtype":"","month":"2019-05"},{"category":"other-theft","location_type":"Force","location":{"latitude":"51.508160","street":{"id":955220,"name":"On or near Conference\/exhibition Centre"},"longitude":"0.027120"},"context":"","outcome_status":{"category":"Status update unavailable","date":"2019-09"},"persistent_id":"d9329eb28fe98f2e01e3f047afec4481a9c6acecef06fe31013fdc5996485bd8","id":74320864,"location_subtype":"","month":"2019-05"},{"category":"other-theft","location_type":"Force","location":{"latitude":"51.504517","street":{"id":955291,"name":"On or near Pankhurst Avenue"},"longitude":"0.027203"},"context":"","outcome_status":{"category":"Status update unavailable","date":"2019-09"},"persistent_id":"305ca7255bfae29a485dba39640ad2a3b4bf4c2364f98553348c47e538c6f16c","id":74368564,"location_subtype":"","month":"2019-05"},{"category":"other-theft","location_type":"Force","location":{"latitude":"51.511746","street":{"id":955251,"name":"On or near Alnwick Road"},"longitude":"0.036042"},"context":"","outcome_status":{"category":"Status update unavailable","date":"2019-09"},"persistent_id":"000cfcccf96a5653d1b35103ffac80c1e1c5f599c4db46b447070ebfa01ed8fe","id":74349887,"location_subtype":"","month":"2019-05"},{"category":"other-theft","location_type":"Force","location":{"latitude":"51.514610","street":{"id":955172,"name":"On or near Parking Area"},"longitude":"0.058970"},"context":"","outcome_status":{"category":"Status update unavailable","date":"2019-09"},"persistent_id":"06dc71a6b6839d1baa09339a05dbde273b4ff497f5bbe75a543d40e97546c023","id":74290506,"location_subtype":"","month":"2019-05"},{"category":"other-theft","location_type":"Force","location":{"latitude":"51.515207","street":{"id":955272,"name":"On or near Croombs Road"},"longitude":"0.034582"},"context":"","outcome_status":{"category":"Status update unavailable","date":"2019-09"},"persistent_id":"1c96aa1f95774c41840a065a7ebaa2f089f237c003b5e3208d87ddf5920585c2","id":74296868,"location_subtype":"","month":"2019-05"},{"category":"other-theft","location_type":"Force","location":{"latitude":"51.509380","street":{"id":955135,"name":"On or near Renfrew Close"},"longitude":"0.060824"},"context":"","outcome_status":{"category":"Status update unavailable","date":"2019-09"},"persistent_id":"d157f020f5b3101bc81ace98d71b67398c44d0cefd32df9943bad18367aad41b","id":74298221,"location_subtype":"","month":"2019-05"},{"category":"other-theft","location_type":"Force","location":{"latitude":"51.492568","street":{"id":954446,"name":"On or near Powis Street"},"longitude":"0.062616"},"context":"","outcome_status":{"category":"Status update unavailable","date":"2019-09"},"persistent_id":"e91cac7a8eb876bf78d699adfbdc31819a17e2ecfaec2c3537b68d38e409ee27","id":74298467,"location_subtype":"","month":"2019-05"},{"category":"other-theft","location_type":"Force","location":{"latitude":"51.517927","street":{"id":962467,"name":"On or near Eisenhower Drive"},"longitude":"0.049333"},"context":"","outcome_status":{"category":"Status update unavailable","date":"2019-09"},"persistent_id":"fd620c0a695ea8c418bbae698b11490e2d21ef00a57697f3c02dc7697e97a822","id":74298478,"location_subtype":"","month":"2019-05"},{"category":"other-theft","location_type":"Force","location":{"latitude":"51.492568","street":{"id":954446,"name":"On or near Powis Street"},"longitude":"0.062616"},"context":"","outcome_status":{"category":"Status update unavailable","date":"2019-09"},"persistent_id":"ccf6e64d758dfa67cebc5e042ca5b98d2c503594ff558f6bdfa6279245c76cb5","id":74301835,"location_subtype":"","month":"2019-05"},{"category":"other-theft","location_type":"Force","location":{"latitude":"51.493818","street":{"id":954442,"name":"On or near Woolwich High Street"},"longitude":"0.063666"},"context":"","outcome_status":{"category":"Status update unavailable","date":"2019-09"},"persistent_id":"1e601a00418b48a6854ec4cca67822ba1e79a1d53d2fc92b89e5a04f6bbf3a1c","id":74304413,"location_subtype":"","month":"2019-05"},{"category":"other-theft","location_type":"Force","location":{"latitude":"51.491880","street":{"id":954526,"name":"On or near Bowling Green Row"},"longitude":"0.052097"},"context":"","outcome_status":{"category":"Status update unavailable","date":"2019-09"},"persistent_id":"9e58a3d936e2cc33a99527106027bdf719d944a4ccb697473918f6ea7254680b","id":74308800,"location_subtype":"","month":"2019-05"},{"category":"other-theft","location_type":"Force","location":{"latitude":"51.515382","street":{"id":955276,"name":"On or near Atkinson Road"},"longitude":"0.035901"},"context":"","outcome_status":{"category":"Status update unavailable","date":"2019-09"},"persistent_id":"00bf3b831dd91ff17747e0bfd3ca6973e40f6fd0b10f17ca77cf86d8adaac8d7","id":74319804,"location_subtype":"","month":"2019-05"},{"category":"other-theft","location_type":"Force","location":{"latitude":"51.508160","street":{"id":955220,"name":"On or near Conference\/exhibition Centre"},"longitude":"0.027120"},"context":"","outcome_status":{"category":"Status update unavailable","date":"2019-09"},"persistent_id":"1520a3b21c03823a612b0491897a7f3ea4877cef0d0b945f325b89c3305ba194","id":74315055,"location_subtype":"","month":"2019-05"},{"category":"other-theft","location_type":"Force","location":{"latitude":"51.509572","street":{"id":955143,"name":"On or near Learoyd Gardens"},"longitude":"0.062677"},"context":"","outcome_status":{"category":"Status update unavailable","date":"2019-09"},"persistent_id":"1bc2845f1484bf0f9121e105f03dd514deba806f4bd68c401a6241f2f5d9635b","id":74314041,"location_subtype":"","month":"2019-05"},{"category":"other-theft","location_type":"Force","location":{"latitude":"51.493818","street":{"id":954442,"name":"On or near Woolwich High Street"},"longitude":"0.063666"},"context":"","outcome_status":{"category":"Status update unavailable","date":"2019-09"},"persistent_id":"41bdbf9948f7bd3dae11593ea18e9ecc7ccaa6967869f754622b888ebd3e1798","id":74318425,"location_subtype":"","month":"2019-05"},{"category":"other-theft","location_type":"Force","location":{"latitude":"51.492691","street":{"id":954484,"name":"On or near A206"},"longitude":"0.045838"},"context":"","outcome_status":{"category":"Status update unavailable","date":"2019-09"},"persistent_id":"069021c847b05411459a233cdae7c3fc5db46f9e8ced6f4141d0f4704ecf01d4","id":74337185,"location_subtype":"","month":"2019-05"},{"category":"other-theft","location_type":"Force","location":{"latitude":"51.491880","street":{"id":954526,"name":"On or near Bowling Green Row"},"longitude":"0.052097"},"context":"","outcome_status":{"category":"Status update unavailable","date":"2019-09"},"persistent_id":"284b7f55448dc387b894c4004b75e974f4d50303fc3f42a98b325bff3415562f","id":74330661,"location_subtype":"","month":"2019-05"},{"category":"other-theft","location_type":"Force","location":{"latitude":"51.501044","street":{"id":954580,"name":"On or near Milk Street"},"longitude":"0.068459"},"context":"","outcome_status":{"category":"Status update unavailable","date":"2019-09"},"persistent_id":"dc5090647eaac448fdb7946699fcba0f97e5ee3348090d5307c71e7d6be83f11","id":74340700,"location_subtype":"","month":"2019-05"},{"category":"other-theft","location_type":"Force","location":{"latitude":"51.508160","street":{"id":955220,"name":"On or near Conference\/exhibition Centre"},"longitude":"0.027120"},"context":"","outcome_status":{"category":"Status update unavailable","date":"2019-09"},"persistent_id":"ae19157af099a0921cda8267dbf497eab06d81c18a2993b3a801b558b4fac330","id":74337736,"location_subtype":"","month":"2019-05"},{"category":"other-theft","location_type":"Force","location":{"latitude":"51.514884","street":{"id":955184,"name":"On or near Supermarket"},"longitude":"0.057743"},"context":"","outcome_status":{"category":"Status update unavailable","date":"2019-09"},"persistent_id":"be8dde3fa71a3e96c9678d3c0dadd6682eff1be2b58ff7d8b041c979db2c3d40","id":74346823,"location_subtype":"","month":"2019-05"},{"category":"other-theft","location_type":"Force","location":{"latitude":"51.492082","street":{"id":954513,"name":"On or near Lord Warwick Street"},"longitude":"0.054987"},"context":"","outcome_status":{"category":"Status update unavailable","date":"2019-09"},"persistent_id":"db7444481a7a4a6ae97190f60263e02b4fc98b455bc70e62f951f9a03af1862f","id":74347056,"location_subtype":"","month":"2019-05"},{"category":"other-theft","location_type":"Force","location":{"latitude":"51.493533","street":{"id":954452,"name":"On or near Europe Road"},"longitude":"0.055298"},"context":"","outcome_status":{"category":"Status update unavailable","date":"2019-09"},"persistent_id":"a31b27bfa8633097f4314c73d10e02c08142a00ccfb46f18fe12906a40ab1c91","id":74347126,"location_subtype":"","month":"2019-05"},{"category":"other-theft","location_type":"Force","location":{"latitude":"51.493818","street":{"id":954442,"name":"On or near Woolwich High Street"},"longitude":"0.063666"},"context":"","outcome_status":{"category":"Status update unavailable","date":"2019-09"},"persistent_id":"535b6c060d553ccf72a9e39657439e427c3016b3fc17436089395544892fcac0","id":74347151,"location_subtype":"","month":"2019-05"},{"category":"other-theft","location_type":"Force","location":{"latitude":"51.493677","street":{"id":923897,"name":"On or near Venus Road"},"longitude":"0.054238"},"context":"","outcome_status":{"category":"Status update unavailable","date":"2019-09"},"persistent_id":"4af5e8f42c4d9ff0690e18119da228fc6ec413beff1ee8369e29bb4f6a643d0c","id":74347176,"location_subtype":"","month":"2019-05"},{"category":"other-theft","location_type":"Force","location":{"latitude":"51.510940","street":{"id":955244,"name":"On or near Cundy Road"},"longitude":"0.032777"},"context":"","outcome_status":{"category":"Status update unavailable","date":"2019-09"},"persistent_id":"4c1b75ca582b1863a7ca63323301750162f600b44d59ae6059e6fce270bb9fed","id":74356793,"location_subtype":"","month":"2019-05"},{"category":"other-theft","location_type":"Force","location":{"latitude":"51.512646","street":{"id":955142,"name":"On or near Newling Close"},"longitude":"0.057167"},"context":"","outcome_status":{"category":"Status update unavailable","date":"2019-09"},"persistent_id":"3f14c39f2a53e1ad44bacfee99728bb2468a045bbe52c1505702d5c1b9fa8466","id":74357250,"location_subtype":"","month":"2019-05"},{"category":"other-theft","location_type":"Force","location":{"latitude":"51.492082","street":{"id":954513,"name":"On or near Lord Warwick Street"},"longitude":"0.054987"},"context":"","outcome_status":{"category":"Status update unavailable","date":"2019-09"},"persistent_id":"c11b112ed552088a69e0501bd1c1a8faedd412489bad246e8e2cae0a31dbbf73","id":74321467,"location_subtype":"","month":"2019-05"},{"category":"other-theft","location_type":"Force","location":{"latitude":"51.517927","street":{"id":962467,"name":"On or near Eisenhower Drive"},"longitude":"0.049333"},"context":"","outcome_status":{"category":"Status update unavailable","date":"2019-09"},"persistent_id":"f06c5472f7529c40bbb9e167ad93c9b26ef36e132a210d1ba0cab3c3ad08f55a","id":74322126,"location_subtype":"","month":"2019-05"},{"category":"other-theft","location_type":"Force","location":{"latitude":"51.493818","street":{"id":954442,"name":"On or near Woolwich High Street"},"longitude":"0.063666"},"context":"","outcome_status":{"category":"Status update unavailable","date":"2019-09"},"persistent_id":"7bb30bb3b968e7644586510b185df35582d81b6af025438cd68cc806b760109d","id":74343433,"location_subtype":"","month":"2019-05"},{"category":"other-theft","location_type":"Force","location":{"latitude":"51.501238","street":{"id":954467,"name":"On or near Manwood Street"},"longitude":"0.057978"},"context":"","outcome_status":{"category":"Status update unavailable","date":"2019-09"},"persistent_id":"0787b358b2399fef6bc0c726aece9d252bae69d19592d8e6c782ca41b176c1ae","id":74349255,"location_subtype":"","month":"2019-05"},{"category":"other-theft","location_type":"Force","location":{"latitude":"51.508160","street":{"id":955220,"name":"On or near Conference\/exhibition Centre"},"longitude":"0.027120"},"context":"","outcome_status":{"category":"Status update unavailable","date":"2019-09"},"persistent_id":"66b6dce3e07b6a8a648eeae437504a1f9e0449b0585014745e29d51102321b4b","id":74349779,"location_subtype":"","month":"2019-05"},{"category":"other-theft","location_type":"Force","location":{"latitude":"51.493818","street":{"id":954442,"name":"On or near Woolwich High Street"},"longitude":"0.063666"},"context":"","outcome_status":{"category":"Status update unavailable","date":"2019-09"},"persistent_id":"b181dc0297603424c2bcc1498415120bf7e7493a7fead48277eec87e844091bc","id":74350130,"location_subtype":"","month":"2019-05"},{"category":"other-theft","location_type":"BTP","location":{"latitude":"51.508500","street":{"id":1488767,"name":"Royal Albert (dlr)"},"longitude":"0.046042"},"context":"","outcome_status":{"category":"Status update unavailable","date":"2019-09"},"persistent_id":"","id":88720515,"location_subtype":"LU STATION","month":"2019-05"},{"category":"possession-of-weapons","location_type":"Force","location":{"latitude":"51.492082","street":{"id":954513,"name":"On or near Lord Warwick Street"},"longitude":"0.054987"},"context":"","outcome_status":{"category":"Court result unavailable","date":"2019-12"},"persistent_id":"6537d8554bb0dbacc3cd78ef18ef9e648a7b30515cb4174002ca09e7a06bfd34","id":74299945,"location_subtype":"","month":"2019-05"},{"category":"possession-of-weapons","location_type":"Force","location":{"latitude":"51.492250","street":{"id":954496,"name":"On or near Pedestrian Subway"},"longitude":"0.051005"},"context":"","outcome_status":{"category":"Status update unavailable","date":"2019-09"},"persistent_id":"40c783b369ac5fb1aef115937dcd3e9bd537e51ff5ec26d99e0b27cd5b9ce735","id":74343382,"location_subtype":"","month":"2019-05"},{"category":"possession-of-weapons","location_type":"Force","location":{"latitude":"51.515188","street":{"id":955180,"name":"On or near Ireland Close"},"longitude":"0.054269"},"context":"","outcome_status":{"category":"Offender given a caution","date":"2020-01"},"persistent_id":"f2704f6b986882ae4d3093320afbbc64bd9490143323ee2d319c72bed798dca0","id":74312135,"location_subtype":"","month":"2019-05"},{"category":"possession-of-weapons","location_type":"Force","location":{"latitude":"51.492145","street":{"id":954486,"name":"On or near Tamar Street"},"longitude":"0.045209"},"context":"","outcome_status":{"category":"Investigation complete; no suspect identified","date":"2020-04"},"persistent_id":"972d6db82d2c2cbb852c04da8ebe9fcf7a62a274f3cbc7f2267c266da275ce5c","id":74304699,"location_subtype":"","month":"2019-05"},{"category":"possession-of-weapons","location_type":"Force","location":{"latitude":"51.499888","street":{"id":954478,"name":"On or near Police Station"},"longitude":"0.063652"},"context":"","outcome_status":{"category":"Status update unavailable","date":"2019-09"},"persistent_id":"7c35ccbf09a836b5f7951b0004ebd437d7be17a47f6385c1e344bda7835a45d3","id":74354687,"location_subtype":"","month":"2019-05"},{"category":"public-order","location_type":"Force","location":{"latitude":"51.516721","street":{"id":962473,"name":"On or near Routh Street"},"longitude":"0.057076"},"context":"","outcome_status":{"category":"Investigation complete; no suspect identified","date":"2020-03"},"persistent_id":"dcb4e3479476c6e576b7977b0ad2987f4a0f157df3fcf2f0d0320e9555ce7f6f","id":74324751,"location_subtype":"","month":"2019-05"},{"category":"public-order","location_type":"Force","location":{"latitude":"51.512462","street":{"id":955160,"name":"On or near Brandreth Road"},"longitude":"0.057922"},"context":"","outcome_status":{"category":"Status update unavailable","date":"2019-09"},"persistent_id":"f5925f893b7071f4e43b08bcb352d3a1604c41486c906b0ee8a292d829c45577","id":74350555,"location_subtype":"","month":"2019-05"},{"category":"public-order","location_type":"Force","location":{"latitude":"51.516721","street":{"id":962473,"name":"On or near Routh Street"},"longitude":"0.057076"},"context":"","outcome_status":{"category":"Status update unavailable","date":"2019-09"},"persistent_id":"6b1e90828a6b8c5caa5b3f89f0ae6566d23a048c3ee97627aa963c85086b4615","id":74322884,"location_subtype":"","month":"2019-05"},{"category":"public-order","location_type":"Force","location":{"latitude":"51.492246","street":{"id":954440,"name":"On or near Parking Area"},"longitude":"0.062039"},"context":"","outcome_status":{"category":"Status update unavailable","date":"2019-09"},"persistent_id":"33c6cc330d6a8d272808212f1ed159c48844d07dc0419c6cb5ac1de7ed3bae68","id":74336960,"location_subtype":"","month":"2019-05"},{"category":"public-order","location_type":"BTP","location":{"latitude":"51.504100","street":{"id":1488777,"name":"London City Airport (dlr)"},"longitude":"0.048396"},"context":"","outcome_status":{"category":"Status update unavailable","date":"2019-09"},"persistent_id":"","id":88720570,"location_subtype":"LU STATION","month":"2019-05"},{"category":"public-order","location_type":"Force","location":{"latitude":"51.493818","street":{"id":954442,"name":"On or near Woolwich High Street"},"longitude":"0.063666"},"context":"","outcome_status":{"category":"Status update unavailable","date":"2019-09"},"persistent_id":"0155a5c03e131410fc1b01762e157713f1c0b8357e0613bec6ee9d20cd4845ac","id":74321064,"location_subtype":"","month":"2019-05"},{"category":"public-order","location_type":"Force","location":{"latitude":"51.516835","street":{"id":962487,"name":"On or near Ambassador Gardens"},"longitude":"0.054703"},"context":"","outcome_status":{"category":"Status update unavailable","date":"2019-09"},"persistent_id":"4fff7e405942c6fe627c58fa0b16dba14a0699d89ff1aae2cc5cd610e37acc51","id":74354151,"location_subtype":"","month":"2019-05"},{"category":"public-order","location_type":"BTP","location":{"latitude":"51.514329","street":{"id":1489582,"name":"Beckton (dlr)"},"longitude":"0.061177"},"context":"","outcome_status":{"category":"Status update unavailable","date":"2019-09"},"persistent_id":"","id":88720514,"location_subtype":"LU STATION","month":"2019-05"},{"category":"public-order","location_type":"Force","location":{"latitude":"51.492691","street":{"id":954484,"name":"On or near A206"},"longitude":"0.045838"},"context":"","outcome_status":{"category":"Status update unavailable","date":"2019-09"},"persistent_id":"b7dde3a82fb061697652325b61348e448ee1ede92372ff60993018bec2e763ee","id":74346293,"location_subtype":"","month":"2019-05"},{"category":"public-order","location_type":"Force","location":{"latitude":"51.513277","street":{"id":955238,"name":"On or near Hoskin's Close"},"longitude":"0.035922"},"context":"","outcome_status":{"category":"Status update unavailable","date":"2019-09"},"persistent_id":"36ce9711875079d18c3d721f7db17bb088d460fd8e35cf4bcba3c8fa3bf62a3c","id":74334864,"location_subtype":"","month":"2019-05"},{"category":"public-order","location_type":"Force","location":{"latitude":"51.489739","street":{"id":954494,"name":"On or near Lyford Street"},"longitude":"0.049091"},"context":"","outcome_status":{"category":"Status update unavailable","date":"2019-09"},"persistent_id":"347c3e97b3995239392515b4a66f6dcc48dab5bd71fa304c2727d19fd10013a2","id":74315244,"location_subtype":"","month":"2019-05"},{"category":"public-order","location_type":"Force","location":{"latitude":"51.499888","street":{"id":954478,"name":"On or near Police Station"},"longitude":"0.063652"},"context":"","outcome_status":{"category":"Status update unavailable","date":"2019-09"},"persistent_id":"1c0e1e2800cb545c74ba744e1fba530999654f085fa9431297775ffbdcb8b64a","id":74321181,"location_subtype":"","month":"2019-05"},{"category":"public-order","location_type":"Force","location":{"latitude":"51.516721","street":{"id":962473,"name":"On or near Routh Street"},"longitude":"0.057076"},"context":"","outcome_status":{"category":"Status update unavailable","date":"2019-09"},"persistent_id":"6b1e90828a6b8c5caa5b3f89f0ae6566d23a048c3ee97627aa963c85086b4615","id":74322883,"location_subtype":"","month":"2019-05"},{"category":"public-order","location_type":"Force","location":{"latitude":"51.513277","street":{"id":955238,"name":"On or near Hoskin's Close"},"longitude":"0.035922"},"context":"","outcome_status":{"category":"Court result unavailable","date":"2019-11"},"persistent_id":"36ce9711875079d18c3d721f7db17bb088d460fd8e35cf4bcba3c8fa3bf62a3c","id":74334865,"location_subtype":"","month":"2019-05"},{"category":"robbery","location_type":"Force","location":{"latitude":"51.492082","street":{"id":954513,"name":"On or near Lord Warwick Street"},"longitude":"0.054987"},"context":"","outcome_status":{"category":"Court result unavailable","date":"2019-11"},"persistent_id":"c7f39a8f095b5ab38971cafbe590abb56b538e7cdd09c61ab55afd82051650ef","id":74346338,"location_subtype":"","month":"2019-05"},{"category":"robbery","location_type":"Force","location":{"latitude":"51.515382","street":{"id":955276,"name":"On or near Atkinson Road"},"longitude":"0.035901"},"context":"","outcome_status":{"category":"Status update unavailable","date":"2019-09"},"persistent_id":"8a3e2ffb7ee03b1113f1e5b4911a478fa44a1990fbcacdeceed50ffaa750b182","id":74332243,"location_subtype":"","month":"2019-05"},{"category":"robbery","location_type":"Force","location":{"latitude":"51.499888","street":{"id":954478,"name":"On or near Police Station"},"longitude":"0.063652"},"context":"","outcome_status":{"category":"Status update unavailable","date":"2019-09"},"persistent_id":"f35afb5a153d7077f4806a37f31cc614d3ac485ac40a7cae4d006e2ce82c5af3","id":74334057,"location_subtype":"","month":"2019-05"},{"category":"robbery","location_type":"Force","location":{"latitude":"51.511807","street":{"id":955141,"name":"On or near Oakes Close"},"longitude":"0.058354"},"context":"","outcome_status":{"category":"Status update unavailable","date":"2019-09"},"persistent_id":"c4b52da0101238970833b2b87e0c0eaa69d88086c0bb4dce13b1c0041404fcc1","id":74329015,"location_subtype":"","month":"2019-05"},{"category":"robbery","location_type":"Force","location":{"latitude":"51.493677","street":{"id":923897,"name":"On or near Venus Road"},"longitude":"0.054238"},"context":"","outcome_status":{"category":"Status update unavailable","date":"2019-09"},"persistent_id":"ee49e72852377ec6d8ffb73b8b52771b409e5f157be368fb1412a29b3719fb20","id":74346031,"location_subtype":"","month":"2019-05"},{"category":"robbery","location_type":"Force","location":{"latitude":"51.491880","street":{"id":954526,"name":"On or near Bowling Green Row"},"longitude":"0.052097"},"context":"","outcome_status":{"category":"Status update unavailable","date":"2019-09"},"persistent_id":"5587b1d80b342a67559fefdc23f97a1eddbc757fec56e0738a2199950c6c9276","id":74296006,"location_subtype":"","month":"2019-05"},{"category":"robbery","location_type":"Force","location":{"latitude":"51.492527","street":{"id":954450,"name":"On or near Greenlaw Street"},"longitude":"0.058839"},"context":"","outcome_status":{"category":"Status update unavailable","date":"2019-09"},"persistent_id":"7ad906a30d1465adf4723e099e095b4b88874802eb48e01e1867ba46d5bebb9e","id":74321148,"location_subtype":"","month":"2019-05"},{"category":"robbery","location_type":"Force","location":{"latitude":"51.502190","street":{"id":954476,"name":"On or near Ben Tillet Close"},"longitude":"0.052921"},"context":"","outcome_status":{"category":"Status update unavailable","date":"2019-09"},"persistent_id":"7d855edf74834940ed360b6accf8f5865c546f10680589eeb35e20e11b89541e","id":74349030,"location_subtype":"","month":"2019-05"},{"category":"robbery","location_type":"BTP","location":{"latitude":"51.502309","street":{"id":1489904,"name":"Pontoon Dock (dlr)"},"longitude":"0.033186"},"context":"","outcome_status":{"category":"Status update unavailable","date":"2019-09"},"persistent_id":"","id":88720620,"location_subtype":"LU STATION","month":"2019-05"},{"category":"robbery","location_type":"Force","location":{"latitude":"51.515040","street":{"id":955171,"name":"On or near Parking Area"},"longitude":"0.059076"},"context":"","outcome_status":{"category":"Status update unavailable","date":"2019-09"},"persistent_id":"04db5a516c437d0ef3664accc23409a1f3d632d56b0b411b228c75382ad94a82","id":74332415,"location_subtype":"","month":"2019-05"},{"category":"robbery","location_type":"Force","location":{"latitude":"51.517360","street":{"id":962456,"name":"On or near Robin Crescent"},"longitude":"0.045718"},"context":"","outcome_status":{"category":"Status update unavailable","date":"2019-09"},"persistent_id":"9172b0cbd25bb53ed14d955a9d3f15a9a0a7fafda429db7ac32d90850a10594c","id":74345469,"location_subtype":"","month":"2019-05"},{"category":"robbery","location_type":"Force","location":{"latitude":"51.490479","street":{"id":954503,"name":"On or near Samuel Street"},"longitude":"0.051487"},"context":"","outcome_status":{"category":"Status update unavailable","date":"2019-09"},"persistent_id":"ed54f7343dfdd11d100210537bad9c960bc69dbd85bc78de389b6e541440c359","id":74346294,"location_subtype":"","month":"2019-05"},{"category":"robbery","location_type":"Force","location":{"latitude":"51.512529","street":{"id":955249,"name":"On or near Argyle Road"},"longitude":"0.030830"},"context":"","outcome_status":{"category":"Investigation complete; no suspect identified","date":"2020-03"},"persistent_id":"449da516cd10440921dd175766d2038d803d4e94be5cf5d60428b7c090cbaf6e","id":74341633,"location_subtype":"","month":"2019-05"},{"category":"robbery","location_type":"BTP","location":{"latitude":"51.514329","street":{"id":1489582,"name":"Beckton (dlr)"},"longitude":"0.061177"},"context":"","outcome_status":{"category":"Status update unavailable","date":"2019-09"},"persistent_id":"","id":88720513,"location_subtype":"LU STATION","month":"2019-05"},{"category":"robbery","location_type":"Force","location":{"latitude":"51.507467","street":{"id":955087,"name":"On or near Further\/higher Educational Building"},"longitude":"0.064758"},"context":"","outcome_status":{"category":"Status update unavailable","date":"2019-09"},"persistent_id":"4ede3b3694fd5fcbde3f3671b24961f5c22877b53a8d39b2efa2ce004cc5eae0","id":74333681,"location_subtype":"","month":"2019-05"},{"category":"robbery","location_type":"Force","location":{"latitude":"51.492082","street":{"id":954513,"name":"On or near Lord Warwick Street"},"longitude":"0.054987"},"context":"","outcome_status":{"category":"Court result unavailable","date":"2019-11"},"persistent_id":"16359458a82f0961deaf7c0ac4d63d8d7b3d9961dcf100b6bd2968f8326dea7e","id":74345759,"location_subtype":"","month":"2019-05"},{"category":"robbery","location_type":"Force","location":{"latitude":"51.502568","street":{"id":954422,"name":"On or near Petrol Station"},"longitude":"0.025993"},"context":"","outcome_status":{"category":"Investigation complete; no suspect identified","date":"2020-03"},"persistent_id":"03df14ad0d07a936083b7750a935316eec9809fe048a0dd73bf9b1f50dd1ef14","id":74305970,"location_subtype":"","month":"2019-05"},{"category":"robbery","location_type":"Force","location":{"latitude":"51.512752","street":{"id":955165,"name":"On or near Barton Close"},"longitude":"0.058800"},"context":"","outcome_status":{"category":"Status update unavailable","date":"2019-09"},"persistent_id":"03f6c7f8fd530aef874c77b4574b6dd5c3e381139889fbcb6a6039a4c1cfe101","id":74296957,"location_subtype":"","month":"2019-05"},{"category":"robbery","location_type":"Force","location":{"latitude":"51.510208","street":{"id":955219,"name":"On or near Betts Road"},"longitude":"0.027773"},"context":"","outcome_status":{"category":"Status update unavailable","date":"2019-09"},"persistent_id":"9b4da43ccf06da6819b192c52829082394ea29d6cf344d352401e0b5d6a6e887","id":74321165,"location_subtype":"","month":"2019-05"},{"category":"robbery","location_type":"Force","location":{"latitude":"51.501225","street":{"id":954576,"name":"On or near Woodman Street"},"longitude":"0.066364"},"context":"","outcome_status":{"category":"Investigation complete; no suspect identified","date":"2020-03"},"persistent_id":"1802e60cb5d7883f66629a93f6e32a7802d2af33a579754af36ea333f21a9725","id":74304092,"location_subtype":"","month":"2019-05"},{"category":"robbery","location_type":"Force","location":{"latitude":"51.507467","street":{"id":955087,"name":"On or near Further\/higher Educational Building"},"longitude":"0.064758"},"context":"","outcome_status":{"category":"Status update unavailable","date":"2019-09"},"persistent_id":"4ede3b3694fd5fcbde3f3671b24961f5c22877b53a8d39b2efa2ce004cc5eae0","id":74333682,"location_subtype":"","month":"2019-05"},{"category":"robbery","location_type":"Force","location":{"latitude":"51.507467","street":{"id":955087,"name":"On or near Further\/higher Educational Building"},"longitude":"0.064758"},"context":"","outcome_status":{"category":"Status update unavailable","date":"2019-09"},"persistent_id":"4ede3b3694fd5fcbde3f3671b24961f5c22877b53a8d39b2efa2ce004cc5eae0","id":74333683,"location_subtype":"","month":"2019-05"},{"category":"shoplifting","location_type":"Force","location":{"latitude":"51.504102","street":{"id":955192,"name":"On or near Airport\/airfield"},"longitude":"0.047963"},"context":"","outcome_status":{"category":"Status update unavailable","date":"2019-09"},"persistent_id":"b42106fdc6cf0cd0ec1606d5d1693119881690884de1456ec868546850f0bb8f","id":74352077,"location_subtype":"","month":"2019-05"},{"category":"shoplifting","location_type":"Force","location":{"latitude":"51.493818","street":{"id":954442,"name":"On or near Woolwich High Street"},"longitude":"0.063666"},"context":"","outcome_status":{"category":"Status update unavailable","date":"2019-09"},"persistent_id":"802e74fdf6baa761adeef74cf231abb51d745851758bdc2b4449226496e80946","id":74296814,"location_subtype":"","month":"2019-05"},{"category":"theft-from-the-person","location_type":"Force","location":{"latitude":"51.504102","street":{"id":955192,"name":"On or near Airport\/airfield"},"longitude":"0.047963"},"context":"","outcome_status":{"category":"Status update unavailable","date":"2019-09"},"persistent_id":"2098ba4564f96be09dde8641fdb7a25ea3b34bfc05febc0a617ce05a76baf651","id":74349081,"location_subtype":"","month":"2019-05"},{"category":"theft-from-the-person","location_type":"Force","location":{"latitude":"51.493535","street":{"id":954482,"name":"On or near Ruston Road"},"longitude":"0.047461"},"context":"","outcome_status":{"category":"Status update unavailable","date":"2019-09"},"persistent_id":"a3e418fa12ae2fc131fb0e4199fd5e1f31393d704b019c69c973207464f4581e","id":74315970,"location_subtype":"","month":"2019-05"},{"category":"theft-from-the-person","location_type":"Force","location":{"latitude":"51.493947","street":{"id":954451,"name":"On or near Glass Yard"},"longitude":"0.062447"},"context":"","outcome_status":{"category":"Status update unavailable","date":"2019-09"},"persistent_id":"fbbdb345cdc455d7c69fdbcc5dbeb62e8426e168ac6d79561bbf8ebe0437c627","id":74320159,"location_subtype":"","month":"2019-05"},{"category":"theft-from-the-person","location_type":"Force","location":{"latitude":"51.501931","street":{"id":954459,"name":"On or near Tate Road"},"longitude":"0.051742"},"context":"","outcome_status":{"category":"Status update unavailable","date":"2019-09"},"persistent_id":"d2c28d5a6b9761955da507d5a734a0e830cc8401376a3b924142f7bba936e415","id":74346339,"location_subtype":"","month":"2019-05"},{"category":"theft-from-the-person","location_type":"Force","location":{"latitude":"51.508160","street":{"id":955220,"name":"On or near Conference\/exhibition Centre"},"longitude":"0.027120"},"context":"","outcome_status":{"category":"Status update unavailable","date":"2019-09"},"persistent_id":"5d0d7e2a00611b69f85d8373c6055eccee700504f57b3108a811d12214712a16","id":74349106,"location_subtype":"","month":"2019-05"},{"category":"theft-from-the-person","location_type":"Force","location":{"latitude":"51.514884","street":{"id":955184,"name":"On or near Supermarket"},"longitude":"0.057743"},"context":"","outcome_status":{"category":"Status update unavailable","date":"2019-09"},"persistent_id":"7eb1dff190ae842ea3209e83032e0574bee165aab7029b5e82ce8141e6e039ff","id":74357832,"location_subtype":"","month":"2019-05"},{"category":"vehicle-crime","location_type":"Force","location":{"latitude":"51.511187","street":{"id":955242,"name":"On or near Felsted Road"},"longitude":"0.038236"},"context":"","outcome_status":{"category":"Status update unavailable","date":"2019-09"},"persistent_id":"0f240815344d98b5faa5bb464c2b9c14c7a28be0f07741795d1fb75069b6a11d","id":74321763,"location_subtype":"","month":"2019-05"},{"category":"vehicle-crime","location_type":"Force","location":{"latitude":"51.491900","street":{"id":954492,"name":"On or near Pett Street"},"longitude":"0.047344"},"context":"","outcome_status":{"category":"Status update unavailable","date":"2019-09"},"persistent_id":"9209f91636d7de0924e8b55f6533f570f239e66010e3a5c8b4db1f5964beef67","id":74301487,"location_subtype":"","month":"2019-05"},{"category":"vehicle-crime","location_type":"Force","location":{"latitude":"51.517360","street":{"id":962456,"name":"On or near Robin Crescent"},"longitude":"0.045718"},"context":"","outcome_status":{"category":"Status update unavailable","date":"2019-09"},"persistent_id":"f486730f2af4d6e4e1bbc59de89daef83d89b842185ec2d6763548921517b32e","id":74347389,"location_subtype":"","month":"2019-05"},{"category":"vehicle-crime","location_type":"Force","location":{"latitude":"51.491900","street":{"id":954492,"name":"On or near Pett Street"},"longitude":"0.047344"},"context":"","outcome_status":{"category":"Status update unavailable","date":"2019-09"},"persistent_id":"b571b63b57373993c67425d7820b5bf3940ce09c2d3e06eae723e2422c6645e6","id":74347394,"location_subtype":"","month":"2019-05"},{"category":"vehicle-crime","location_type":"Force","location":{"latitude":"51.511058","street":{"id":955247,"name":"On or near Bering Walk"},"longitude":"0.040493"},"context":"","outcome_status":{"category":"Status update unavailable","date":"2019-09"},"persistent_id":"0f02f230e222995afeffcdaa02f884ec9ccf8d7242e79ab48e0d8d447aee898c","id":74347435,"location_subtype":"","month":"2019-05"},{"category":"vehicle-crime","location_type":"Force","location":{"latitude":"51.502240","street":{"id":954419,"name":"On or near Petrol Station"},"longitude":"0.040272"},"context":"","outcome_status":{"category":"Status update unavailable","date":"2019-09"},"persistent_id":"1ebeefb40708f32ac89db9b605bdc371732d85bf868b9477f13ce9810a2f52ff","id":74347466,"location_subtype":"","month":"2019-05"},{"category":"vehicle-crime","location_type":"Force","location":{"latitude":"51.514884","street":{"id":955184,"name":"On or near Supermarket"},"longitude":"0.057743"},"context":"","outcome_status":{"category":"Status update unavailable","date":"2019-09"},"persistent_id":"7ae922a190446d708cb319577ad1f31fc89f63efc7ff4c13debe402699c48994","id":74290131,"location_subtype":"","month":"2019-05"},{"category":"vehicle-crime","location_type":"Force","location":{"latitude":"51.500338","street":{"id":954583,"name":"On or near Barge House Road"},"longitude":"0.069738"},"context":"","outcome_status":{"category":"Status update unavailable","date":"2019-09"},"persistent_id":"f7e0397bf328818863e65aa50bb61b7265810f73f6373bd33e5d17363cdb2b86","id":74338259,"location_subtype":"","month":"2019-05"},{"category":"vehicle-crime","location_type":"Force","location":{"latitude":"51.491998","street":{"id":954501,"name":"On or near Sunbury Street"},"longitude":"0.057678"},"context":"","outcome_status":{"category":"Status update unavailable","date":"2019-09"},"persistent_id":"dd3b2fb0a9607b9b2960aa65187b94fc97bd2912b6e238f1440b4e3d60c4177a","id":74320161,"location_subtype":"","month":"2019-05"},{"category":"vehicle-crime","location_type":"Force","location":{"latitude":"51.490626","street":{"id":954490,"name":"On or near Tivoli Gardens"},"longitude":"0.047230"},"context":"","outcome_status":{"category":"Status update unavailable","date":"2019-09"},"persistent_id":"d94e01314873b3e8420ffca9c3091bc8cc0a3c1f2eec624ef6cc22a9afb55568","id":74338533,"location_subtype":"","month":"2019-05"},{"category":"vehicle-crime","location_type":"Force","location":{"latitude":"51.493882","street":{"id":954455,"name":"On or near Antelope Road"},"longitude":"0.051798"},"context":"","outcome_status":{"category":"Status update unavailable","date":"2019-09"},"persistent_id":"9e5fefee2a884cce0e0327e20dafc94f7ebc0ffa96772584a36129474d377732","id":74308651,"location_subtype":"","month":"2019-05"},{"category":"vehicle-crime","location_type":"Force","location":{"latitude":"51.508994","street":{"id":955065,"name":"On or near Yeoman Close"},"longitude":"0.067421"},"context":"","outcome_status":{"category":"Status update unavailable","date":"2019-09"},"persistent_id":"2655f109b5642ab5237380e8bd770c8294443ea46ba49c55a9fbd108d73bf728","id":74295867,"location_subtype":"","month":"2019-05"},{"category":"vehicle-crime","location_type":"Force","location":{"latitude":"51.511058","street":{"id":955247,"name":"On or near Bering Walk"},"longitude":"0.040493"},"context":"","outcome_status":{"category":"Status update unavailable","date":"2019-09"},"persistent_id":"357fde6d79cb13ffb2d8a3a061362121d895a144902bf7a8f61212dcc9009c2a","id":74318941,"location_subtype":"","month":"2019-05"},{"category":"vehicle-crime","location_type":"Force","location":{"latitude":"51.508814","street":{"id":955083,"name":"On or near Collier Close"},"longitude":"0.068998"},"context":"","outcome_status":{"category":"Status update unavailable","date":"2019-09"},"persistent_id":"742423c9554395f56bd6df50a76b7a452efd023174461971584f835724ff36d5","id":74299333,"location_subtype":"","month":"2019-05"},{"category":"vehicle-crime","location_type":"Force","location":{"latitude":"51.511249","street":{"id":955202,"name":"On or near Throckmorten Road"},"longitude":"0.028914"},"context":"","outcome_status":{"category":"Status update unavailable","date":"2019-09"},"persistent_id":"32cb8c56b8ae2676ad86432926d08dd73f38ae15f5683011751cee2dc782b0e4","id":74350900,"location_subtype":"","month":"2019-05"},{"category":"vehicle-crime","location_type":"Force","location":{"latitude":"51.491486","street":{"id":954488,"name":"On or near Clevely Close"},"longitude":"0.043811"},"context":"","outcome_status":{"category":"Status update unavailable","date":"2019-09"},"persistent_id":"f1e37cc0562f729bc2c6edb5948357ac23e849cc3b8ad5aedf929f5b32a3fbbf","id":74350969,"location_subtype":"","month":"2019-05"},{"category":"vehicle-crime","location_type":"Force","location":{"latitude":"51.517258","street":{"id":962470,"name":"On or near Viscount Drive"},"longitude":"0.055155"},"context":"","outcome_status":{"category":"Status update unavailable","date":"2019-09"},"persistent_id":"cc896c6cc51d3a964a31376b3021853eec5290747afd8507856e8851999ab289","id":74351184,"location_subtype":"","month":"2019-05"},{"category":"vehicle-crime","location_type":"Force","location":{"latitude":"51.513932","street":{"id":955257,"name":"On or near Wilkinson Road"},"longitude":"0.035000"},"context":"","outcome_status":{"category":"Status update unavailable","date":"2019-09"},"persistent_id":"b3cceb73b2cc318ab12bbe776635228183e80be03ed07514bd24bf091bfb3bd8","id":74371620,"location_subtype":"","month":"2019-05"},{"category":"vehicle-crime","location_type":"Force","location":{"latitude":"51.492231","street":{"id":954427,"name":"On or near Westmoor Street"},"longitude":"0.038183"},"context":"","outcome_status":{"category":"Status update unavailable","date":"2019-09"},"persistent_id":"3609af65708f4b5a271cf8bdbf07fe2bb98b45ab1e09936f1c5ece89a313a8bc","id":74346361,"location_subtype":"","month":"2019-05"},{"category":"vehicle-crime","location_type":"Force","location":{"latitude":"51.507467","street":{"id":955087,"name":"On or near Further\/higher Educational Building"},"longitude":"0.064758"},"context":"","outcome_status":{"category":"Status update unavailable","date":"2019-09"},"persistent_id":"c272fe6359b56848c3300049156feda89dde8673840fc876f19720feb877c6e7","id":74351185,"location_subtype":"","month":"2019-05"},{"category":"vehicle-crime","location_type":"Force","location":{"latitude":"51.516721","street":{"id":962473,"name":"On or near Routh Street"},"longitude":"0.057076"},"context":"","outcome_status":{"category":"Status update unavailable","date":"2019-09"},"persistent_id":"6864b0d45d7994b1b9b47e9c3c9107ad3757ea5e7b879c050b2b33886a4eb452","id":74364768,"location_subtype":"","month":"2019-05"},{"category":"vehicle-crime","location_type":"Force","location":{"latitude":"51.515207","street":{"id":955272,"name":"On or near Croombs Road"},"longitude":"0.034582"},"context":"","outcome_status":{"category":"Status update unavailable","date":"2019-09"},"persistent_id":"fea11f267a6a9c1ca6f25c74fc8b4e9909cf1fef0cbd2e3218f0307c13171331","id":74322906,"location_subtype":"","month":"2019-05"},{"category":"vehicle-crime","location_type":"Force","location":{"latitude":"51.511213","street":{"id":955111,"name":"On or near Agate Close"},"longitude":"0.043959"},"context":"","outcome_status":{"category":"Status update unavailable","date":"2019-09"},"persistent_id":"9cf0db5b80bd61ebdd5eff6a4de8b589ed04ed14efd927d9cefe59f5e1badaf7","id":74322930,"location_subtype":"","month":"2019-05"},{"category":"vehicle-crime","location_type":"Force","location":{"latitude":"51.512742","street":{"id":955099,"name":"On or near Robson Close"},"longitude":"0.047039"},"context":"","outcome_status":{"category":"Status update unavailable","date":"2019-09"},"persistent_id":"ad816054c7a2e0eb1a8823089b66a6f5d4004c962570b2970db58b8f8c418bf1","id":74312142,"location_subtype":"","month":"2019-05"},{"category":"vehicle-crime","location_type":"Force","location":{"latitude":"51.509454","street":{"id":955085,"name":"On or near Artisan Close"},"longitude":"0.067356"},"context":"","outcome_status":{"category":"Status update unavailable","date":"2019-09"},"persistent_id":"79f37868c791ccacfbb0aef30a3b6e88f53e7173924c6c47250de36978be5bbf","id":74304007,"location_subtype":"","month":"2019-05"},{"category":"vehicle-crime","location_type":"Force","location":{"latitude":"51.517196","street":{"id":962471,"name":"On or near Valiant Way"},"longitude":"0.054085"},"context":"","outcome_status":{"category":"Status update unavailable","date":"2019-09"},"persistent_id":"ffd1f41aad795c92611c7f43dc603035fe6da68c788fe6e9150b010e27a93547","id":74311713,"location_subtype":"","month":"2019-05"},{"category":"vehicle-crime","location_type":"Force","location":{"latitude":"51.517020","street":{"id":962342,"name":"On or near Goldcrest Close"},"longitude":"0.041538"},"context":"","outcome_status":{"category":"Status update unavailable","date":"2019-09"},"persistent_id":"b16e18b11571a9bfeeb436dadae965c0ccd58e2754df85cc01aca8c405f90995","id":74350919,"location_subtype":"","month":"2019-05"},{"category":"vehicle-crime","location_type":"Force","location":{"latitude":"51.503309","street":{"id":955280,"name":"On or near Oriental Road"},"longitude":"0.041357"},"context":"","outcome_status":{"category":"Status update unavailable","date":"2019-09"},"persistent_id":"47ddf9bd6def62eb03d4551a91998c6d51473b82ce273929d5894b14366eb76e","id":74324384,"location_subtype":"","month":"2019-05"},{"category":"vehicle-crime","location_type":"Force","location":{"latitude":"51.514884","street":{"id":955184,"name":"On or near Supermarket"},"longitude":"0.057743"},"context":"","outcome_status":{"category":"Status update unavailable","date":"2019-09"},"persistent_id":"c97d903538389082e0d5dc125f852d5fa5f326553b0d7e718117b4a30230b104","id":74324599,"location_subtype":"","month":"2019-05"},{"category":"vehicle-crime","location_type":"Force","location":{"latitude":"51.494321","street":{"id":954483,"name":"On or near Harlinger Street"},"longitude":"0.048303"},"context":"","outcome_status":{"category":"Status update unavailable","date":"2019-09"},"persistent_id":"8be4f31adb449141b009a98290f41b50aaa8ae235ec08cff488286d7e6e1f859","id":74324731,"location_subtype":"","month":"2019-05"},{"category":"vehicle-crime","location_type":"Force","location":{"latitude":"51.509380","street":{"id":955135,"name":"On or near Renfrew Close"},"longitude":"0.060824"},"context":"","outcome_status":{"category":"Status update unavailable","date":"2019-09"},"persistent_id":"9a049ad6e16225a9feb19e9debdf517499400c34eca73080e1123d5559e15585","id":74335413,"location_subtype":"","month":"2019-05"},{"category":"vehicle-crime","location_type":"Force","location":{"latitude":"51.512462","street":{"id":955160,"name":"On or near Brandreth Road"},"longitude":"0.057922"},"context":"","outcome_status":{"category":"Investigation complete; no suspect identified","date":"2020-05"},"persistent_id":"1cdb0952514f8a39ff0120473ff03b1e8d51bf780a0de3c99db8c323b0743170","id":74319041,"location_subtype":"","month":"2019-05"},{"category":"vehicle-crime","location_type":"Force","location":{"latitude":"51.492893","street":{"id":954443,"name":"On or near Woolwich Church Street"},"longitude":"0.053310"},"context":"","outcome_status":{"category":"Status update unavailable","date":"2019-09"},"persistent_id":"b620ba346d4847f8ba6fa50bc160c62b9aa9481bcc24f60e049842261302746c","id":74319378,"location_subtype":"","month":"2019-05"},{"category":"vehicle-crime","location_type":"Force","location":{"latitude":"51.500046","street":{"id":954575,"name":"On or near Woolwich Manor Way"},"longitude":"0.068947"},"context":"","outcome_status":{"category":"Status update unavailable","date":"2019-09"},"persistent_id":"b63513e7f28bc130ee2522ceac89558a276318fd1ef11c3f5f0bb323a409176b","id":74319744,"location_subtype":"","month":"2019-05"},{"category":"vehicle-crime","location_type":"Force","location":{"latitude":"51.501368","street":{"id":954462,"name":"On or near Rymill Street"},"longitude":"0.061846"},"context":"","outcome_status":{"category":"Status update unavailable","date":"2019-09"},"persistent_id":"ada2c1526ec2c67e0c00b31f192bcc926a4132ee4e5b4898b74fcd2d2644a519","id":74347279,"location_subtype":"","month":"2019-05"},{"category":"vehicle-crime","location_type":"Force","location":{"latitude":"51.502240","street":{"id":954419,"name":"On or near Petrol Station"},"longitude":"0.040272"},"context":"","outcome_status":{"category":"Status update unavailable","date":"2019-09"},"persistent_id":"fc8a21118764b4dba0343670efe8e0384e7e543f2be14c5dcc796e9a96c7fb2c","id":74352276,"location_subtype":"","month":"2019-05"},{"category":"vehicle-crime","location_type":"Force","location":{"latitude":"51.503102","street":{"id":955292,"name":"On or near Mill Road"},"longitude":"0.027875"},