[{"category":"anti-social-behaviour","location_type":"Force","location":{"latitude":"51.548050","street":{"id":968498,"name":"On or near Ridley Road"},"longitude":"-0.071493"},"context":"","outcome_status":null,"persistent_id":"","id":74278246,"location_subtype":"","month":"2019-05"},{"category":"anti-social-behaviour","location_type":"Force","location":{"latitude":"51.543477","street":{"id":964294,"name":"On or near Holly Street"},"longitude":"-0.071744"},"context":"","outcome_status":null,"persistent_id":"","id":74278248,"location_subtype":"","month":"2019-05"},{"category":"anti-social-behaviour","location_type":"Force","location":{"latitude":"51.530790","street":{"id":961365,"name":"On or near Hackney Road"},"longitude":"-0.072353"},"context":"","outcome_status":null,"persistent_id":"","id":74278249,"location_subtype":"","month":"2019-05"},{"category":"anti-social-behaviour","location_type":"Force","location":{"latitude":"51.530790","street":{"id":961365,"name":"On or near Hackney Road"},"longitude":"-0.072353"},"context":"","outcome_status":null,"persistent_id":"","id":74278250,"location_subtype":"","month":"2019-05"},{"category":"anti-social-behaviour","location_type":"Force","location":{"latitude":"51.530790","street":{"id":961365,"name":"On or near Hackney Road"},"longitude":"-0.072353"},"context":"","outcome_status":null,"persistent_id":"","id":74278251,"location_subtype":"","month":"2019-05"},{"category":"anti-social-behaviour","location_type":"Force","location":{"latitude":"51.530790","street":{"id":961365,"name":"On or near Hackney Road"},"longitude":"-0.072353"},"context":"","outcome_status":null,"persistent_id":"","id":74278252,"location_subtype":"","month":"2019-05"},{"category":"anti-social-behaviour","location_type":"Force","location":{"latitude":"51.548974","street":{"id":968513,"name":"On or near Colvestone Crescent"},"longitude":"-0.071887"},"context":"","outcome_status":null,"persistent_id":"","id":74278258,"location_subtype":"","month":"2019-05"},{"category":"anti-social-behaviour","location_type":"Force","location":{"latitude":"51.548974","street":{"id":968513,"name":"On or near Colvestone Crescent"},"longitude":"-0.071887"},"context":"","outcome_status":null,"persistent_id":"","id":74278259,"location_subtype":"","month":"2019-05"},{"category":"anti-social-behaviour","location_type":"Force","location":{"latitude":"51.548974","street":{"id":968513,"name":"On or near Colvestone Crescent"},"longitude":"-0.071887"},"context":"","outcome_status":null,"persistent_id":"","id":74278260,"location_subtype":"","month":"2019-05"},{"category":"anti-social-behaviour","location_type":"Force","location":{"latitude":"51.533917","street":{"id":964261,"name":"On or near Thurtle Road"},"longitude":"-0.071687"},"context":"","outcome_status":null,"persistent_id":"","id":74278263,"location_subtype":"","month":"2019-05"},{"category":"anti-social-behaviour","location_type":"Force","location":{"latitude":"51.533917","street":{"id":964261,"name":"On or near Thurtle Road"},"longitude":"-0.071687"},"context":"","outcome_status":null,"persistent_id":"","id":74278264,"location_subtype":"","month":"2019-05"},{"category":"anti-social-behaviour","location_type":"Force","location":{"latitude":"51.533917","street":{"id":964261,"name":"On or near Thurtle Road"},"longitude":"-0.071687"},"context":"","outcome_status":null,"persistent_id":"","id":74278265,"location_subtype":"","month":"2019-05"},{"category":"anti-social-behaviour","location_type":"Force","location":{"latitude":"51.533917","street":{"id":964261,"name":"On or near Thurtle Road"},"longitude":"-0.071687"},"context":"","outcome_status":null,"persistent_id":"","id":74278266,"location_subtype":"","month":"2019-05"},{"category":"anti-social-behaviour","location_type":"Force","location":{"latitude":"51.533917","street":{"id":964261,"name":"On or near Thurtle Road"},"longitude":"-0.071687"},"context":"","outcome_status":null,"persistent_id":"","id":74278267,"location_subtype":"","month":"2019-05"},{"category":"anti-social-behaviour","location_type":"Force","location":{"latitude":"51.533917","street":{"id":964261,"name":"On or near Thurtle Road"},"longitude":"-0.071687"},"context":"","outcome_status":null,"persistent_id":"","id":74278268,"location_subtype":"","month":"2019-05"},{"category":"anti-social-behaviour","location_type":"Force","location":{"latitude":"51.533917","street":{"id":964261,"name":"On or near Thurtle Road"},"longitude":"-0.071687"},"context":"","outcome_status":null,"persistent_id":"","id":74278269,"location_subtype":"","month":"2019-05"},{"category":"anti-social-behaviour","location_type":"Force","location":{"latitude":"51.546798","street":{"id":968499,"name":"On or near Ramsgate Street"},"longitude":"-0.071373"},"context":"","outcome_status":null,"persistent_id":"","id":74278270,"location_subtype":"","month":"2019-05"},{"category":"anti-social-behaviour","location_type":"Force","location":{"latitude":"51.535342","street":{"id":964290,"name":"On or near Laburnum Street"},"longitude":"-0.073573"},"context":"","outcome_status":null,"persistent_id":"","id":74278271,"location_subtype":"","month":"2019-05"},{"category":"anti-social-behaviour","location_type":"Force","location":{"latitude":"51.537241","street":{"id":923837,"name":"On or near Haggerston Road"},"longitude":"-0.071994"},"context":"","outcome_status":null,"persistent_id":"","id":74278274,"location_subtype":"","month":"2019-05"},{"category":"anti-social-behaviour","location_type":"Force","location":{"latitude":"51.544239","street":{"id":968694,"name":"On or near Cumberland Close"},"longitude":"-0.072650"},"context":"","outcome_status":null,"persistent_id":"","id":74278282,"location_subtype":"","month":"2019-05"},{"category":"anti-social-behaviour","location_type":"Force","location":{"latitude":"51.541099","street":{"id":964215,"name":"On or near Mulberry Road"},"longitude":"-0.073691"},"context":"","outcome_status":null,"persistent_id":"","id":74278283,"location_subtype":"","month":"2019-05"},{"category":"anti-social-behaviour","location_type":"Force","location":{"latitude":"51.546403","street":{"id":968663,"name":"On or near Hartwell Street"},"longitude":"-0.073568"},"context":"","outcome_status":null,"persistent_id":"","id":74278286,"location_subtype":"","month":"2019-05"},{"category":"anti-social-behaviour","location_type":"Force","location":{"latitude":"51.537402","street":{"id":964315,"name":"On or near Clarissa Street"},"longitude":"-0.073587"},"context":"","outcome_status":null,"persistent_id":"","id":74278287,"location_subtype":"","month":"2019-05"},{"category":"anti-social-behaviour","location_type":"Force","location":{"latitude":"51.537402","street":{"id":964315,"name":"On or near Clarissa Street"},"longitude":"-0.073587"},"context":"","outcome_status":null,"persistent_id":"","id":74278288,"location_subtype":"","month":"2019-05"},{"category":"anti-social-behaviour","location_type":"Force","location":{"latitude":"51.537402","street":{"id":964315,"name":"On or near Clarissa Street"},"longitude":"-0.073587"},"context":"","outcome_status":null,"persistent_id":"","id":74278289,"location_subtype":"","month":"2019-05"},{"category":"anti-social-behaviour","location_type":"Force","location":{"latitude":"51.537402","street":{"id":964315,"name":"On or near Clarissa Street"},"longitude":"-0.073587"},"context":"","outcome_status":null,"persistent_id":"","id":74278290,"location_subtype":"","month":"2019-05"},{"category":"anti-social-behaviour","location_type":"Force","location":{"latitude":"51.534059","street":{"id":964229,"name":"On or near How's Street"},"longitude":"-0.074262"},"context":"","outcome_status":null,"persistent_id":"","id":74278292,"location_subtype":"","month":"2019-05"},{"category":"anti-social-behaviour","location_type":"Force","location":{"latitude":"51.534059","street":{"id":964229,"name":"On or near How's Street"},"longitude":"-0.074262"},"context":"","outcome_status":null,"persistent_id":"","id":74278293,"location_subtype":"","month":"2019-05"},{"category":"anti-social-behaviour","location_type":"Force","location":{"latitude":"51.535342","street":{"id":964290,"name":"On or near Laburnum Street"},"longitude":"-0.073573"},"context":"","outcome_status":null,"persistent_id":"","id":74278295,"location_subtype":"","month":"2019-05"},{"category":"anti-social-behaviour","location_type":"Force","location":{"latitude":"51.545118","street":{"id":968669,"name":"On or near Beechwood Road"},"longitude":"-0.073622"},"context":"","outcome_status":null,"persistent_id":"","id":74278301,"location_subtype":"","month":"2019-05"},{"category":"anti-social-behaviour","location_type":"Force","location":{"latitude":"51.550347","street":{"id":968651,"name":"On or near Alvington Crescent"},"longitude":"-0.073343"},"context":"","outcome_status":null,"persistent_id":"","id":74278304,"location_subtype":"","month":"2019-05"},{"category":"anti-social-behaviour","location_type":"Force","location":{"latitude":"51.545118","street":{"id":968669,"name":"On or near Beechwood Road"},"longitude":"-0.073622"},"context":"","outcome_status":null,"persistent_id":"","id":74278306,"location_subtype":"","month":"2019-05"},{"category":"anti-social-behaviour","location_type":"Force","location":{"latitude":"51.531930","street":{"id":964361,"name":"On or near Crabtree Close"},"longitude":"-0.074438"},"context":"","outcome_status":null,"persistent_id":"","id":74278307,"location_subtype":"","month":"2019-05"},{"category":"anti-social-behaviour","location_type":"Force","location":{"latitude":"51.531930","street":{"id":964361,"name":"On or near Crabtree Close"},"longitude":"-0.074438"},"context":"","outcome_status":null,"persistent_id":"","id":74278308,"location_subtype":"","month":"2019-05"},{"category":"anti-social-behaviour","location_type":"Force","location":{"latitude":"51.536363","street":{"id":964239,"name":"On or near Dunston Road"},"longitude":"-0.074410"},"context":"","outcome_status":null,"persistent_id":"","id":74279250,"location_subtype":"","month":"2019-05"},{"category":"anti-social-behaviour","location_type":"Force","location":{"latitude":"51.543622","street":{"id":964219,"name":"On or near Mayfield Close"},"longitude":"-0.073959"},"context":"","outcome_status":null,"persistent_id":"","id":74279261,"location_subtype":"","month":"2019-05"},{"category":"anti-social-behaviour","location_type":"Force","location":{"latitude":"51.535614","street":{"id":964227,"name":"On or near Jeger Avenue"},"longitude":"-0.074773"},"context":"","outcome_status":null,"persistent_id":"","id":74279268,"location_subtype":"","month":"2019-05"},{"category":"anti-social-behaviour","location_type":"Force","location":{"latitude":"51.535614","street":{"id":964227,"name":"On or near Jeger Avenue"},"longitude":"-0.074773"},"context":"","outcome_status":null,"persistent_id":"","id":74279269,"location_subtype":"","month":"2019-05"},{"category":"anti-social-behaviour","location_type":"Force","location":{"latitude":"51.541323","street":{"id":964195,"name":"On or near Freshfield Avenue"},"longitude":"-0.074691"},"context":"","outcome_status":null,"persistent_id":"","id":74279281,"location_subtype":"","month":"2019-05"},{"category":"anti-social-behaviour","location_type":"Force","location":{"latitude":"51.546830","street":{"id":968592,"name":"On or near Ashwin Street"},"longitude":"-0.074905"},"context":"","outcome_status":null,"persistent_id":"","id":74279283,"location_subtype":"","month":"2019-05"},{"category":"anti-social-behaviour","location_type":"Force","location":{"latitude":"51.546830","street":{"id":968592,"name":"On or near Ashwin Street"},"longitude":"-0.074905"},"context":"","outcome_status":null,"persistent_id":"","id":74279284,"location_subtype":"","month":"2019-05"},{"category":"anti-social-behaviour","location_type":"Force","location":{"latitude":"51.528321","street":{"id":961707,"name":"On or near Punderson's Gardens"},"longitude":"-0.057910"},"context":"","outcome_status":null,"persistent_id":"","id":74289845,"location_subtype":"","month":"2019-05"},{"category":"anti-social-behaviour","location_type":"Force","location":{"latitude":"51.528321","street":{"id":961707,"name":"On or near Punderson's Gardens"},"longitude":"-0.057910"},"context":"","outcome_status":null,"persistent_id":"","id":74289844,"location_subtype":"","month":"2019-05"},{"category":"anti-social-behaviour","location_type":"Force","location":{"latitude":"51.528321","street":{"id":961707,"name":"On or near Punderson's Gardens"},"longitude":"-0.057910"},"context":"","outcome_status":null,"persistent_id":"","id":74289842,"location_subtype":"","month":"2019-05"},{"category":"anti-social-behaviour","location_type":"Force","location":{"latitude":"51.532467","street":{"id":964193,"name":"On or near Nightclub"},"longitude":"-0.056825"},"context":"","outcome_status":null,"persistent_id":"","id":74289841,"location_subtype":"","month":"2019-05"},{"category":"anti-social-behaviour","location_type":"Force","location":{"latitude":"51.534680","street":{"id":964045,"name":"On or near Lark Row"},"longitude":"-0.054136"},"context":"","outcome_status":null,"persistent_id":"","id":74289764,"location_subtype":"","month":"2019-05"},{"category":"anti-social-behaviour","location_type":"Force","location":{"latitude":"51.528321","street":{"id":961707,"name":"On or near Punderson's Gardens"},"longitude":"-0.057910"},"context":"","outcome_status":null,"persistent_id":"","id":74289843,"location_subtype":"","month":"2019-05"},{"category":"anti-social-behaviour","location_type":"Force","location":{"latitude":"51.527643","street":{"id":961344,"name":"On or near Pollard Street"},"longitude":"-0.063086"},"context":"","outcome_status":null,"persistent_id":"","id":74289946,"location_subtype":"","month":"2019-05"},{"category":"anti-social-behaviour","location_type":"Force","location":{"latitude":"51.532467","street":{"id":964193,"name":"On or near Nightclub"},"longitude":"-0.056825"},"context":"","outcome_status":null,"persistent_id":"","id":74289840,"location_subtype":"","month":"2019-05"},{"category":"anti-social-behaviour","location_type":"Force","location":{"latitude":"51.532467","street":{"id":964193,"name":"On or near Nightclub"},"longitude":"-0.056825"},"context":"","outcome_status":null,"persistent_id":"","id":74289837,"location_subtype":"","month":"2019-05"},{"category":"anti-social-behaviour","location_type":"Force","location":{"latitude":"51.532467","street":{"id":964193,"name":"On or near Nightclub"},"longitude":"-0.056825"},"context":"","outcome_status":null,"persistent_id":"","id":74289836,"location_subtype":"","month":"2019-05"},{"category":"anti-social-behaviour","location_type":"Force","location":{"latitude":"51.530914","street":{"id":964186,"name":"On or near Cambridge Heath Road"},"longitude":"-0.056459"},"context":"","outcome_status":null,"persistent_id":"","id":74289821,"location_subtype":"","month":"2019-05"},{"category":"anti-social-behaviour","location_type":"Force","location":{"latitude":"51.534121","street":{"id":964017,"name":"On or near Wadeson Street"},"longitude":"-0.055702"},"context":"","outcome_status":null,"persistent_id":"","id":74289818,"location_subtype":"","month":"2019-05"},{"category":"anti-social-behaviour","location_type":"Force","location":{"latitude":"51.534121","street":{"id":964017,"name":"On or near Wadeson Street"},"longitude":"-0.055702"},"context":"","outcome_status":null,"persistent_id":"","id":74289816,"location_subtype":"","month":"2019-05"},{"category":"anti-social-behaviour","location_type":"Force","location":{"latitude":"51.532272","street":{"id":964190,"name":"On or near Parmiter Street"},"longitude":"-0.055363"},"context":"","outcome_status":null,"persistent_id":"","id":74289805,"location_subtype":"","month":"2019-05"},{"category":"anti-social-behaviour","location_type":"Force","location":{"latitude":"51.532272","street":{"id":964190,"name":"On or near Parmiter Street"},"longitude":"-0.055363"},"context":"","outcome_status":null,"persistent_id":"","id":74289802,"location_subtype":"","month":"2019-05"},{"category":"anti-social-behaviour","location_type":"Force","location":{"latitude":"51.532272","street":{"id":964190,"name":"On or near Parmiter Street"},"longitude":"-0.055363"},"context":"","outcome_status":null,"persistent_id":"","id":74289801,"location_subtype":"","month":"2019-05"},{"category":"anti-social-behaviour","location_type":"Force","location":{"latitude":"51.530671","street":{"id":964178,"name":"On or near Patriot Square"},"longitude":"-0.055345"},"context":"","outcome_status":null,"persistent_id":"","id":74289797,"location_subtype":"","month":"2019-05"},{"category":"anti-social-behaviour","location_type":"Force","location":{"latitude":"51.534686","street":{"id":964018,"name":"On or near Vyner Street"},"longitude":"-0.055073"},"context":"","outcome_status":null,"persistent_id":"","id":74289795,"location_subtype":"","month":"2019-05"},{"category":"anti-social-behaviour","location_type":"Force","location":{"latitude":"51.531930","street":{"id":964181,"name":"On or near Huddleston Close"},"longitude":"-0.054801"},"context":"","outcome_status":null,"persistent_id":"","id":74289787,"location_subtype":"","month":"2019-05"},{"category":"anti-social-behaviour","location_type":"Force","location":{"latitude":"51.527643","street":{"id":961344,"name":"On or near Pollard Street"},"longitude":"-0.063086"},"context":"","outcome_status":null,"persistent_id":"","id":74289945,"location_subtype":"","month":"2019-05"},{"category":"anti-social-behaviour","location_type":"Force","location":{"latitude":"51.527643","street":{"id":961344,"name":"On or near Pollard Street"},"longitude":"-0.063086"},"context":"","outcome_status":null,"persistent_id":"","id":74289944,"location_subtype":"","month":"2019-05"},{"category":"anti-social-behaviour","location_type":"Force","location":{"latitude":"51.550625","street":{"id":968786,"name":"On or near Hospital"},"longitude":"-0.046099"},"context":"","outcome_status":null,"persistent_id":"","id":74276060,"location_subtype":"","month":"2019-05"},{"category":"anti-social-behaviour","location_type":"Force","location":{"latitude":"51.534457","street":{"id":964313,"name":"On or near Darwen Place"},"longitude":"-0.061355"},"context":"","outcome_status":null,"persistent_id":"","id":74289939,"location_subtype":"","month":"2019-05"},{"category":"anti-social-behaviour","location_type":"Force","location":{"latitude":"51.531853","street":{"id":964177,"name":"On or near Russia Lane"},"longitude":"-0.053391"},"context":"","outcome_status":null,"persistent_id":"","id":74289772,"location_subtype":"","month":"2019-05"},{"category":"anti-social-behaviour","location_type":"Force","location":{"latitude":"51.528634","street":{"id":961696,"name":"On or near Victoria Park Square"},"longitude":"-0.053961"},"context":"","outcome_status":null,"persistent_id":"","id":74289769,"location_subtype":"","month":"2019-05"},{"category":"anti-social-behaviour","location_type":"Force","location":{"latitude":"51.528117","street":{"id":961747,"name":"On or near Police Station"},"longitude":"-0.053709"},"context":"","outcome_status":null,"persistent_id":"","id":74289766,"location_subtype":"","month":"2019-05"},{"category":"anti-social-behaviour","location_type":"Force","location":{"latitude":"51.534680","street":{"id":964045,"name":"On or near Lark Row"},"longitude":"-0.054136"},"context":"","outcome_status":null,"persistent_id":"","id":74289765,"location_subtype":"","month":"2019-05"},{"category":"anti-social-behaviour","location_type":"Force","location":{"latitude":"51.528117","street":{"id":961747,"name":"On or near Police Station"},"longitude":"-0.053709"},"context":"","outcome_status":null,"persistent_id":"","id":74289767,"location_subtype":"","month":"2019-05"},{"category":"anti-social-behaviour","location_type":"Force","location":{"latitude":"51.529562","street":{"id":961612,"name":"On or near Moravian Street"},"longitude":"-0.051889"},"context":"","outcome_status":null,"persistent_id":"","id":74289754,"location_subtype":"","month":"2019-05"},{"category":"anti-social-behaviour","location_type":"Force","location":{"latitude":"51.529562","street":{"id":961612,"name":"On or near Moravian Street"},"longitude":"-0.051889"},"context":"","outcome_status":null,"persistent_id":"","id":74289513,"location_subtype":"","month":"2019-05"},{"category":"anti-social-behaviour","location_type":"Force","location":{"latitude":"51.528492","street":{"id":961637,"name":"On or near Globe Terrace"},"longitude":"-0.051401"},"context":"","outcome_status":null,"persistent_id":"","id":74289509,"location_subtype":"","month":"2019-05"},{"category":"anti-social-behaviour","location_type":"Force","location":{"latitude":"51.548461","street":{"id":968800,"name":"On or near Gould Terrace"},"longitude":"-0.055495"},"context":"","outcome_status":null,"persistent_id":"","id":74277243,"location_subtype":"","month":"2019-05"},{"category":"anti-social-behaviour","location_type":"Force","location":{"latitude":"51.527965","street":{"id":961640,"name":"On or near Globe Road"},"longitude":"-0.051049"},"context":"","outcome_status":null,"persistent_id":"","id":74289498,"location_subtype":"","month":"2019-05"},{"category":"anti-social-behaviour","location_type":"Force","location":{"latitude":"51.528732","street":{"id":961627,"name":"On or near Kirkwall Place"},"longitude":"-0.050699"},"context":"","outcome_status":null,"persistent_id":"","id":74289467,"location_subtype":"","month":"2019-05"},{"category":"anti-social-behaviour","location_type":"Force","location":{"latitude":"51.528732","street":{"id":961627,"name":"On or near Kirkwall Place"},"longitude":"-0.050699"},"context":"","outcome_status":null,"persistent_id":"","id":74289466,"location_subtype":"","month":"2019-05"},{"category":"anti-social-behaviour","location_type":"Force","location":{"latitude":"51.529641","street":{"id":961665,"name":"On or near Brierly Gardens"},"longitude":"-0.050184"},"context":"","outcome_status":null,"persistent_id":"","id":74289459,"location_subtype":"","month":"2019-05"},{"category":"anti-social-behaviour","location_type":"Force","location":{"latitude":"51.550764","street":{"id":968837,"name":"On or near Clarence Mews"},"longitude":"-0.055036"},"context":"","outcome_status":null,"persistent_id":"","id":74277255,"location_subtype":"","month":"2019-05"},{"category":"anti-social-behaviour","location_type":"Force","location":{"latitude":"51.529884","street":{"id":961316,"name":"On or near Teesdale Street"},"longitude":"-0.061592"},"context":"","outcome_status":null,"persistent_id":"","id":74289932,"location_subtype":"","month":"2019-05"},{"category":"anti-social-behaviour","location_type":"Force","location":{"latitude":"51.526567","street":{"id":961697,"name":"On or near Viaduct Street"},"longitude":"-0.060565"},"context":"","outcome_status":null,"persistent_id":"","id":74289917,"location_subtype":"","month":"2019-05"},{"category":"anti-social-behaviour","location_type":"Force","location":{"latitude":"51.529641","street":{"id":961665,"name":"On or near Brierly Gardens"},"longitude":"-0.050184"},"context":"","outcome_status":null,"persistent_id":"","id":74289458,"location_subtype":"","month":"2019-05"},{"category":"anti-social-behaviour","location_type":"Force","location":{"latitude":"51.532184","street":{"id":964173,"name":"On or near Hospital"},"longitude":"-0.049499"},"context":"","outcome_status":null,"persistent_id":"","id":74289457,"location_subtype":"","month":"2019-05"},{"category":"anti-social-behaviour","location_type":"Force","location":{"latitude":"51.527525","street":{"id":961650,"name":"On or near Digby Street"},"longitude":"-0.050000"},"context":"","outcome_status":null,"persistent_id":"","id":74289453,"location_subtype":"","month":"2019-05"},{"category":"anti-social-behaviour","location_type":"Force","location":{"latitude":"51.528118","street":{"id":961674,"name":"On or near Bacton Street"},"longitude":"-0.049442"},"context":"","outcome_status":null,"persistent_id":"","id":74289439,"location_subtype":"","month":"2019-05"},{"category":"anti-social-behaviour","location_type":"Force","location":{"latitude":"51.528239","street":{"id":961662,"name":"On or near Butler Street"},"longitude":"-0.048615"},"context":"","outcome_status":null,"persistent_id":"","id":74289436,"location_subtype":"","month":"2019-05"},{"category":"anti-social-behaviour","location_type":"Force","location":{"latitude":"51.531056","street":{"id":964166,"name":"On or near B118"},"longitude":"-0.047658"},"context":"","outcome_status":null,"persistent_id":"","id":74289429,"location_subtype":"","month":"2019-05"},{"category":"anti-social-behaviour","location_type":"Force","location":{"latitude":"51.530585","street":{"id":964161,"name":"On or near Mace Street"},"longitude":"-0.045847"},"context":"","outcome_status":null,"persistent_id":"","id":74289423,"location_subtype":"","month":"2019-05"},{"category":"anti-social-behaviour","location_type":"Force","location":{"latitude":"51.528806","street":{"id":961591,"name":"On or near Usk Street"},"longitude":"-0.046500"},"context":"","outcome_status":null,"persistent_id":"","id":74289419,"location_subtype":"","month":"2019-05"},{"category":"anti-social-behaviour","location_type":"Force","location":{"latitude":"51.528806","street":{"id":961591,"name":"On or near Usk Street"},"longitude":"-0.046500"},"context":"","outcome_status":null,"persistent_id":"","id":74289417,"location_subtype":"","month":"2019-05"},{"category":"anti-social-behaviour","location_type":"Force","location":{"latitude":"51.528806","street":{"id":961591,"name":"On or near Usk Street"},"longitude":"-0.046500"},"context":"","outcome_status":null,"persistent_id":"","id":74289413,"location_subtype":"","month":"2019-05"},{"category":"anti-social-behaviour","location_type":"Force","location":{"latitude":"51.528806","street":{"id":961591,"name":"On or near Usk Street"},"longitude":"-0.046500"},"context":"","outcome_status":null,"persistent_id":"","id":74289410,"location_subtype":"","month":"2019-05"},{"category":"anti-social-behaviour","location_type":"Force","location":{"latitude":"51.528806","street":{"id":961591,"name":"On or near Usk Street"},"longitude":"-0.046500"},"context":"","outcome_status":null,"persistent_id":"","id":74289409,"location_subtype":"","month":"2019-05"},{"category":"anti-social-behaviour","location_type":"Force","location":{"latitude":"51.530585","street":{"id":964161,"name":"On or near Mace Street"},"longitude":"-0.045847"},"context":"","outcome_status":null,"persistent_id":"","id":74289408,"location_subtype":"","month":"2019-05"},{"category":"anti-social-behaviour","location_type":"Force","location":{"latitude":"51.529143","street":{"id":961596,"name":"On or near Smart Street"},"longitude":"-0.045102"},"context":"","outcome_status":null,"persistent_id":"","id":74289397,"location_subtype":"","month":"2019-05"},{"category":"anti-social-behaviour","location_type":"Force","location":{"latitude":"51.531295","street":{"id":964156,"name":"On or near Type Street"},"longitude":"-0.045283"},"context":"","outcome_status":null,"persistent_id":"","id":74289395,"location_subtype":"","month":"2019-05"},{"category":"anti-social-behaviour","location_type":"Force","location":{"latitude":"51.532129","street":{"id":964170,"name":"On or near Shopping Area"},"longitude":"-0.041874"},"context":"","outcome_status":null,"persistent_id":"","id":74289359,"location_subtype":"","month":"2019-05"},{"category":"anti-social-behaviour","location_type":"Force","location":{"latitude":"51.526567","street":{"id":961697,"name":"On or near Viaduct Street"},"longitude":"-0.060565"},"context":"","outcome_status":null,"persistent_id":"","id":74289916,"location_subtype":"","month":"2019-05"},{"category":"anti-social-behaviour","location_type":"Force","location":{"latitude":"51.532591","street":{"id":964191,"name":"On or near Emma Street"},"longitude":"-0.060497"},"context":"","outcome_status":null,"persistent_id":"","id":74289915,"location_subtype":"","month":"2019-05"},{"category":"anti-social-behaviour","location_type":"Force","location":{"latitude":"51.528803","street":{"id":961734,"name":"On or near Canrobert Street"},"longitude":"-0.060384"},"context":"","outcome_status":null,"persistent_id":"","id":74289909,"location_subtype":"","month":"2019-05"},{"category":"anti-social-behaviour","location_type":"Force","location":{"latitude":"51.529810","street":{"id":961608,"name":"On or near Palmers Road"},"longitude":"-0.042521"},"context":"","outcome_status":null,"persistent_id":"","id":74289345,"location_subtype":"","month":"2019-05"},{"category":"anti-social-behaviour","location_type":"Force","location":{"latitude":"51.530320","street":{"id":961395,"name":"On or near Cadell Close"},"longitude":"-0.070585"},"context":"","outcome_status":null,"persistent_id":"","id":74274947,"location_subtype":"","month":"2019-05"},{"category":"anti-social-behaviour","location_type":"Force","location":{"latitude":"51.530320","street":{"id":961395,"name":"On or near Cadell Close"},"longitude":"-0.070585"},"context":"","outcome_status":null,"persistent_id":"","id":74274946,"location_subtype":"","month":"2019-05"},{"category":"anti-social-behaviour","location_type":"Force","location":{"latitude":"51.530320","street":{"id":961395,"name":"On or near Cadell Close"},"longitude":"-0.070585"},"context":"","outcome_status":null,"persistent_id":"","id":74274945,"location_subtype":"","month":"2019-05"},{"category":"anti-social-behaviour","location_type":"Force","location":{"latitude":"51.530320","street":{"id":961395,"name":"On or near Cadell Close"},"longitude":"-0.070585"},"context":"","outcome_status":null,"persistent_id":"","id":74274944,"location_subtype":"","month":"2019-05"},{"category":"anti-social-behaviour","location_type":"Force","location":{"latitude":"51.530053","street":{"id":961326,"name":"On or near Shipton Street"},"longitude":"-0.069673"},"context":"","outcome_status":null,"persistent_id":"","id":74274905,"location_subtype":"","month":"2019-05"},{"category":"anti-social-behaviour","location_type":"Force","location":{"latitude":"51.527019","street":{"id":961741,"name":"On or near Bethnal Green Road"},"longitude":"-0.059609"},"context":"","outcome_status":null,"persistent_id":"","id":74289898,"location_subtype":"","month":"2019-05"},{"category":"anti-social-behaviour","location_type":"Force","location":{"latitude":"51.546485","street":{"id":968799,"name":"On or near Graham Road"},"longitude":"-0.059444"},"context":"","outcome_status":null,"persistent_id":"","id":74277313,"location_subtype":"","month":"2019-05"},{"category":"anti-social-behaviour","location_type":"Force","location":{"latitude":"51.530340","street":{"id":961360,"name":"On or near Horatio Street"},"longitude":"-0.069603"},"context":"","outcome_status":null,"persistent_id":"","id":74274904,"location_subtype":"","month":"2019-05"},{"category":"anti-social-behaviour","location_type":"Force","location":{"latitude":"51.529159","street":{"id":961377,"name":"On or near Elwin Street"},"longitude":"-0.068889"},"context":"","outcome_status":null,"persistent_id":"","id":74274899,"location_subtype":"","month":"2019-05"},{"category":"anti-social-behaviour","location_type":"Force","location":{"latitude":"51.530711","street":{"id":961335,"name":"On or near Ropley Street"},"longitude":"-0.068117"},"context":"","outcome_status":null,"persistent_id":"","id":74274251,"location_subtype":"","month":"2019-05"},{"category":"anti-social-behaviour","location_type":"Force","location":{"latitude":"51.530711","street":{"id":961335,"name":"On or near Ropley Street"},"longitude":"-0.068117"},"context":"","outcome_status":null,"persistent_id":"","id":74274250,"location_subtype":"","month":"2019-05"},{"category":"anti-social-behaviour","location_type":"Force","location":{"latitude":"51.531054","street":{"id":964338,"name":"On or near Ion Square"},"longitude":"-0.066574"},"context":"","outcome_status":null,"persistent_id":"","id":74274174,"location_subtype":"","month":"2019-05"},{"category":"anti-social-behaviour","location_type":"Force","location":{"latitude":"51.532565","street":{"id":964352,"name":"On or near Kay Street"},"longitude":"-0.064924"},"context":"","outcome_status":null,"persistent_id":"","id":74274164,"location_subtype":"","month":"2019-05"},{"category":"anti-social-behaviour","location_type":"Force","location":{"latitude":"51.532565","street":{"id":964352,"name":"On or near Kay Street"},"longitude":"-0.064924"},"context":"","outcome_status":null,"persistent_id":"","id":74274163,"location_subtype":"","month":"2019-05"},{"category":"anti-social-behaviour","location_type":"Force","location":{"latitude":"51.527792","street":{"id":961358,"name":"On or near Ivimey Street"},"longitude":"-0.064478"},"context":"","outcome_status":null,"persistent_id":"","id":74274157,"location_subtype":"","month":"2019-05"},{"category":"anti-social-behaviour","location_type":"Force","location":{"latitude":"51.531756","street":{"id":964341,"name":"On or near Garner Street"},"longitude":"-0.063834"},"context":"","outcome_status":null,"persistent_id":"","id":74274143,"location_subtype":"","month":"2019-05"},{"category":"anti-social-behaviour","location_type":"Force","location":{"latitude":"51.531756","street":{"id":964341,"name":"On or near Garner Street"},"longitude":"-0.063834"},"context":"","outcome_status":null,"persistent_id":"","id":74274142,"location_subtype":"","month":"2019-05"},{"category":"anti-social-behaviour","location_type":"Force","location":{"latitude":"51.527792","street":{"id":961358,"name":"On or near Ivimey Street"},"longitude":"-0.064478"},"context":"","outcome_status":null,"persistent_id":"","id":74274141,"location_subtype":"","month":"2019-05"},{"category":"anti-social-behaviour","location_type":"Force","location":{"latitude":"51.544083","street":{"id":968690,"name":"On or near Forest Road"},"longitude":"-0.063729"},"context":"","outcome_status":null,"persistent_id":"","id":74277349,"location_subtype":"","month":"2019-05"},{"category":"anti-social-behaviour","location_type":"Force","location":{"latitude":"51.531756","street":{"id":964341,"name":"On or near Garner Street"},"longitude":"-0.063834"},"context":"","outcome_status":null,"persistent_id":"","id":74274139,"location_subtype":"","month":"2019-05"},{"category":"anti-social-behaviour","location_type":"Force","location":{"latitude":"51.533037","street":{"id":964349,"name":"On or near Teale Street"},"longitude":"-0.063578"},"context":"","outcome_status":null,"persistent_id":"","id":74274120,"location_subtype":"","month":"2019-05"},{"category":"anti-social-behaviour","location_type":"Force","location":{"latitude":"51.533037","street":{"id":964349,"name":"On or near Teale Street"},"longitude":"-0.063578"},"context":"","outcome_status":null,"persistent_id":"","id":74274104,"location_subtype":"","month":"2019-05"},{"category":"anti-social-behaviour","location_type":"Force","location":{"latitude":"51.532139","street":{"id":964345,"name":"On or near Coate Street"},"longitude":"-0.063111"},"context":"","outcome_status":null,"persistent_id":"","id":74274093,"location_subtype":"","month":"2019-05"},{"category":"anti-social-behaviour","location_type":"Force","location":{"latitude":"51.532139","street":{"id":964345,"name":"On or near Coate Street"},"longitude":"-0.063111"},"context":"","outcome_status":null,"persistent_id":"","id":74274087,"location_subtype":"","month":"2019-05"},{"category":"anti-social-behaviour","location_type":"Force","location":{"latitude":"51.532139","street":{"id":964345,"name":"On or near Coate Street"},"longitude":"-0.063111"},"context":"","outcome_status":null,"persistent_id":"","id":74274086,"location_subtype":"","month":"2019-05"},{"category":"anti-social-behaviour","location_type":"Force","location":{"latitude":"51.528492","street":{"id":961637,"name":"On or near Globe Terrace"},"longitude":"-0.051401"},"context":"","outcome_status":null,"persistent_id":"","id":74289510,"location_subtype":"","month":"2019-05"},{"category":"anti-social-behaviour","location_type":"Force","location":{"latitude":"51.538813","street":{"id":964264,"name":"On or near Shrubland Road"},"longitude":"-0.066447"},"context":"","outcome_status":null,"persistent_id":"","id":74278153,"location_subtype":"","month":"2019-05"},{"category":"anti-social-behaviour","location_type":"Force","location":{"latitude":"51.532184","street":{"id":964173,"name":"On or near Hospital"},"longitude":"-0.049499"},"context":"","outcome_status":null,"persistent_id":"","id":74289456,"location_subtype":"","month":"2019-05"},{"category":"anti-social-behaviour","location_type":"Force","location":{"latitude":"51.529196","street":{"id":961733,"name":"On or near Clarkson Street"},"longitude":"-0.059113"},"context":"","outcome_status":null,"persistent_id":"","id":74289889,"location_subtype":"","month":"2019-05"},{"category":"anti-social-behaviour","location_type":"Force","location":{"latitude":"51.534121","street":{"id":964017,"name":"On or near Wadeson Street"},"longitude":"-0.055702"},"context":"","outcome_status":null,"persistent_id":"","id":74289817,"location_subtype":"","month":"2019-05"},{"category":"anti-social-behaviour","location_type":"Force","location":{"latitude":"51.528067","street":{"id":961626,"name":"On or near Knottisford Street"},"longitude":"-0.048550"},"context":"","outcome_status":null,"persistent_id":"","id":74289434,"location_subtype":"","month":"2019-05"},{"category":"anti-social-behaviour","location_type":"Force","location":{"latitude":"51.530671","street":{"id":964178,"name":"On or near Patriot Square"},"longitude":"-0.055345"},"context":"","outcome_status":null,"persistent_id":"","id":74289796,"location_subtype":"","month":"2019-05"},{"category":"anti-social-behaviour","location_type":"Force","location":{"latitude":"51.526815","street":{"id":961743,"name":"On or near Ainsley Street"},"longitude":"-0.058191"},"context":"","outcome_status":null,"persistent_id":"","id":74289872,"location_subtype":"","month":"2019-05"},{"category":"anti-social-behaviour","location_type":"Force","location":{"latitude":"51.526815","street":{"id":961743,"name":"On or near Ainsley Street"},"longitude":"-0.058191"},"context":"","outcome_status":null,"persistent_id":"","id":74289868,"location_subtype":"","month":"2019-05"},{"category":"anti-social-behaviour","location_type":"Force","location":{"latitude":"51.532185","street":{"id":964167,"name":"On or near St James's Avenue"},"longitude":"-0.048489"},"context":"","outcome_status":null,"persistent_id":"","id":74289433,"location_subtype":"","month":"2019-05"},{"category":"anti-social-behaviour","location_type":"Force","location":{"latitude":"51.547031","street":{"id":968721,"name":"On or near Barnabas Road"},"longitude":"-0.041998"},"context":"","outcome_status":null,"persistent_id":"","id":74276024,"location_subtype":"","month":"2019-05"},{"category":"anti-social-behaviour","location_type":"Force","location":{"latitude":"51.533917","street":{"id":964261,"name":"On or near Thurtle Road"},"longitude":"-0.071687"},"context":"","outcome_status":null,"persistent_id":"","id":74278262,"location_subtype":"","month":"2019-05"},{"category":"anti-social-behaviour","location_type":"Force","location":{"latitude":"51.531900","street":{"id":964187,"name":"On or near Cambridge Crescent"},"longitude":"-0.058955"},"context":"","outcome_status":null,"persistent_id":"","id":74289888,"location_subtype":"","month":"2019-05"},{"category":"anti-social-behaviour","location_type":"Force","location":{"latitude":"51.526815","street":{"id":961743,"name":"On or near Ainsley Street"},"longitude":"-0.058191"},"context":"","outcome_status":null,"persistent_id":"","id":74289867,"location_subtype":"","month":"2019-05"},{"category":"anti-social-behaviour","location_type":"Force","location":{"latitude":"51.529810","street":{"id":961608,"name":"On or near Palmers Road"},"longitude":"-0.042521"},"context":"","outcome_status":null,"persistent_id":"","id":74289360,"location_subtype":"","month":"2019-05"},{"category":"anti-social-behaviour","location_type":"Force","location":{"latitude":"51.528321","street":{"id":961707,"name":"On or near Punderson's Gardens"},"longitude":"-0.057910"},"context":"","outcome_status":null,"persistent_id":"","id":74289864,"location_subtype":"","month":"2019-05"},{"category":"anti-social-behaviour","location_type":"Force","location":{"latitude":"51.526876","street":{"id":961709,"name":"On or near Pott Street"},"longitude":"-0.057496"},"context":"","outcome_status":null,"persistent_id":"","id":74289853,"location_subtype":"","month":"2019-05"},{"category":"anti-social-behaviour","location_type":"Force","location":{"latitude":"51.528806","street":{"id":961591,"name":"On or near Usk Street"},"longitude":"-0.046500"},"context":"","outcome_status":null,"persistent_id":"","id":74289411,"location_subtype":"","month":"2019-05"},{"category":"anti-social-behaviour","location_type":"Force","location":{"latitude":"51.550790","street":{"id":968546,"name":"On or near Ferncliff Road"},"longitude":"-0.066387"},"context":"","outcome_status":null,"persistent_id":"","id":74278172,"location_subtype":"","month":"2019-05"},{"category":"anti-social-behaviour","location_type":"Force","location":{"latitude":"51.553176","street":{"id":968562,"name":"On or near Amhurst Road"},"longitude":"-0.067093"},"context":"","outcome_status":null,"persistent_id":"","id":74278187,"location_subtype":"","month":"2019-05"},{"category":"anti-social-behaviour","location_type":"Force","location":{"latitude":"51.548946","street":{"id":968937,"name":"On or near Homerton High Street"},"longitude":"-0.039277"},"context":"","outcome_status":null,"persistent_id":"","id":74275070,"location_subtype":"","month":"2019-05"},{"category":"anti-social-behaviour","location_type":"Force","location":{"latitude":"51.545118","street":{"id":968669,"name":"On or near Beechwood Road"},"longitude":"-0.073622"},"context":"","outcome_status":null,"persistent_id":"","id":74278305,"location_subtype":"","month":"2019-05"},{"category":"anti-social-behaviour","location_type":"Force","location":{"latitude":"51.532139","street":{"id":964345,"name":"On or near Coate Street"},"longitude":"-0.063111"},"context":"","outcome_status":null,"persistent_id":"","id":74274090,"location_subtype":"","month":"2019-05"},{"category":"anti-social-behaviour","location_type":"Force","location":{"latitude":"51.533037","street":{"id":964349,"name":"On or near Teale Street"},"longitude":"-0.063578"},"context":"","outcome_status":null,"persistent_id":"","id":74274114,"location_subtype":"","month":"2019-05"},{"category":"anti-social-behaviour","location_type":"Force","location":{"latitude":"51.544424","street":{"id":968875,"name":"On or near Hartlake Road"},"longitude":"-0.039904"},"context":"","outcome_status":null,"persistent_id":"","id":74275069,"location_subtype":"","month":"2019-05"},{"category":"anti-social-behaviour","location_type":"Force","location":{"latitude":"51.531756","street":{"id":964341,"name":"On or near Garner Street"},"longitude":"-0.063834"},"context":"","outcome_status":null,"persistent_id":"","id":74274144,"location_subtype":"","month":"2019-05"},{"category":"anti-social-behaviour","location_type":"Force","location":{"latitude":"51.539439","street":{"id":964205,"name":"On or near Watercress Place"},"longitude":"-0.078837"},"context":"","outcome_status":null,"persistent_id":"","id":74279383,"location_subtype":"","month":"2019-05"},{"category":"anti-social-behaviour","location_type":"Force","location":{"latitude":"51.539439","street":{"id":964205,"name":"On or near Watercress Place"},"longitude":"-0.078837"},"context":"","outcome_status":null,"persistent_id":"","id":74279371,"location_subtype":"","month":"2019-05"},{"category":"anti-social-behaviour","location_type":"Force","location":{"latitude":"51.539439","street":{"id":964205,"name":"On or near Watercress Place"},"longitude":"-0.078837"},"context":"","outcome_status":null,"persistent_id":"","id":74279370,"location_subtype":"","month":"2019-05"},{"category":"anti-social-behaviour","location_type":"Force","location":{"latitude":"51.535996","street":{"id":964217,"name":"On or near Mill Row"},"longitude":"-0.078347"},"context":"","outcome_status":null,"persistent_id":"","id":74279362,"location_subtype":"","month":"2019-05"},{"category":"anti-social-behaviour","location_type":"Force","location":{"latitude":"51.540546","street":{"id":964231,"name":"On or near Hertford Road"},"longitude":"-0.078329"},"context":"","outcome_status":null,"persistent_id":"","id":74279361,"location_subtype":"","month":"2019-05"},{"category":"anti-social-behaviour","location_type":"Force","location":{"latitude":"51.530711","street":{"id":961335,"name":"On or near Ropley Street"},"longitude":"-0.068117"},"context":"","outcome_status":null,"persistent_id":"","id":74274249,"location_subtype":"","month":"2019-05"},{"category":"anti-social-behaviour","location_type":"Force","location":{"latitude":"51.526876","street":{"id":961709,"name":"On or near Pott Street"},"longitude":"-0.057496"},"context":"","outcome_status":null,"persistent_id":"","id":74289852,"location_subtype":"","month":"2019-05"},{"category":"anti-social-behaviour","location_type":"Force","location":{"latitude":"51.530711","street":{"id":961335,"name":"On or near Ropley Street"},"longitude":"-0.068117"},"context":"","outcome_status":null,"persistent_id":"","id":74274252,"location_subtype":"","month":"2019-05"},{"category":"anti-social-behaviour","location_type":"Force","location":{"latitude":"51.545648","street":{"id":968656,"name":"On or near Parking Area"},"longitude":"-0.077970"},"context":"","outcome_status":null,"persistent_id":"","id":74279360,"location_subtype":"","month":"2019-05"},{"category":"anti-social-behaviour","location_type":"Force","location":{"latitude":"51.526876","street":{"id":961709,"name":"On or near Pott Street"},"longitude":"-0.057496"},"context":"","outcome_status":null,"persistent_id":"","id":74289851,"location_subtype":"","month":"2019-05"},{"category":"anti-social-behaviour","location_type":"Force","location":{"latitude":"51.545648","street":{"id":968656,"name":"On or near Parking Area"},"longitude":"-0.077970"},"context":"","outcome_status":null,"persistent_id":"","id":74279351,"location_subtype":"","month":"2019-05"},{"category":"anti-social-behaviour","location_type":"Force","location":{"latitude":"51.545648","street":{"id":968656,"name":"On or near Parking Area"},"longitude":"-0.077970"},"context":"","outcome_status":null,"persistent_id":"","id":74279350,"location_subtype":"","month":"2019-05"},{"category":"anti-social-behaviour","location_type":"Force","location":{"latitude":"51.526876","street":{"id":961709,"name":"On or near Pott Street"},"longitude":"-0.057496"},"context":"","outcome_status":null,"persistent_id":"","id":74289850,"location_subtype":"","month":"2019-05"},{"category":"anti-social-behaviour","location_type":"Force","location":{"latitude":"51.549059","street":{"id":968571,"name":"On or near Parking Area"},"longitude":"-0.076499"},"context":"","outcome_status":null,"persistent_id":"","id":74279341,"location_subtype":"","month":"2019-05"},{"category":"anti-social-behaviour","location_type":"Force","location":{"latitude":"51.548440","street":{"id":968588,"name":"On or near Bradbury Street"},"longitude":"-0.076020"},"context":"","outcome_status":null,"persistent_id":"","id":74279336,"location_subtype":"","month":"2019-05"},{"category":"anti-social-behaviour","location_type":"Force","location":{"latitude":"51.548440","street":{"id":968588,"name":"On or near Bradbury Street"},"longitude":"-0.076020"},"context":"","outcome_status":null,"persistent_id":"","id":74279335,"location_subtype":"","month":"2019-05"},{"category":"anti-social-behaviour","location_type":"Force","location":{"latitude":"51.548440","street":{"id":968588,"name":"On or near Bradbury Street"},"longitude":"-0.076020"},"context":"","outcome_status":null,"persistent_id":"","id":74279334,"location_subtype":"","month":"2019-05"},{"category":"anti-social-behaviour","location_type":"Force","location":{"latitude":"51.548440","street":{"id":968588,"name":"On or near Bradbury Street"},"longitude":"-0.076020"},"context":"","outcome_status":null,"persistent_id":"","id":74279333,"location_subtype":"","month":"2019-05"},{"category":"anti-social-behaviour","location_type":"Force","location":{"latitude":"51.537512","street":{"id":964249,"name":"On or near Acton Mews"},"longitude":"-0.075948"},"context":"","outcome_status":null,"persistent_id":"","id":74279332,"location_subtype":"","month":"2019-05"},{"category":"anti-social-behaviour","location_type":"Force","location":{"latitude":"51.535996","street":{"id":964217,"name":"On or near Mill Row"},"longitude":"-0.078347"},"context":"","outcome_status":null,"persistent_id":"","id":74279331,"location_subtype":"","month":"2019-05"},{"category":"anti-social-behaviour","location_type":"Force","location":{"latitude":"51.526876","street":{"id":961709,"name":"On or near Pott Street"},"longitude":"-0.057496"},"context":"","outcome_status":null,"persistent_id":"","id":74289849,"location_subtype":"","month":"2019-05"},{"category":"anti-social-behaviour","location_type":"Force","location":{"latitude":"51.542849","street":{"id":964210,"name":"On or near Richmond Road"},"longitude":"-0.075073"},"context":"","outcome_status":null,"persistent_id":"","id":74279330,"location_subtype":"","month":"2019-05"},{"category":"anti-social-behaviour","location_type":"Force","location":{"latitude":"51.542849","street":{"id":964210,"name":"On or near Richmond Road"},"longitude":"-0.075073"},"context":"","outcome_status":null,"persistent_id":"","id":74279329,"location_subtype":"","month":"2019-05"},{"category":"anti-social-behaviour","location_type":"Force","location":{"latitude":"51.542849","street":{"id":964210,"name":"On or near Richmond Road"},"longitude":"-0.075073"},"context":"","outcome_status":null,"persistent_id":"","id":74279328,"location_subtype":"","month":"2019-05"},{"category":"anti-social-behaviour","location_type":"Force","location":{"latitude":"51.542849","street":{"id":964210,"name":"On or near Richmond Road"},"longitude":"-0.075073"},"context":"","outcome_status":null,"persistent_id":"","id":74279327,"location_subtype":"","month":"2019-05"},{"category":"anti-social-behaviour","location_type":"Force","location":{"latitude":"51.526876","street":{"id":961709,"name":"On or near Pott Street"},"longitude":"-0.057496"},"context":"","outcome_status":null,"persistent_id":"","id":74289848,"location_subtype":"","month":"2019-05"},{"category":"anti-social-behaviour","location_type":"Force","location":{"latitude":"51.542849","street":{"id":964210,"name":"On or near Richmond Road"},"longitude":"-0.075073"},"context":"","outcome_status":null,"persistent_id":"","id":74279326,"location_subtype":"","month":"2019-05"},{"category":"anti-social-behaviour","location_type":"Force","location":{"latitude":"51.548898","street":{"id":968584,"name":"On or near Gillett Street"},"longitude":"-0.076001"},"context":"","outcome_status":null,"persistent_id":"","id":74279324,"location_subtype":"","month":"2019-05"},{"category":"anti-social-behaviour","location_type":"Force","location":{"latitude":"51.548440","street":{"id":968588,"name":"On or near Bradbury Street"},"longitude":"-0.076020"},"context":"","outcome_status":null,"persistent_id":"","id":74279323,"location_subtype":"","month":"2019-05"},{"category":"anti-social-behaviour","location_type":"Force","location":{"latitude":"51.548440","street":{"id":968588,"name":"On or near Bradbury Street"},"longitude":"-0.076020"},"context":"","outcome_status":null,"persistent_id":"","id":74279322,"location_subtype":"","month":"2019-05"},{"category":"anti-social-behaviour","location_type":"Force","location":{"latitude":"51.530340","street":{"id":961360,"name":"On or near Horatio Street"},"longitude":"-0.069603"},"context":"","outcome_status":null,"persistent_id":"","id":74274902,"location_subtype":"","month":"2019-05"},{"category":"anti-social-behaviour","location_type":"Force","location":{"latitude":"51.549095","street":{"id":968585,"name":"On or near Gillett Place"},"longitude":"-0.075978"},"context":"","outcome_status":null,"persistent_id":"","id":74279317,"location_subtype":"","month":"2019-05"},{"category":"anti-social-behaviour","location_type":"Force","location":{"latitude":"51.549095","street":{"id":968585,"name":"On or near Gillett Place"},"longitude":"-0.075978"},"context":"","outcome_status":null,"persistent_id":"","id":74279316,"location_subtype":"","month":"2019-05"},{"category":"anti-social-behaviour","location_type":"Force","location":{"latitude":"51.530340","street":{"id":961360,"name":"On or near Horatio Street"},"longitude":"-0.069603"},"context":"","outcome_status":null,"persistent_id":"","id":74274903,"location_subtype":"","month":"2019-05"},{"category":"anti-social-behaviour","location_type":"Force","location":{"latitude":"51.526876","street":{"id":961709,"name":"On or near Pott Street"},"longitude":"-0.057496"},"context":"","outcome_status":null,"persistent_id":"","id":74289847,"location_subtype":"","month":"2019-05"},{"category":"anti-social-behaviour","location_type":"Force","location":{"latitude":"51.543891","street":{"id":964223,"name":"On or near Kingsland Road"},"longitude":"-0.076111"},"context":"","outcome_status":null,"persistent_id":"","id":74279310,"location_subtype":"","month":"2019-05"},{"category":"anti-social-behaviour","location_type":"Force","location":{"latitude":"51.543891","street":{"id":964223,"name":"On or near Kingsland Road"},"longitude":"-0.076111"},"context":"","outcome_status":null,"persistent_id":"","id":74279309,"location_subtype":"","month":"2019-05"},{"category":"anti-social-behaviour","location_type":"Force","location":{"latitude":"51.543891","street":{"id":964223,"name":"On or near Kingsland Road"},"longitude":"-0.076111"},"context":"","outcome_status":null,"persistent_id":"","id":74279308,"location_subtype":"","month":"2019-05"},{"category":"anti-social-behaviour","location_type":"Force","location":{"latitude":"51.543891","street":{"id":964223,"name":"On or near Kingsland Road"},"longitude":"-0.076111"},"context":"","outcome_status":null,"persistent_id":"","id":74279307,"location_subtype":"","month":"2019-05"},{"category":"anti-social-behaviour","location_type":"Force","location":{"latitude":"51.548412","street":{"id":968578,"name":"On or near Kingsland High Street"},"longitude":"-0.075416"},"context":"","outcome_status":null,"persistent_id":"","id":74279304,"location_subtype":"","month":"2019-05"},{"category":"anti-social-behaviour","location_type":"Force","location":{"latitude":"51.548412","street":{"id":968578,"name":"On or near Kingsland High Street"},"longitude":"-0.075416"},"context":"","outcome_status":null,"persistent_id":"","id":74279303,"location_subtype":"","month":"2019-05"},{"category":"anti-social-behaviour","location_type":"Force","location":{"latitude":"51.548412","street":{"id":968578,"name":"On or near Kingsland High Street"},"longitude":"-0.075416"},"context":"","outcome_status":null,"persistent_id":"","id":74279302,"location_subtype":"","month":"2019-05"},{"category":"anti-social-behaviour","location_type":"Force","location":{"latitude":"51.548412","street":{"id":968578,"name":"On or near Kingsland High Street"},"longitude":"-0.075416"},"context":"","outcome_status":null,"persistent_id":"","id":74279301,"location_subtype":"","month":"2019-05"},{"category":"anti-social-behaviour","location_type":"Force","location":{"latitude":"51.548412","street":{"id":968578,"name":"On or near Kingsland High Street"},"longitude":"-0.075416"},"context":"","outcome_status":null,"persistent_id":"","id":74279300,"location_subtype":"","month":"2019-05"},{"category":"anti-social-behaviour","location_type":"Force","location":{"latitude":"51.544722","street":{"id":968956,"name":"On or near Hedger's Grove"},"longitude":"-0.037829"},"context":"","outcome_status":null,"persistent_id":"","id":74275063,"location_subtype":"","month":"2019-05"},{"category":"anti-social-behaviour","location_type":"Force","location":{"latitude":"51.548412","street":{"id":968578,"name":"On or near Kingsland High Street"},"longitude":"-0.075416"},"context":"","outcome_status":null,"persistent_id":"","id":74279299,"location_subtype":"","month":"2019-05"},{"category":"anti-social-behaviour","location_type":"Force","location":{"latitude":"51.538694","street":{"id":964021,"name":"On or near Tudor Road"},"longitude":"-0.054902"},"context":"","outcome_status":null,"persistent_id":"","id":74276147,"location_subtype":"","month":"2019-05"},{"category":"anti-social-behaviour","location_type":"Force","location":{"latitude":"51.541962","street":{"id":964042,"name":"On or near London Lane"},"longitude":"-0.056753"},"context":"","outcome_status":null,"persistent_id":"","id":74277273,"location_subtype":"","month":"2019-05"},{"category":"anti-social-behaviour","location_type":"Force","location":{"latitude":"51.549818","street":{"id":968815,"name":"On or near Pembury Place"},"longitude":"-0.059807"},"context":"","outcome_status":null,"persistent_id":"","id":74277320,"location_subtype":"","month":"2019-05"},{"category":"anti-social-behaviour","location_type":"Force","location":{"latitude":"51.548412","street":{"id":968578,"name":"On or near Kingsland High Street"},"longitude":"-0.075416"},"context":"","outcome_status":null,"persistent_id":"","id":74279298,"location_subtype":"","month":"2019-05"},{"category":"anti-social-behaviour","location_type":"Force","location":{"latitude":"51.548412","street":{"id":968578,"name":"On or near Kingsland High Street"},"longitude":"-0.075416"},"context":"","outcome_status":null,"persistent_id":"","id":74279297,"location_subtype":"","month":"2019-05"},{"category":"anti-social-behaviour","location_type":"Force","location":{"latitude":"51.548412","street":{"id":968578,"name":"On or near Kingsland High Street"},"longitude":"-0.075416"},"context":"","outcome_status":null,"persistent_id":"","id":74279296,"location_subtype":"","month":"2019-05"},{"category":"anti-social-behaviour","location_type":"Force","location":{"latitude":"51.541597","street":{"id":964235,"name":"On or near Glebe Road"},"longitude":"-0.075501"},"context":"","outcome_status":null,"persistent_id":"","id":74279292,"location_subtype":"","month":"2019-05"},{"category":"anti-social-behaviour","location_type":"Force","location":{"latitude":"51.547404","street":{"id":968574,"name":"On or near Stanborough Passage"},"longitude":"-0.075386"},"context":"","outcome_status":null,"persistent_id":"","id":74279291,"location_subtype":"","month":"2019-05"},{"category":"anti-social-behaviour","location_type":"Force","location":{"latitude":"51.548412","street":{"id":968578,"name":"On or near Kingsland High Street"},"longitude":"-0.075416"},"context":"","outcome_status":null,"persistent_id":"","id":74279295,"location_subtype":"","month":"2019-05"},{"category":"anti-social-behaviour","location_type":"Force","location":{"latitude":"51.543013","street":{"id":963883,"name":"On or near Christie Road"},"longitude":"-0.038306"},"context":"","outcome_status":null,"persistent_id":"","id":74275066,"location_subtype":"","month":"2019-05"},{"category":"anti-social-behaviour","location_type":"Force","location":{"latitude":"51.528321","street":{"id":961707,"name":"On or near Punderson's Gardens"},"longitude":"-0.057910"},"context":"","outcome_status":null,"persistent_id":"","id":74289846,"location_subtype":"","month":"2019-05"},{"category":"anti-social-behaviour","location_type":"Force","location":{"latitude":"51.548946","street":{"id":968937,"name":"On or near Homerton High Street"},"longitude":"-0.039277"},"context":"","outcome_status":null,"persistent_id":"","id":74276012,"location_subtype":"","month":"2019-05"},{"category":"anti-social-behaviour","location_type":"Force","location":{"latitude":"51.548946","street":{"id":968937,"name":"On or near Homerton High Street"},"longitude":"-0.039277"},"context":"","outcome_status":null,"persistent_id":"","id":74276013,"location_subtype":"","month":"2019-05"},{"category":"anti-social-behaviour","location_type":"Force","location":{"latitude":"51.542614","street":{"id":963877,"name":"On or near Harrowgate Road"},"longitude":"-0.039188"},"context":"","outcome_status":null,"persistent_id":"","id":74276014,"location_subtype":"","month":"2019-05"},{"category":"anti-social-behaviour","location_type":"Force","location":{"latitude":"51.542614","street":{"id":963877,"name":"On or near Harrowgate Road"},"longitude":"-0.039188"},"context":"","outcome_status":null,"persistent_id":"","id":74276015,"location_subtype":"","month":"2019-05"},{"category":"anti-social-behaviour","location_type":"Force","location":{"latitude":"51.542614","street":{"id":963877,"name":"On or near Harrowgate Road"},"longitude":"-0.039188"},"context":"","outcome_status":null,"persistent_id":"","id":74276016,"location_subtype":"","month":"2019-05"},{"category":"anti-social-behaviour","location_type":"Force","location":{"latitude":"51.540007","street":{"id":963879,"name":"On or near Guinness Close"},"longitude":"-0.039228"},"context":"","outcome_status":null,"persistent_id":"","id":74276017,"location_subtype":"","month":"2019-05"},{"category":"anti-social-behaviour","location_type":"Force","location":{"latitude":"51.547031","street":{"id":968721,"name":"On or near Barnabas Road"},"longitude":"-0.041998"},"context":"","outcome_status":null,"persistent_id":"","id":74276019,"location_subtype":"","month":"2019-05"},{"category":"anti-social-behaviour","location_type":"Force","location":{"latitude":"51.547031","street":{"id":968721,"name":"On or near Barnabas Road"},"longitude":"-0.041998"},"context":"","outcome_status":null,"persistent_id":"","id":74276020,"location_subtype":"","month":"2019-05"},{"category":"anti-social-behaviour","location_type":"Force","location":{"latitude":"51.542154","street":{"id":964132,"name":"On or near Gascoyne Road"},"longitude":"-0.040737"},"context":"","outcome_status":null,"persistent_id":"","id":74276021,"location_subtype":"","month":"2019-05"},{"category":"anti-social-behaviour","location_type":"Force","location":{"latitude":"51.542154","street":{"id":964132,"name":"On or near Gascoyne Road"},"longitude":"-0.040737"},"context":"","outcome_status":null,"persistent_id":"","id":74276022,"location_subtype":"","month":"2019-05"},{"category":"anti-social-behaviour","location_type":"Force","location":{"latitude":"51.547031","street":{"id":968721,"name":"On or near Barnabas Road"},"longitude":"-0.041998"},"context":"","outcome_status":null,"persistent_id":"","id":74276023,"location_subtype":"","month":"2019-05"},{"category":"anti-social-behaviour","location_type":"Force","location":{"latitude":"51.538417","street":{"id":964126,"name":"On or near Iveagh Close"},"longitude":"-0.040969"},"context":"","outcome_status":null,"persistent_id":"","id":74276025,"location_subtype":"","month":"2019-05"},{"category":"anti-social-behaviour","location_type":"Force","location":{"latitude":"51.532129","street":{"id":964170,"name":"On or near Shopping Area"},"longitude":"-0.041874"},"context":"","outcome_status":null,"persistent_id":"","id":74276026,"location_subtype":"","month":"2019-05"},{"category":"anti-social-behaviour","location_type":"Force","location":{"latitude":"51.543338","street":{"id":964144,"name":"On or near Cassland Road"},"longitude":"-0.042171"},"context":"","outcome_status":null,"persistent_id":"","id":74276027,"location_subtype":"","month":"2019-05"},{"category":"anti-social-behaviour","location_type":"Force","location":{"latitude":"51.543338","street":{"id":964144,"name":"On or near Cassland Road"},"longitude":"-0.042171"},"context":"","outcome_status":null,"persistent_id":"","id":74276028,"location_subtype":"","month":"2019-05"},{"category":"anti-social-behaviour","location_type":"Force","location":{"latitude":"51.543338","street":{"id":964144,"name":"On or near Cassland Road"},"longitude":"-0.042171"},"context":"","outcome_status":null,"persistent_id":"","id":74276029,"location_subtype":"","month":"2019-05"},{"category":"anti-social-behaviour","location_type":"Force","location":{"latitude":"51.549073","street":{"id":968734,"name":"On or near St Barnabas Terrace"},"longitude":"-0.043122"},"context":"","outcome_status":null,"persistent_id":"","id":74276031,"location_subtype":"","month":"2019-05"},{"category":"anti-social-behaviour","location_type":"Force","location":{"latitude":"51.546816","street":{"id":968722,"name":"On or near Barnabas Road"},"longitude":"-0.042022"},"context":"","outcome_status":null,"persistent_id":"","id":74276032,"location_subtype":"","month":"2019-05"},{"category":"anti-social-behaviour","location_type":"Force","location":{"latitude":"51.547031","street":{"id":968721,"name":"On or near Barnabas Road"},"longitude":"-0.041998"},"context":"","outcome_status":null,"persistent_id":"","id":74276033,"location_subtype":"","month":"2019-05"},{"category":"anti-social-behaviour","location_type":"Force","location":{"latitude":"51.546816","street":{"id":968722,"name":"On or near Barnabas Road"},"longitude":"-0.042022"},"context":"","outcome_status":null,"persistent_id":"","id":74276037,"location_subtype":"","month":"2019-05"},{"category":"anti-social-behaviour","location_type":"Force","location":{"latitude":"51.544350","street":{"id":968884,"name":"On or near Bentham Road"},"longitude":"-0.043498"},"context":"","outcome_status":null,"persistent_id":"","id":74276038,"location_subtype":"","month":"2019-05"},{"category":"anti-social-behaviour","location_type":"Force","location":{"latitude":"51.546782","street":{"id":968720,"name":"On or near Berger Road"},"longitude":"-0.043206"},"context":"","outcome_status":null,"persistent_id":"","id":74276039,"location_subtype":"","month":"2019-05"},{"category":"anti-social-behaviour","location_type":"Force","location":{"latitude":"51.546782","street":{"id":968720,"name":"On or near Berger Road"},"longitude":"-0.043206"},"context":"","outcome_status":null,"persistent_id":"","id":74276040,"location_subtype":"","month":"2019-05"},{"category":"anti-social-behaviour","location_type":"Force","location":{"latitude":"51.546782","street":{"id":968720,"name":"On or near Berger Road"},"longitude":"-0.043206"},"context":"","outcome_status":null,"persistent_id":"","id":74276041,"location_subtype":"","month":"2019-05"},{"category":"anti-social-behaviour","location_type":"Force","location":{"latitude":"51.547748","street":{"id":968704,"name":"On or near Sedgwick Street"},"longitude":"-0.043439"},"context":"","outcome_status":null,"persistent_id":"","id":74276043,"location_subtype":"","month":"2019-05"},{"category":"anti-social-behaviour","location_type":"Force","location":{"latitude":"51.545634","street":{"id":968886,"name":"On or near Anderson Road"},"longitude":"-0.043414"},"context":"","outcome_status":null,"persistent_id":"","id":74276044,"location_subtype":"","month":"2019-05"},{"category":"anti-social-behaviour","location_type":"Force","location":{"latitude":"51.544911","street":{"id":968863,"name":"On or near Wick Road"},"longitude":"-0.043705"},"context":"","outcome_status":null,"persistent_id":"","id":74276045,"location_subtype":"","month":"2019-05"},{"category":"anti-social-behaviour","location_type":"Force","location":{"latitude":"51.544911","street":{"id":968863,"name":"On or near Wick Road"},"longitude":"-0.043705"},"context":"","outcome_status":null,"persistent_id":"","id":74276046,"location_subtype":"","month":"2019-05"},{"category":"anti-social-behaviour","location_type":"Force","location":{"latitude":"51.539573","street":{"id":964149,"name":"On or near Banbury Road"},"longitude":"-0.043948"},"context":"","outcome_status":null,"persistent_id":"","id":74276049,"location_subtype":"","month":"2019-05"},{"category":"anti-social-behaviour","location_type":"Force","location":{"latitude":"51.539573","street":{"id":964149,"name":"On or near Banbury Road"},"longitude":"-0.043948"},"context":"","outcome_status":null,"persistent_id":"","id":74276050,"location_subtype":"","month":"2019-05"},{"category":"anti-social-behaviour","location_type":"Force","location":{"latitude":"51.552338","street":{"id":968774,"name":"On or near Chatsworth Road"},"longitude":"-0.044237"},"context":"","outcome_status":null,"persistent_id":"","id":74276053,"location_subtype":"","month":"2019-05"},{"category":"anti-social-behaviour","location_type":"Force","location":{"latitude":"51.552338","street":{"id":968774,"name":"On or near Chatsworth Road"},"longitude":"-0.044237"},"context":"","outcome_status":null,"persistent_id":"","id":74276054,"location_subtype":"","month":"2019-05"},{"category":"anti-social-behaviour","location_type":"Force","location":{"latitude":"51.541757","street":{"id":964117,"name":"On or near Meynell Crescent"},"longitude":"-0.044979"},"context":"","outcome_status":null,"persistent_id":"","id":74276055,"location_subtype":"","month":"2019-05"},{"category":"anti-social-behaviour","location_type":"Force","location":{"latitude":"51.537122","street":{"id":964101,"name":"On or near Rutland Road"},"longitude":"-0.046346"},"context":"","outcome_status":null,"persistent_id":"","id":74276056,"location_subtype":"","month":"2019-05"},{"category":"anti-social-behaviour","location_type":"Force","location":{"latitude":"51.537122","street":{"id":964101,"name":"On or near Rutland Road"},"longitude":"-0.046346"},"context":"","outcome_status":null,"persistent_id":"","id":74276057,"location_subtype":"","month":"2019-05"},{"category":"anti-social-behaviour","location_type":"Force","location":{"latitude":"51.537122","street":{"id":964101,"name":"On or near Rutland Road"},"longitude":"-0.046346"},"context":"","outcome_status":null,"persistent_id":"","id":74276058,"location_subtype":"","month":"2019-05"},{"category":"anti-social-behaviour","location_type":"Force","location":{"latitude":"51.550625","street":{"id":968786,"name":"On or near Hospital"},"longitude":"-0.046099"},"context":"","outcome_status":null,"persistent_id":"","id":74276059,"location_subtype":"","month":"2019-05"},{"category":"anti-social-behaviour","location_type":"Force","location":{"latitude":"51.537424","street":{"id":964138,"name":"On or near Derby Road"},"longitude":"-0.046650"},"context":"","outcome_status":null,"persistent_id":"","id":74276061,"location_subtype":"","month":"2019-05"},{"category":"anti-social-behaviour","location_type":"Force","location":{"latitude":"51.537424","street":{"id":964138,"name":"On or near Derby Road"},"longitude":"-0.046650"},"context":"","outcome_status":null,"persistent_id":"","id":74276062,"location_subtype":"","month":"2019-05"},{"category":"anti-social-behaviour","location_type":"Force","location":{"latitude":"51.546292","street":{"id":968717,"name":"On or near Flanders Way"},"longitude":"-0.045665"},"context":"","outcome_status":null,"persistent_id":"","id":74276063,"location_subtype":"","month":"2019-05"},{"category":"anti-social-behaviour","location_type":"Force","location":{"latitude":"51.541669","street":{"id":964086,"name":"On or near Well Street"},"longitude":"-0.048877"},"context":"","outcome_status":null,"persistent_id":"","id":74276081,"location_subtype":"","month":"2019-05"},{"category":"anti-social-behaviour","location_type":"Force","location":{"latitude":"51.546292","street":{"id":968717,"name":"On or near Flanders Way"},"longitude":"-0.045665"},"context":"","outcome_status":null,"persistent_id":"","id":74276064,"location_subtype":"","month":"2019-05"},{"category":"anti-social-behaviour","location_type":"Force","location":{"latitude":"51.546292","street":{"id":968717,"name":"On or near Flanders Way"},"longitude":"-0.045665"},"context":"","outcome_status":null,"persistent_id":"","id":74276065,"location_subtype":"","month":"2019-05"},{"category":"anti-social-behaviour","location_type":"Force","location":{"latitude":"51.546292","street":{"id":968717,"name":"On or near Flanders Way"},"longitude":"-0.045665"},"context":"","outcome_status":null,"persistent_id":"","id":74276066,"location_subtype":"","month":"2019-05"},{"category":"anti-social-behaviour","location_type":"Force","location":{"latitude":"51.546292","street":{"id":968717,"name":"On or near Flanders Way"},"longitude":"-0.045665"},"context":"","outcome_status":null,"persistent_id":"","id":74276067,"location_subtype":"","month":"2019-05"},{"category":"anti-social-behaviour","location_type":"Force","location":{"latitude":"51.543906","street":{"id":968864,"name":"On or near Well Street"},"longitude":"-0.047108"},"context":"","outcome_status":null,"persistent_id":"","id":74276069,"location_subtype":"","month":"2019-05"},{"category":"anti-social-behaviour","location_type":"Force","location":{"latitude":"51.543906","street":{"id":968864,"name":"On or near Well Street"},"longitude":"-0.047108"},"context":"","outcome_status":null,"persistent_id":"","id":74276070,"location_subtype":"","month":"2019-05"},{"category":"anti-social-behaviour","location_type":"Force","location":{"latitude":"51.535620","street":{"id":964131,"name":"On or near Gore Road"},"longitude":"-0.047939"},"context":"","outcome_status":null,"persistent_id":"","id":74276071,"location_subtype":"","month":"2019-05"},{"category":"anti-social-behaviour","location_type":"Force","location":{"latitude":"51.537195","street":{"id":964103,"name":"On or near Redruth Road"},"longitude":"-0.048015"},"context":"","outcome_status":null,"persistent_id":"","id":74276072,"location_subtype":"","month":"2019-05"},{"category":"anti-social-behaviour","location_type":"Force","location":{"latitude":"51.537195","street":{"id":964103,"name":"On or near Redruth Road"},"longitude":"-0.048015"},"context":"","outcome_status":null,"persistent_id":"","id":74276073,"location_subtype":"","month":"2019-05"},{"category":"anti-social-behaviour","location_type":"Force","location":{"latitude":"51.537195","street":{"id":964103,"name":"On or near Redruth Road"},"longitude":"-0.048015"},"context":"","outcome_status":null,"persistent_id":"","id":74276074,"location_subtype":"","month":"2019-05"},{"category":"anti-social-behaviour","location_type":"Force","location":{"latitude":"51.539525","street":{"id":964108,"name":"On or near Moulins Road"},"longitude":"-0.047526"},"context":"","outcome_status":null,"persistent_id":"","id":74276075,"location_subtype":"","month":"2019-05"},{"category":"anti-social-behaviour","location_type":"Force","location":{"latitude":"51.544391","street":{"id":968878,"name":"On or near Cresset Road"},"longitude":"-0.048140"},"context":"","outcome_status":null,"persistent_id":"","id":74276076,"location_subtype":"","month":"2019-05"},{"category":"anti-social-behaviour","location_type":"Force","location":{"latitude":"51.540131","street":{"id":964078,"name":"On or near Balcorne Street"},"longitude":"-0.048322"},"context":"","outcome_status":null,"persistent_id":"","id":74276078,"location_subtype":"","month":"2019-05"},{"category":"anti-social-behaviour","location_type":"Force","location":{"latitude":"51.537734","street":{"id":964107,"name":"On or near Park Close"},"longitude":"-0.049074"},"context":"","outcome_status":null,"persistent_id":"","id":74276080,"location_subtype":"","month":"2019-05"},{"category":"anti-social-behaviour","location_type":"Force","location":{"latitude":"51.541669","street":{"id":964086,"name":"On or near Well Street"},"longitude":"-0.048877"},"context":"","outcome_status":null,"persistent_id":"","id":74276082,"location_subtype":"","month":"2019-05"},{"category":"anti-social-behaviour","location_type":"Force","location":{"latitude":"51.537314","street":{"id":964097,"name":"On or near Skipworth Road"},"longitude":"-0.049236"},"context":"","outcome_status":null,"persistent_id":"","id":74276083,"location_subtype":"","month":"2019-05"},{"category":"anti-social-behaviour","location_type":"Force","location":{"latitude":"51.542380","street":{"id":964088,"name":"On or near Well Street"},"longitude":"-0.048875"},"context":"","outcome_status":null,"persistent_id":"","id":74276084,"location_subtype":"","month":"2019-05"},{"category":"anti-social-behaviour","location_type":"Force","location":{"latitude":"51.553172","street":{"id":968749,"name":"On or near Median Road"},"longitude":"-0.049495"},"context":"","outcome_status":null,"persistent_id":"","id":74276085,"location_subtype":"","month":"2019-05"},{"category":"anti-social-behaviour","location_type":"Force","location":{"latitude":"51.553172","street":{"id":968749,"name":"On or near Median Road"},"longitude":"-0.049495"},"context":"","outcome_status":null,"persistent_id":"","id":74276086,"location_subtype":"","month":"2019-05"},{"category":"anti-social-behaviour","location_type":"Force","location":{"latitude":"51.547532","street":{"id":968712,"name":"On or near Link Street"},"longitude":"-0.049361"},"context":"","outcome_status":null,"persistent_id":"","id":74276087,"location_subtype":"","month":"2019-05"},{"category":"anti-social-behaviour","location_type":"Force","location":{"latitude":"51.547532","street":{"id":968712,"name":"On or near Link Street"},"longitude":"-0.049361"},"context":"","outcome_status":null,"persistent_id":"","id":74276089,"location_subtype":"","month":"2019-05"},{"category":"anti-social-behaviour","location_type":"Force","location":{"latitude":"51.549933","street":{"id":923595,"name":"On or near Urswick Road"},"longitude":"-0.051033"},"context":"","outcome_status":null,"persistent_id":"","id":74276092,"location_subtype":"","month":"2019-05"},{"category":"anti-social-behaviour","location_type":"Force","location":{"latitude":"51.545541","street":{"id":968867,"name":"On or near Rivaz Place"},"longitude":"-0.049692"},"context":"","outcome_status":null,"persistent_id":"","id":74276093,"location_subtype":"","month":"2019-05"},{"category":"anti-social-behaviour","location_type":"Force","location":{"latitude":"51.540187","street":{"id":964123,"name":"On or near Kingshold Road"},"longitude":"-0.050050"},"context":"","outcome_status":null,"persistent_id":"","id":74276094,"location_subtype":"","month":"2019-05"},{"category":"anti-social-behaviour","location_type":"Force","location":{"latitude":"51.547031","street":{"id":968709,"name":"On or near Morning Lane"},"longitude":"-0.051143"},"context":"","outcome_status":null,"persistent_id":"","id":74276096,"location_subtype":"","month":"2019-05"},{"category":"anti-social-behaviour","location_type":"Force","location":{"latitude":"51.547031","street":{"id":968709,"name":"On or near Morning Lane"},"longitude":"-0.051143"},"context":"","outcome_status":null,"persistent_id":"","id":74276097,"location_subtype":"","month":"2019-05"},{"category":"anti-social-behaviour","location_type":"Force","location":{"latitude":"51.539614","street":{"id":964151,"name":"On or near Ainsworth Road"},"longitude":"-0.050724"},"context":"","outcome_status":null,"persistent_id":"","id":74276101,"location_subtype":"","month":"2019-05"},{"category":"anti-social-behaviour","location_type":"Force","location":{"latitude":"51.539614","street":{"id":964151,"name":"On or near Ainsworth Road"},"longitude":"-0.050724"},"context":"","outcome_status":null,"persistent_id":"","id":74276102,"location_subtype":"","month":"2019-05"},{"category":"anti-social-behaviour","location_type":"Force","location":{"latitude":"51.551711","street":{"id":968748,"name":"On or near Median Road"},"longitude":"-0.050322"},"context":"","outcome_status":null,"persistent_id":"","id":74276109,"location_subtype":"","month":"2019-05"},{"category":"anti-social-behaviour","location_type":"Force","location":{"latitude":"51.551711","street":{"id":968748,"name":"On or near Median Road"},"longitude":"-0.050322"},"context":"","outcome_status":null,"persistent_id":"","id":74276110,"location_subtype":"","month":"2019-05"},{"category":"anti-social-behaviour","location_type":"Force","location":{"latitude":"51.545352","street":{"id":968880,"name":"On or near Chatham Place"},"longitude":"-0.050782"},"context":"","outcome_status":null,"persistent_id":"","id":74276111,"location_subtype":"","month":"2019-05"},{"category":"anti-social-behaviour","location_type":"Force","location":{"latitude":"51.545352","street":{"id":968880,"name":"On or near Chatham Place"},"longitude":"-0.050782"},"context":"","outcome_status":null,"persistent_id":"","id":74276112,"location_subtype":"","month":"2019-05"},{"category":"anti-social-behaviour","location_type":"Force","location":{"latitude":"51.542685","street":{"id":964119,"name":"On or near Loddiges Road"},"longitude":"-0.051545"},"context":"","outcome_status":null,"persistent_id":"","id":74276113,"location_subtype":"","month":"2019-05"},{"category":"anti-social-behaviour","location_type":"Force","location":{"latitude":"51.540785","street":{"id":964079,"name":"On or near Parking Area"},"longitude":"-0.052448"},"context":"","outcome_status":null,"persistent_id":"","id":74276115,"location_subtype":"","month":"2019-05"},{"category":"anti-social-behaviour","location_type":"Force","location":{"latitude":"51.541988","street":{"id":964133,"name":"On or near Frampton Park Road"},"longitude":"-0.051834"},"context":"","outcome_status":null,"persistent_id":"","id":74276116,"location_subtype":"","month":"2019-05"},{"category":"anti-social-behaviour","location_type":"Force","location":{"latitude":"51.544805","street":{"id":968852,"name":"On or near Paragon Road"},"longitude":"-0.053055"},"context":"","outcome_status":null,"persistent_id":"","id":74276117,"location_subtype":"","month":"2019-05"},{"category":"anti-social-behaviour","location_type":"Force","location":{"latitude":"51.542685","street":{"id":964119,"name":"On or near Loddiges Road"},"longitude":"-0.051545"},"context":"","outcome_status":null,"persistent_id":"","id":74276118,"location_subtype":"","month":"2019-05"},{"category":"anti-social-behaviour","location_type":"Force","location":{"latitude":"51.546020","street":{"id":968885,"name":"On or near Belsham Street"},"longitude":"-0.052037"},"context":"","outcome_status":null,"persistent_id":"","id":74276127,"location_subtype":"","month":"2019-05"},{"category":"anti-social-behaviour","location_type":"Force","location":{"latitude":"51.539510","street":{"id":964030,"name":"On or near Shore Road"},"longitude":"-0.053137"},"context":"","outcome_status":null,"persistent_id":"","id":74276128,"location_subtype":"","month":"2019-05"},{"category":"anti-social-behaviour","location_type":"Force","location":{"latitude":"51.539510","street":{"id":964030,"name":"On or near Shore Road"},"longitude":"-0.053137"},"context":"","outcome_status":null,"persistent_id":"","id":74276129,"location_subtype":"","month":"2019-05"},{"category":"anti-social-behaviour","location_type":"Force","location":{"latitude":"51.553009","street":{"id":968844,"name":"On or near Petrol Station"},"longitude":"-0.053743"},"context":"","outcome_status":null,"persistent_id":"","id":74276130,"location_subtype":"","month":"2019-05"},{"category":"anti-social-behaviour","location_type":"Force","location":{"latitude":"51.553009","street":{"id":968844,"name":"On or near Petrol Station"},"longitude":"-0.053743"},"context":"","outcome_status":null,"persistent_id":"","id":74276131,"location_subtype":"","month":"2019-05"},{"category":"anti-social-behaviour","location_type":"Force","location":{"latitude":"51.553009","street":{"id":968844,"name":"On or near Petrol Station"},"longitude":"-0.053743"},"context":"","outcome_status":null,"persistent_id":"","id":74276132,"location_subtype":"","month":"2019-05"},{"category":"anti-social-behaviour","location_type":"Force","location":{"latitude":"51.553009","street":{"id":968844,"name":"On or near Petrol Station"},"longitude":"-0.053743"},"context":"","outcome_status":null,"persistent_id":"","id":74276133,"location_subtype":"","month":"2019-05"},{"category":"anti-social-behaviour","location_type":"Force","location":{"latitude":"51.540218","street":{"id":964013,"name":"On or near Weston Walk"},"longitude":"-0.055183"},"context":"","outcome_status":null,"persistent_id":"","id":74276141,"location_subtype":"","month":"2019-05"},{"category":"anti-social-behaviour","location_type":"Force","location":{"latitude":"51.540218","street":{"id":964013,"name":"On or near Weston Walk"},"longitude":"-0.055183"},"context":"","outcome_status":null,"persistent_id":"","id":74276142,"location_subtype":"","month":"2019-05"},{"category":"anti-social-behaviour","location_type":"Force","location":{"latitude":"51.540218","street":{"id":964013,"name":"On or near Weston Walk"},"longitude":"-0.055183"},"context":"","outcome_status":null,"persistent_id":"","id":74276143,"location_subtype":"","month":"2019-05"},{"category":"anti-social-behaviour","location_type":"Force","location":{"latitude":"51.540218","street":{"id":964013,"name":"On or near Weston Walk"},"longitude":"-0.055183"},"context":"","outcome_status":null,"persistent_id":"","id":74276144,"location_subtype":"","month":"2019-05"},{"category":"anti-social-behaviour","location_type":"Force","location":{"latitude":"51.550913","street":{"id":968838,"name":"On or near Clapton Square"},"longitude":"-0.054236"},"context":"","outcome_status":null,"persistent_id":"","id":74276145,"location_subtype":"","month":"2019-05"},{"category":"anti-social-behaviour","location_type":"Force","location":{"latitude":"51.538694","street":{"id":964021,"name":"On or near Tudor Road"},"longitude":"-0.054902"},"context":"","outcome_status":null,"persistent_id":"","id":74276146,"location_subtype":"","month":"2019-05"},{"category":"anti-social-behaviour","location_type":"Force","location":{"latitude":"51.552878","street":{"id":968824,"name":"On or near Hana Mews"},"longitude":"-0.054499"},"context":"","outcome_status":null,"persistent_id":"","id":74276149,"location_subtype":"","month":"2019-05"},{"category":"anti-social-behaviour","location_type":"Force","location":{"latitude":"51.551539","street":{"id":968836,"name":"On or near Clarence Place"},"longitude":"-0.055133"},"context":"","outcome_status":null,"persistent_id":"","id":74276151,"location_subtype":"","month":"2019-05"},{"category":"anti-social-behaviour","location_type":"Force","location":{"latitude":"51.547623","street":{"id":968794,"name":"On or near Mare Street"},"longitude":"-0.054882"},"context":"","outcome_status":null,"persistent_id":"","id":74276153,"location_subtype":"","month":"2019-05"},{"category":"anti-social-behaviour","location_type":"Force","location":{"latitude":"51.547623","street":{"id":968794,"name":"On or near Mare Street"},"longitude":"-0.054882"},"context":"","outcome_status":null,"persistent_id":"","id":74276154,"location_subtype":"","month":"2019-05"},{"category":"anti-social-behaviour","location_type":"Force","location":{"latitude":"51.547623","street":{"id":968794,"name":"On or near Mare Street"},"longitude":"-0.054882"},"context":"","outcome_status":null,"persistent_id":"","id":74276155,"location_subtype":"","month":"2019-05"},{"category":"anti-social-behaviour","location_type":"Force","location":{"latitude":"51.546949","street":{"id":968804,"name":"On or near Supermarket"},"longitude":"-0.055415"},"context":"","outcome_status":null,"persistent_id":"","id":74277229,"location_subtype":"","month":"2019-05"},{"category":"anti-social-behaviour","location_type":"Force","location":{"latitude":"51.546782","street":{"id":968787,"name":"On or near Parking Area"},"longitude":"-0.054586"},"context":"","outcome_status":null,"persistent_id":"","id":74277231,"location_subtype":"","month":"2019-05"},{"category":"anti-social-behaviour","location_type":"Force","location":{"latitude":"51.546782","street":{"id":968787,"name":"On or near Parking Area"},"longitude":"-0.054586"},"context":"","outcome_status":null,"persistent_id":"","id":74277232,"location_subtype":"","month":"2019-05"},{"category":"anti-social-behaviour","location_type":"Force","location":{"latitude":"51.548461","street":{"id":968800,"name":"On or near Gould Terrace"},"longitude":"-0.055495"},"context":"","outcome_status":null,"persistent_id":"","id":74277237,"location_subtype":"","month":"2019-05"},{"category":"anti-social-behaviour","location_type":"Force","location":{"latitude":"51.548461","street":{"id":968800,"name":"On or near Gould Terrace"},"longitude":"-0.055495"},"context":"","outcome_status":null,"persistent_id":"","id":74277238,"location_subtype":"","month":"2019-05"},{"category":"anti-social-behaviour","location_type":"Force","location":{"latitude":"51.548461","street":{"id":968800,"name":"On or near Gould Terrace"},"longitude":"-0.055495"},"context":"","outcome_status":null,"persistent_id":"","id":74277239,"location_subtype":"","month":"2019-05"},{"category":"anti-social-behaviour","location_type":"Force","location":{"latitude":"51.548461","street":{"id":968800,"name":"On or near Gould Terrace"},"longitude":"-0.055495"},"context":"","outcome_status":null,"persistent_id":"","id":74277240,"location_subtype":"","month":"2019-05"},{"category":"anti-social-behaviour","location_type":"Force","location":{"latitude":"51.548461","street":{"id":968800,"name":"On or near Gould Terrace"},"longitude":"-0.055495"},"context":"","outcome_status":null,"persistent_id":"","id":74277241,"location_subtype":"","month":"2019-05"},{"category":"anti-social-behaviour","location_type":"Force","location":{"latitude":"51.548461","street":{"id":968800,"name":"On or near Gould Terrace"},"longitude":"-0.055495"},"context":"","outcome_status":null,"persistent_id":"","id":74277242,"location_subtype":"","month":"2019-05"},{"category":"anti-social-behaviour","location_type":"Force","location":{"latitude":"51.548461","street":{"id":968800,"name":"On or near Gould Terrace"},"longitude":"-0.055495"},"context":"","outcome_status":null,"persistent_id":"","id":74277244,"location_subtype":"","month":"2019-05"},{"category":"anti-social-behaviour","location_type":"Force","location":{"latitude":"51.544297","street":{"id":968854,"name":"On or near Mare Street"},"longitude":"-0.055471"},"context":"","outcome_status":null,"persistent_id":"","id":74277245,"location_subtype":"","month":"2019-05"},{"category":"anti-social-behaviour","location_type":"Force","location":{"latitude":"51.544297","street":{"id":968854,"name":"On or near Mare Street"},"longitude":"-0.055471"},"context":"","outcome_status":null,"persistent_id":"","id":74277246,"location_subtype":"","month":"2019-05"},{"category":"anti-social-behaviour","location_type":"Force","location":{"latitude":"51.544297","street":{"id":968854,"name":"On or near Mare Street"},"longitude":"-0.055471"},"context":"","outcome_status":null,"persistent_id":"","id":74277247,"location_subtype":"","month":"2019-05"},{"category":"anti-social-behaviour","location_type":"Force","location":{"latitude":"51.544297","street":{"id":968854,"name":"On or near Mare Street"},"longitude":"-0.055471"},"context":"","outcome_status":null,"persistent_id":"","id":74277248,"location_subtype":"","month":"2019-05"},{"category":"anti-social-behaviour","location_type":"Force","location":{"latitude":"51.544297","street":{"id":968854,"name":"On or near Mare Street"},"longitude":"-0.055471"},"context":"","outcome_status":null,"persistent_id":"","id":74277249,"location_subtype":"","month":"2019-05"},{"category":"anti-social-behaviour","location_type":"Force","location":{"latitude":"51.544297","street":{"id":968854,"name":"On or near Mare Street"},"longitude":"-0.055471"},"context":"","outcome_status":null,"persistent_id":"","id":74277250,"location_subtype":"","month":"2019-05"},{"category":"anti-social-behaviour","location_type":"Force","location":{"latitude":"51.544297","street":{"id":968854,"name":"On or near Mare Street"},"longitude":"-0.055471"},"context":"","outcome_status":null,"persistent_id":"","id":74277251,"location_subtype":"","month":"2019-05"},{"category":"anti-social-behaviour","location_type":"Force","location":{"latitude":"51.544297","street":{"id":968854,"name":"On or near Mare Street"},"longitude":"-0.055471"},"context":"","outcome_status":null,"persistent_id":"","id":74277252,"location_subtype":"","month":"2019-05"},{"category":"anti-social-behaviour","location_type":"Force","location":{"latitude":"51.544297","street":{"id":968854,"name":"On or near Mare Street"},"longitude":"-0.055471"},"context":"","outcome_status":null,"persistent_id":"","id":74277253,"location_subtype":"","month":"2019-05"},{"category":"anti-social-behaviour","location_type":"Force","location":{"latitude":"51.546368","street":{"id":968793,"name":"On or near Marvin Street"},"longitude":"-0.056738"},"context":"","outcome_status":null,"persistent_id":"","id":74277271,"location_subtype":"","month":"2019-05"},{"category":"anti-social-behaviour","location_type":"Force","location":{"latitude":"51.544370","street":{"id":968856,"name":"On or near Florfield Road"},"longitude":"-0.057198"},"context":"","outcome_status":null,"persistent_id":"","id":74277272,"location_subtype":"","month":"2019-05"},{"category":"anti-social-behaviour","location_type":"Force","location":{"latitude":"51.541962","street":{"id":964042,"name":"On or near London Lane"},"longitude":"-0.056753"},"context":"","outcome_status":null,"persistent_id":"","id":74277274,"location_subtype":"","month":"2019-05"},{"category":"anti-social-behaviour","location_type":"Force","location":{"latitude":"51.541962","street":{"id":964042,"name":"On or near London Lane"},"longitude":"-0.056753"},"context":"","outcome_status":null,"persistent_id":"","id":74277275,"location_subtype":"","month":"2019-05"},{"category":"anti-social-behaviour","location_type":"Force","location":{"latitude":"51.537964","street":{"id":964015,"name":"On or near Westgate Street"},"longitude":"-0.056981"},"context":"","outcome_status":null,"persistent_id":"","id":74277276,"location_subtype":"","month":"2019-05"},{"category":"anti-social-behaviour","location_type":"Force","location":{"latitude":"51.537964","street":{"id":964015,"name":"On or near Westgate Street"},"longitude":"-0.056981"},"context":"","outcome_status":null,"persistent_id":"","id":74277277,"location_subtype":"","month":"2019-05"},{"category":"anti-social-behaviour","location_type":"Force","location":{"latitude":"51.537964","street":{"id":964015,"name":"On or near Westgate Street"},"longitude":"-0.056981"},"context":"","outcome_status":null,"persistent_id":"","id":74277278,"location_subtype":"","month":"2019-05"},{"category":"anti-social-behaviour","location_type":"Force","location":{"latitude":"51.535738","street":{"id":964062,"name":"On or near Booth Close"},"longitude":"-0.056700"},"context":"","outcome_status":null,"persistent_id":"","id":74277279,"location_subtype":"","month":"2019-05"},{"category":"anti-social-behaviour","location_type":"Force","location":{"latitude":"51.554046","street":{"id":968833,"name":"On or near Clarence Road"},"longitude":"-0.056093"},"context":"","outcome_status":null,"persistent_id":"","id":74277280,"location_subtype":"","month":"2019-05"},{"category":"anti-social-behaviour","location_type":"Force","location":{"latitude":"51.554046","street":{"id":968833,"name":"On or near Clarence Road"},"longitude":"-0.056093"},"context":"","outcome_status":null,"persistent_id":"","id":74277281,"location_subtype":"","month":"2019-05"},{"category":"anti-social-behaviour","location_type":"Force","location":{"latitude":"51.554046","street":{"id":968833,"name":"On or near Clarence Road"},"longitude":"-0.056093"},"context":"","outcome_status":null,"persistent_id":"","id":74277282,"location_subtype":"","month":"2019-05"},{"category":"anti-social-behaviour","location_type":"Force","location":{"latitude":"51.546241","street":{"id":968790,"name":"On or near Sylvester Road"},"longitude":"-0.056657"},"context":"","outcome_status":null,"persistent_id":"","id":74277284,"location_subtype":"","month":"2019-05"},{"category":"anti-social-behaviour","location_type":"Force","location":{"latitude":"51.546241","street":{"id":968790,"name":"On or near Sylvester Road"},"longitude":"-0.056657"},"context":"","outcome_status":null,"persistent_id":"","id":74277285,"location_subtype":"","month":"2019-05"},{"category":"anti-social-behaviour","location_type":"Force","location":{"latitude":"51.546241","street":{"id":968790,"name":"On or near Sylvester Road"},"longitude":"-0.056657"},"context":"","outcome_status":null,"persistent_id":"","id":74277286,"location_subtype":"","month":"2019-05"},{"category":"anti-social-behaviour","location_type":"Force","location":{"latitude":"51.546241","street":{"id":968790,"name":"On or near Sylvester Road"},"longitude":"-0.056657"},"context":"","outcome_status":null,"persistent_id":"","id":74277287,"location_subtype":"","month":"2019-05"},{"category":"anti-social-behaviour","location_type":"Force","location":{"latitude":"51.546241","street":{"id":968790,"name":"On or near Sylvester Road"},"longitude":"-0.056657"},"context":"","outcome_status":null,"persistent_id":"","id":74277288,"location_subtype":"","month":"2019-05"},{"category":"anti-social-behaviour","location_type":"Force","location":{"latitude":"51.538504","street":{"id":964040,"name":"On or near Mare Street"},"longitude":"-0.057001"},"context":"","outcome_status":null,"persistent_id":"","id":74277289,"location_subtype":"","month":"2019-05"},{"category":"anti-social-behaviour","location_type":"Force","location":{"latitude":"51.550289","street":{"id":968822,"name":"On or near Hindrey Road"},"longitude":"-0.056715"},"context":"","outcome_status":null,"persistent_id":"","id":74277290,"location_subtype":"","month":"2019-05"},{"category":"anti-social-behaviour","location_type":"Force","location":{"latitude":"51.544370","street":{"id":968856,"name":"On or near Florfield Road"},"longitude":"-0.057198"},"context":"","outcome_status":null,"persistent_id":"","id":74277291,"location_subtype":"","month":"2019-05"},{"category":"anti-social-behaviour","location_type":"Force","location":{"latitude":"51.544370","street":{"id":968856,"name":"On or near Florfield Road"},"longitude":"-0.057198"},"context":"","outcome_status":null,"persistent_id":"","id":74277292,"location_subtype":"","month":"2019-05"},{"category":"anti-social-behaviour","location_type":"Force","location":{"latitude":"51.549921","street":{"id":968807,"name":"On or near Tolsford Road"},"longitude":"-0.056269"},"context":"","outcome_status":null,"persistent_id":"","id":74277293,"location_subtype":"","month":"2019-05"},{"category":"anti-social-behaviour","location_type":"Force","location":{"latitude":"51.538504","street":{"id":964040,"name":"On or near Mare Street"},"longitude":"-0.057001"},"context":"","outcome_status":null,"persistent_id":"","id":74277298,"location_subtype":"","month":"2019-05"},{"category":"anti-social-behaviour","location_type":"Force","location":{"latitude":"51.554233","street":{"id":968832,"name":"On or near Cricketfield Road"},"longitude":"-0.057066"},"context":"","outcome_status":null,"persistent_id":"","id":74277299,"location_subtype":"","month":"2019-05"},{"category":"anti-social-behaviour","location_type":"Force","location":{"latitude":"51.549516","street":{"id":968831,"name":"On or near Dalston Lane"},"longitude":"-0.057282"},"context":"","outcome_status":null,"persistent_id":"","id":74277300,"location_subtype":"","month":"2019-05"},{"category":"anti-social-behaviour","location_type":"Force","location":{"latitude":"51.549516","street":{"id":968831,"name":"On or near Dalston Lane"},"longitude":"-0.057282"},"context":"","outcome_status":null,"persistent_id":"","id":74277301,"location_subtype":"","month":"2019-05"},{"category":"anti-social-behaviour","location_type":"Force","location":{"latitude":"51.544592","street":{"id":968850,"name":"On or near Reading Lane"},"longitude":"-0.057535"},"context":"","outcome_status":null,"persistent_id":"","id":74277302,"location_subtype":"","month":"2019-05"},