[{"category":"anti-social-behaviour","location_type":"Force","location":{"latitude":"51.406275","street":{"id":933739,"name":"On or near Bonner Hill Road"},"longitude":"-0.288796"},"context":"","outcome_status":null,"persistent_id":"","id":74275287,"location_subtype":"","month":"2019-05"},{"category":"anti-social-behaviour","location_type":"Force","location":{"latitude":"51.407262","street":{"id":933625,"name":"On or near Rowlls Road"},"longitude":"-0.290499"},"context":"","outcome_status":null,"persistent_id":"","id":74275290,"location_subtype":"","month":"2019-05"},{"category":"anti-social-behaviour","location_type":"Force","location":{"latitude":"51.411208","street":{"id":933675,"name":"On or near Supermarket"},"longitude":"-0.290381"},"context":"","outcome_status":null,"persistent_id":"","id":74275297,"location_subtype":"","month":"2019-05"},{"category":"anti-social-behaviour","location_type":"Force","location":{"latitude":"51.420043","street":{"id":934368,"name":"On or near Wyndham Road"},"longitude":"-0.291288"},"context":"","outcome_status":null,"persistent_id":"","id":74275299,"location_subtype":"","month":"2019-05"},{"category":"anti-social-behaviour","location_type":"Force","location":{"latitude":"51.404012","street":{"id":933737,"name":"On or near Chapel Mill Road"},"longitude":"-0.292691"},"context":"","outcome_status":null,"persistent_id":"","id":74275301,"location_subtype":"","month":"2019-05"},{"category":"anti-social-behaviour","location_type":"Force","location":{"latitude":"51.404012","street":{"id":933737,"name":"On or near Chapel Mill Road"},"longitude":"-0.292691"},"context":"","outcome_status":null,"persistent_id":"","id":74275302,"location_subtype":"","month":"2019-05"},{"category":"anti-social-behaviour","location_type":"Force","location":{"latitude":"51.410161","street":{"id":933658,"name":"On or near Church Road"},"longitude":"-0.293238"},"context":"","outcome_status":null,"persistent_id":"","id":74275310,"location_subtype":"","month":"2019-05"},{"category":"anti-social-behaviour","location_type":"Force","location":{"latitude":"51.418357","street":{"id":934435,"name":"On or near Cross Road"},"longitude":"-0.292832"},"context":"","outcome_status":null,"persistent_id":"","id":74275313,"location_subtype":"","month":"2019-05"},{"category":"anti-social-behaviour","location_type":"Force","location":{"latitude":"51.404420","street":{"id":933732,"name":"On or near Herbert Road"},"longitude":"-0.295450"},"context":"","outcome_status":null,"persistent_id":"","id":74275321,"location_subtype":"","month":"2019-05"},{"category":"anti-social-behaviour","location_type":"Force","location":{"latitude":"51.408472","street":{"id":933611,"name":"On or near Sports\/recreation Area"},"longitude":"-0.296421"},"context":"","outcome_status":null,"persistent_id":"","id":74275331,"location_subtype":"","month":"2019-05"},{"category":"anti-social-behaviour","location_type":"Force","location":{"latitude":"51.416327","street":{"id":934412,"name":"On or near Hardings Close"},"longitude":"-0.296115"},"context":"","outcome_status":null,"persistent_id":"","id":74275332,"location_subtype":"","month":"2019-05"},{"category":"anti-social-behaviour","location_type":"Force","location":{"latitude":"51.416327","street":{"id":934412,"name":"On or near Hardings Close"},"longitude":"-0.296115"},"context":"","outcome_status":null,"persistent_id":"","id":74275333,"location_subtype":"","month":"2019-05"},{"category":"anti-social-behaviour","location_type":"Force","location":{"latitude":"51.404505","street":{"id":933730,"name":"On or near Horace Road"},"longitude":"-0.296310"},"context":"","outcome_status":null,"persistent_id":"","id":74275334,"location_subtype":"","month":"2019-05"},{"category":"anti-social-behaviour","location_type":"Force","location":{"latitude":"51.409326","street":{"id":933821,"name":"On or near Eden Street"},"longitude":"-0.303191"},"context":"","outcome_status":null,"persistent_id":"","id":74275399,"location_subtype":"","month":"2019-05"},{"category":"anti-social-behaviour","location_type":"Force","location":{"latitude":"51.406030","street":{"id":933602,"name":"On or near Fleetwood Square"},"longitude":"-0.277634"},"context":"","outcome_status":null,"persistent_id":"","id":74273201,"location_subtype":"","month":"2019-05"},{"category":"anti-social-behaviour","location_type":"Force","location":{"latitude":"51.423349","street":{"id":934473,"name":"On or near Astor Close"},"longitude":"-0.276968"},"context":"","outcome_status":null,"persistent_id":"","id":74273202,"location_subtype":"","month":"2019-05"},{"category":"anti-social-behaviour","location_type":"Force","location":{"latitude":"51.419912","street":{"id":934273,"name":"On or near Bank Lane"},"longitude":"-0.303345"},"context":"","outcome_status":null,"persistent_id":"","id":74278597,"location_subtype":"","month":"2019-05"},{"category":"anti-social-behaviour","location_type":"Force","location":{"latitude":"51.409184","street":{"id":933844,"name":"On or near Shopping Area"},"longitude":"-0.304562"},"context":"","outcome_status":null,"persistent_id":"","id":74278598,"location_subtype":"","month":"2019-05"},{"category":"anti-social-behaviour","location_type":"Force","location":{"latitude":"51.408383","street":{"id":933781,"name":"On or near Parking Area"},"longitude":"-0.304563"},"context":"","outcome_status":null,"persistent_id":"","id":74278599,"location_subtype":"","month":"2019-05"},{"category":"anti-social-behaviour","location_type":"Force","location":{"latitude":"51.408383","street":{"id":933781,"name":"On or near Parking Area"},"longitude":"-0.304563"},"context":"","outcome_status":null,"persistent_id":"","id":74278600,"location_subtype":"","month":"2019-05"},{"category":"anti-social-behaviour","location_type":"Force","location":{"latitude":"51.415431","street":{"id":933773,"name":"On or near Parking Area"},"longitude":"-0.305007"},"context":"","outcome_status":null,"persistent_id":"","id":74278601,"location_subtype":"","month":"2019-05"},{"category":"anti-social-behaviour","location_type":"Force","location":{"latitude":"51.415431","street":{"id":933773,"name":"On or near Parking Area"},"longitude":"-0.305007"},"context":"","outcome_status":null,"persistent_id":"","id":74278602,"location_subtype":"","month":"2019-05"},{"category":"anti-social-behaviour","location_type":"Force","location":{"latitude":"51.419912","street":{"id":934273,"name":"On or near Bank Lane"},"longitude":"-0.303345"},"context":"","outcome_status":null,"persistent_id":"","id":74278603,"location_subtype":"","month":"2019-05"},{"category":"anti-social-behaviour","location_type":"Force","location":{"latitude":"51.419912","street":{"id":934273,"name":"On or near Bank Lane"},"longitude":"-0.303345"},"context":"","outcome_status":null,"persistent_id":"","id":74278604,"location_subtype":"","month":"2019-05"},{"category":"anti-social-behaviour","location_type":"Force","location":{"latitude":"51.409507","street":{"id":933793,"name":"On or near Union Street"},"longitude":"-0.305140"},"context":"","outcome_status":null,"persistent_id":"","id":74278605,"location_subtype":"","month":"2019-05"},{"category":"anti-social-behaviour","location_type":"Force","location":{"latitude":"51.414006","street":{"id":933800,"name":"On or near Skerne Road"},"longitude":"-0.305361"},"context":"","outcome_status":null,"persistent_id":"","id":74278609,"location_subtype":"","month":"2019-05"},{"category":"anti-social-behaviour","location_type":"Force","location":{"latitude":"51.409905","street":{"id":933836,"name":"On or near Nightclub"},"longitude":"-0.305341"},"context":"","outcome_status":null,"persistent_id":"","id":74278611,"location_subtype":"","month":"2019-05"},{"category":"anti-social-behaviour","location_type":"Force","location":{"latitude":"51.409905","street":{"id":933836,"name":"On or near Nightclub"},"longitude":"-0.305341"},"context":"","outcome_status":null,"persistent_id":"","id":74278612,"location_subtype":"","month":"2019-05"},{"category":"anti-social-behaviour","location_type":"Force","location":{"latitude":"51.418919","street":{"id":934348,"name":"On or near Woodside Road"},"longitude":"-0.303094"},"context":"","outcome_status":null,"persistent_id":"","id":74278614,"location_subtype":"","month":"2019-05"},{"category":"anti-social-behaviour","location_type":"Force","location":{"latitude":"51.413499","street":{"id":933824,"name":"On or near Down Hall Road"},"longitude":"-0.306358"},"context":"","outcome_status":null,"persistent_id":"","id":74278625,"location_subtype":"","month":"2019-05"},{"category":"anti-social-behaviour","location_type":"Force","location":{"latitude":"51.416688","street":{"id":934414,"name":"On or near Gibbon Road"},"longitude":"-0.298057"},"context":"","outcome_status":null,"persistent_id":"","id":74275348,"location_subtype":"","month":"2019-05"},{"category":"anti-social-behaviour","location_type":"Force","location":{"latitude":"51.412296","street":{"id":933655,"name":"On or near Cromwell Road"},"longitude":"-0.298422"},"context":"","outcome_status":null,"persistent_id":"","id":74275347,"location_subtype":"","month":"2019-05"},{"category":"anti-social-behaviour","location_type":"Force","location":{"latitude":"51.409766","street":{"id":933648,"name":"On or near Fairfield East"},"longitude":"-0.298199"},"context":"","outcome_status":null,"persistent_id":"","id":74275350,"location_subtype":"","month":"2019-05"},{"category":"anti-social-behaviour","location_type":"Force","location":{"latitude":"51.412296","street":{"id":933655,"name":"On or near Cromwell Road"},"longitude":"-0.298422"},"context":"","outcome_status":null,"persistent_id":"","id":74275346,"location_subtype":"","month":"2019-05"},{"category":"anti-social-behaviour","location_type":"Force","location":{"latitude":"51.412296","street":{"id":933655,"name":"On or near Cromwell Road"},"longitude":"-0.298422"},"context":"","outcome_status":null,"persistent_id":"","id":74275345,"location_subtype":"","month":"2019-05"},{"category":"anti-social-behaviour","location_type":"Force","location":{"latitude":"51.401842","street":{"id":929876,"name":"On or near Grove Close"},"longitude":"-0.296826"},"context":"","outcome_status":null,"persistent_id":"","id":74275342,"location_subtype":"","month":"2019-05"},{"category":"anti-social-behaviour","location_type":"Force","location":{"latitude":"51.405896","street":{"id":933718,"name":"On or near Jack Goodchild Way"},"longitude":"-0.281362"},"context":"","outcome_status":null,"persistent_id":"","id":74275265,"location_subtype":"","month":"2019-05"},{"category":"anti-social-behaviour","location_type":"Force","location":{"latitude":"51.409326","street":{"id":933821,"name":"On or near Eden Street"},"longitude":"-0.303191"},"context":"","outcome_status":null,"persistent_id":"","id":74275401,"location_subtype":"","month":"2019-05"},{"category":"anti-social-behaviour","location_type":"Force","location":{"latitude":"51.421952","street":{"id":934364,"name":"On or near Haygreen Close"},"longitude":"-0.279782"},"context":"","outcome_status":null,"persistent_id":"","id":74275254,"location_subtype":"","month":"2019-05"},{"category":"anti-social-behaviour","location_type":"Force","location":{"latitude":"51.421952","street":{"id":934364,"name":"On or near Haygreen Close"},"longitude":"-0.279782"},"context":"","outcome_status":null,"persistent_id":"","id":74275257,"location_subtype":"","month":"2019-05"},{"category":"anti-social-behaviour","location_type":"Force","location":{"latitude":"51.421952","street":{"id":934364,"name":"On or near Haygreen Close"},"longitude":"-0.279782"},"context":"","outcome_status":null,"persistent_id":"","id":74275258,"location_subtype":"","month":"2019-05"},{"category":"anti-social-behaviour","location_type":"Force","location":{"latitude":"51.414776","street":{"id":933679,"name":"On or near Parking Area"},"longitude":"-0.281015"},"context":"","outcome_status":null,"persistent_id":"","id":74275263,"location_subtype":"","month":"2019-05"},{"category":"anti-social-behaviour","location_type":"Force","location":{"latitude":"51.414776","street":{"id":933679,"name":"On or near Parking Area"},"longitude":"-0.281015"},"context":"","outcome_status":null,"persistent_id":"","id":74275264,"location_subtype":"","month":"2019-05"},{"category":"anti-social-behaviour","location_type":"Force","location":{"latitude":"51.407648","street":{"id":933683,"name":"On or near Waters Road"},"longitude":"-0.281872"},"context":"","outcome_status":null,"persistent_id":"","id":74275267,"location_subtype":"","month":"2019-05"},{"category":"anti-social-behaviour","location_type":"Force","location":{"latitude":"51.412895","street":{"id":933697,"name":"On or near Coombe Road"},"longitude":"-0.282164"},"context":"","outcome_status":null,"persistent_id":"","id":74275268,"location_subtype":"","month":"2019-05"},{"category":"anti-social-behaviour","location_type":"Force","location":{"latitude":"51.416373","street":{"id":934441,"name":"On or near Queen's Road"},"longitude":"-0.284435"},"context":"","outcome_status":null,"persistent_id":"","id":74275271,"location_subtype":"","month":"2019-05"},{"category":"anti-social-behaviour","location_type":"Force","location":{"latitude":"51.410465","street":{"id":933706,"name":"On or near Neville Road"},"longitude":"-0.283880"},"context":"","outcome_status":null,"persistent_id":"","id":74275274,"location_subtype":"","month":"2019-05"},{"category":"anti-social-behaviour","location_type":"Force","location":{"latitude":"51.410995","street":{"id":933661,"name":"On or near Chatham Road"},"longitude":"-0.288706"},"context":"","outcome_status":null,"persistent_id":"","id":74275289,"location_subtype":"","month":"2019-05"},{"category":"anti-social-behaviour","location_type":"Force","location":{"latitude":"51.408383","street":{"id":933716,"name":"On or near Burritt Road"},"longitude":"-0.286000"},"context":"","outcome_status":null,"persistent_id":"","id":74275276,"location_subtype":"","month":"2019-05"},{"category":"anti-social-behaviour","location_type":"Force","location":{"latitude":"51.407405","street":{"id":933704,"name":"On or near Stapleford Close"},"longitude":"-0.286137"},"context":"","outcome_status":null,"persistent_id":"","id":74275278,"location_subtype":"","month":"2019-05"},{"category":"anti-social-behaviour","location_type":"Force","location":{"latitude":"51.407682","street":{"id":933715,"name":"On or near Cambridge Grove Road"},"longitude":"-0.287220"},"context":"","outcome_status":null,"persistent_id":"","id":74275282,"location_subtype":"","month":"2019-05"},{"category":"anti-social-behaviour","location_type":"Force","location":{"latitude":"51.417811","street":{"id":934430,"name":"On or near Rosewood Court"},"longitude":"-0.288092"},"context":"","outcome_status":null,"persistent_id":"","id":74275286,"location_subtype":"","month":"2019-05"},{"category":"anti-social-behaviour","location_type":"Force","location":{"latitude":"51.406275","street":{"id":933739,"name":"On or near Bonner Hill Road"},"longitude":"-0.288796"},"context":"","outcome_status":null,"persistent_id":"","id":74275288,"location_subtype":"","month":"2019-05"},{"category":"anti-social-behaviour","location_type":"Force","location":{"latitude":"51.415771","street":{"id":934347,"name":"On or near Supermarket"},"longitude":"-0.303024"},"context":"","outcome_status":null,"persistent_id":"","id":74275397,"location_subtype":"","month":"2019-05"},{"category":"anti-social-behaviour","location_type":"Force","location":{"latitude":"51.413511","street":{"id":933798,"name":"On or near Sopwith Way"},"longitude":"-0.301598"},"context":"","outcome_status":null,"persistent_id":"","id":74275383,"location_subtype":"","month":"2019-05"},{"category":"anti-social-behaviour","location_type":"Force","location":{"latitude":"51.408943","street":{"id":933714,"name":"On or near Cambridge Road"},"longitude":"-0.286755"},"context":"","outcome_status":null,"persistent_id":"","id":74275281,"location_subtype":"","month":"2019-05"},{"category":"anti-social-behaviour","location_type":"Force","location":{"latitude":"51.411857","street":{"id":933846,"name":"On or near Supermarket"},"longitude":"-0.300998"},"context":"","outcome_status":null,"persistent_id":"","id":74275371,"location_subtype":"","month":"2019-05"},{"category":"anti-social-behaviour","location_type":"Force","location":{"latitude":"51.414063","street":{"id":933826,"name":"On or near Cowleaze Road"},"longitude":"-0.299334"},"context":"","outcome_status":null,"persistent_id":"","id":74275365,"location_subtype":"","month":"2019-05"},{"category":"anti-social-behaviour","location_type":"Force","location":{"latitude":"51.410522","street":{"id":933647,"name":"On or near Fairfield North"},"longitude":"-0.298847"},"context":"","outcome_status":null,"persistent_id":"","id":74275356,"location_subtype":"","month":"2019-05"},{"category":"anti-social-behaviour","location_type":"Force","location":{"latitude":"51.407682","street":{"id":933715,"name":"On or near Cambridge Grove Road"},"longitude":"-0.287220"},"context":"","outcome_status":null,"persistent_id":"","id":74275284,"location_subtype":"","month":"2019-05"},{"category":"anti-social-behaviour","location_type":"Force","location":{"latitude":"51.411857","street":{"id":933846,"name":"On or near Supermarket"},"longitude":"-0.300998"},"context":"","outcome_status":null,"persistent_id":"","id":74275373,"location_subtype":"","month":"2019-05"},{"category":"anti-social-behaviour","location_type":"Force","location":{"latitude":"51.411208","street":{"id":933675,"name":"On or near Supermarket"},"longitude":"-0.290381"},"context":"","outcome_status":null,"persistent_id":"","id":74275296,"location_subtype":"","month":"2019-05"},{"category":"anti-social-behaviour","location_type":"Force","location":{"latitude":"51.409326","street":{"id":933821,"name":"On or near Eden Street"},"longitude":"-0.303191"},"context":"","outcome_status":null,"persistent_id":"","id":74275400,"location_subtype":"","month":"2019-05"},{"category":"anti-social-behaviour","location_type":"Force","location":{"latitude":"51.414192","street":{"id":933801,"name":"On or near Seven Kings Way"},"longitude":"-0.303284"},"context":"","outcome_status":null,"persistent_id":"","id":74275398,"location_subtype":"","month":"2019-05"},{"category":"anti-social-behaviour","location_type":"Force","location":{"latitude":"51.415771","street":{"id":934347,"name":"On or near Supermarket"},"longitude":"-0.303024"},"context":"","outcome_status":null,"persistent_id":"","id":74275396,"location_subtype":"","month":"2019-05"},{"category":"anti-social-behaviour","location_type":"Force","location":{"latitude":"51.415771","street":{"id":934347,"name":"On or near Supermarket"},"longitude":"-0.303024"},"context":"","outcome_status":null,"persistent_id":"","id":74275395,"location_subtype":"","month":"2019-05"},{"category":"anti-social-behaviour","location_type":"Force","location":{"latitude":"51.415771","street":{"id":934347,"name":"On or near Supermarket"},"longitude":"-0.303024"},"context":"","outcome_status":null,"persistent_id":"","id":74275394,"location_subtype":"","month":"2019-05"},{"category":"anti-social-behaviour","location_type":"Force","location":{"latitude":"51.409265","street":{"id":933810,"name":"On or near Lady Booth Road"},"longitude":"-0.302115"},"context":"","outcome_status":null,"persistent_id":"","id":74275382,"location_subtype":"","month":"2019-05"},{"category":"anti-social-behaviour","location_type":"Force","location":{"latitude":"51.418357","street":{"id":934435,"name":"On or near Cross Road"},"longitude":"-0.292832"},"context":"","outcome_status":null,"persistent_id":"","id":74275312,"location_subtype":"","month":"2019-05"},{"category":"anti-social-behaviour","location_type":"Force","location":{"latitude":"51.415771","street":{"id":934347,"name":"On or near Supermarket"},"longitude":"-0.303024"},"context":"","outcome_status":null,"persistent_id":"","id":74275393,"location_subtype":"","month":"2019-05"},{"category":"anti-social-behaviour","location_type":"Force","location":{"latitude":"51.415771","street":{"id":934347,"name":"On or near Supermarket"},"longitude":"-0.303024"},"context":"","outcome_status":null,"persistent_id":"","id":74275392,"location_subtype":"","month":"2019-05"},{"category":"anti-social-behaviour","location_type":"Force","location":{"latitude":"51.415771","street":{"id":934347,"name":"On or near Supermarket"},"longitude":"-0.303024"},"context":"","outcome_status":null,"persistent_id":"","id":74275391,"location_subtype":"","month":"2019-05"},{"category":"anti-social-behaviour","location_type":"Force","location":{"latitude":"51.405892","street":{"id":933852,"name":"On or near Watersplash Close"},"longitude":"-0.302656"},"context":"","outcome_status":null,"persistent_id":"","id":74275384,"location_subtype":"","month":"2019-05"},{"category":"anti-social-behaviour","location_type":"Force","location":{"latitude":"51.407915","street":{"id":933806,"name":"On or near Orchard Road"},"longitude":"-0.301374"},"context":"","outcome_status":null,"persistent_id":"","id":74275381,"location_subtype":"","month":"2019-05"},{"category":"anti-social-behaviour","location_type":"Force","location":{"latitude":"51.410465","street":{"id":933790,"name":"On or near Weston Park"},"longitude":"-0.301150"},"context":"","outcome_status":null,"persistent_id":"","id":74275378,"location_subtype":"","month":"2019-05"},{"category":"anti-social-behaviour","location_type":"Force","location":{"latitude":"51.409810","street":{"id":933783,"name":"On or near Parking Area"},"longitude":"-0.301232"},"context":"","outcome_status":null,"persistent_id":"","id":74275377,"location_subtype":"","month":"2019-05"},{"category":"anti-social-behaviour","location_type":"Force","location":{"latitude":"51.418357","street":{"id":934435,"name":"On or near Cross Road"},"longitude":"-0.292832"},"context":"","outcome_status":null,"persistent_id":"","id":74275314,"location_subtype":"","month":"2019-05"},{"category":"anti-social-behaviour","location_type":"Force","location":{"latitude":"51.411857","street":{"id":933846,"name":"On or near Supermarket"},"longitude":"-0.300998"},"context":"","outcome_status":null,"persistent_id":"","id":74275372,"location_subtype":"","month":"2019-05"},{"category":"anti-social-behaviour","location_type":"Force","location":{"latitude":"51.411857","street":{"id":933846,"name":"On or near Supermarket"},"longitude":"-0.300998"},"context":"","outcome_status":null,"persistent_id":"","id":74275370,"location_subtype":"","month":"2019-05"},{"category":"anti-social-behaviour","location_type":"Force","location":{"latitude":"51.409639","street":{"id":933633,"name":"On or near Minerva Road"},"longitude":"-0.295644"},"context":"","outcome_status":null,"persistent_id":"","id":74275325,"location_subtype":"","month":"2019-05"},{"category":"anti-social-behaviour","location_type":"Force","location":{"latitude":"51.408618","street":{"id":933809,"name":"On or near Littlefield Close"},"longitude":"-0.300888"},"context":"","outcome_status":null,"persistent_id":"","id":74275369,"location_subtype":"","month":"2019-05"},{"category":"anti-social-behaviour","location_type":"Force","location":{"latitude":"51.408618","street":{"id":933809,"name":"On or near Littlefield Close"},"longitude":"-0.300888"},"context":"","outcome_status":null,"persistent_id":"","id":74275368,"location_subtype":"","month":"2019-05"},{"category":"anti-social-behaviour","location_type":"Force","location":{"latitude":"51.411435","street":{"id":933828,"name":"On or near Clarence Street"},"longitude":"-0.300438"},"context":"","outcome_status":null,"persistent_id":"","id":74275364,"location_subtype":"","month":"2019-05"},{"category":"anti-social-behaviour","location_type":"Force","location":{"latitude":"51.411435","street":{"id":933828,"name":"On or near Clarence Street"},"longitude":"-0.300438"},"context":"","outcome_status":null,"persistent_id":"","id":74275363,"location_subtype":"","month":"2019-05"},{"category":"anti-social-behaviour","location_type":"Force","location":{"latitude":"51.420761","street":{"id":934363,"name":"On or near Heatherdale Close"},"longitude":"-0.282603"},"context":"","outcome_status":null,"persistent_id":"","id":74275269,"location_subtype":"","month":"2019-05"},{"category":"anti-social-behaviour","location_type":"Force","location":{"latitude":"51.401617","street":{"id":929877,"name":"On or near Geneva Road"},"longitude":"-0.299307"},"context":"","outcome_status":null,"persistent_id":"","id":74275359,"location_subtype":"","month":"2019-05"},{"category":"anti-social-behaviour","location_type":"Force","location":{"latitude":"51.401617","street":{"id":929877,"name":"On or near Geneva Road"},"longitude":"-0.299307"},"context":"","outcome_status":null,"persistent_id":"","id":74275358,"location_subtype":"","month":"2019-05"},{"category":"anti-social-behaviour","location_type":"Force","location":{"latitude":"51.408460","street":{"id":933674,"name":"On or near Sports\/recreation Area"},"longitude":"-0.298665"},"context":"","outcome_status":null,"persistent_id":"","id":74275357,"location_subtype":"","month":"2019-05"},{"category":"anti-social-behaviour","location_type":"Force","location":{"latitude":"51.410522","street":{"id":933647,"name":"On or near Fairfield North"},"longitude":"-0.298847"},"context":"","outcome_status":null,"persistent_id":"","id":74275355,"location_subtype":"","month":"2019-05"},{"category":"anti-social-behaviour","location_type":"Force","location":{"latitude":"51.410522","street":{"id":933647,"name":"On or near Fairfield North"},"longitude":"-0.298847"},"context":"","outcome_status":null,"persistent_id":"","id":74275354,"location_subtype":"","month":"2019-05"},{"category":"anti-social-behaviour","location_type":"Force","location":{"latitude":"51.405886","street":{"id":933576,"name":"On or near Elm Road"},"longitude":"-0.265432"},"context":"","outcome_status":null,"persistent_id":"","id":74273176,"location_subtype":"","month":"2019-05"},{"category":"anti-social-behaviour","location_type":"Force","location":{"latitude":"51.410788","street":{"id":933632,"name":"On or near Old London Road"},"longitude":"-0.298607"},"context":"","outcome_status":null,"persistent_id":"","id":74275352,"location_subtype":"","month":"2019-05"},{"category":"anti-social-behaviour","location_type":"Force","location":{"latitude":"51.407665","street":{"id":933646,"name":"On or near Fairfield South"},"longitude":"-0.297774"},"context":"","outcome_status":null,"persistent_id":"","id":74275344,"location_subtype":"","month":"2019-05"},{"category":"anti-social-behaviour","location_type":"Force","location":{"latitude":"51.407453","street":{"id":933652,"name":"On or near Dudley Road"},"longitude":"-0.296215"},"context":"","outcome_status":null,"persistent_id":"","id":74275336,"location_subtype":"","month":"2019-05"},{"category":"anti-social-behaviour","location_type":"Force","location":{"latitude":"51.408472","street":{"id":933556,"name":"On or near Barton Green"},"longitude":"-0.263925"},"context":"","outcome_status":null,"persistent_id":"","id":74273173,"location_subtype":"","month":"2019-05"},{"category":"anti-social-behaviour","location_type":"Force","location":{"latitude":"51.418725","street":{"id":934491,"name":"On or near Edgecombe Close"},"longitude":"-0.265277"},"context":"","outcome_status":null,"persistent_id":"","id":74273174,"location_subtype":"","month":"2019-05"},{"category":"anti-social-behaviour","location_type":"Force","location":{"latitude":"51.403425","street":{"id":933594,"name":"On or near Northcote Road"},"longitude":"-0.268012"},"context":"","outcome_status":null,"persistent_id":"","id":74273182,"location_subtype":"","month":"2019-05"},{"category":"anti-social-behaviour","location_type":"Force","location":{"latitude":"51.402079","street":{"id":933603,"name":"On or near Dunbar Road"},"longitude":"-0.271255"},"context":"","outcome_status":null,"persistent_id":"","id":74273184,"location_subtype":"","month":"2019-05"},{"category":"anti-social-behaviour","location_type":"Force","location":{"latitude":"51.402079","street":{"id":933603,"name":"On or near Dunbar Road"},"longitude":"-0.271255"},"context":"","outcome_status":null,"persistent_id":"","id":74273185,"location_subtype":"","month":"2019-05"},{"category":"anti-social-behaviour","location_type":"Force","location":{"latitude":"51.408396","street":{"id":933505,"name":"On or near Myrtle Grove"},"longitude":"-0.270355"},"context":"","outcome_status":null,"persistent_id":"","id":74273187,"location_subtype":"","month":"2019-05"},{"category":"anti-social-behaviour","location_type":"Force","location":{"latitude":"51.411433","street":{"id":933510,"name":"On or near High Drive"},"longitude":"-0.270183"},"context":"","outcome_status":null,"persistent_id":"","id":74273188,"location_subtype":"","month":"2019-05"},{"category":"anti-social-behaviour","location_type":"Force","location":{"latitude":"51.408482","street":{"id":933495,"name":"On or near The Triangle"},"longitude":"-0.274335"},"context":"","outcome_status":null,"persistent_id":"","id":74273192,"location_subtype":"","month":"2019-05"},{"category":"anti-social-behaviour","location_type":"Force","location":{"latitude":"51.402713","street":{"id":933606,"name":"On or near California Road"},"longitude":"-0.275860"},"context":"","outcome_status":null,"persistent_id":"","id":74273193,"location_subtype":"","month":"2019-05"},{"category":"anti-social-behaviour","location_type":"Force","location":{"latitude":"51.406499","street":{"id":933504,"name":"On or near Norbiton Common Road"},"longitude":"-0.277070"},"context":"","outcome_status":null,"persistent_id":"","id":74273194,"location_subtype":"","month":"2019-05"},{"category":"anti-social-behaviour","location_type":"Force","location":{"latitude":"51.406499","street":{"id":933504,"name":"On or near Norbiton Common Road"},"longitude":"-0.277070"},"context":"","outcome_status":null,"persistent_id":"","id":74273195,"location_subtype":"","month":"2019-05"},{"category":"anti-social-behaviour","location_type":"Force","location":{"latitude":"51.409879","street":{"id":933509,"name":"On or near Kenley Road"},"longitude":"-0.277000"},"context":"","outcome_status":null,"persistent_id":"","id":74273196,"location_subtype":"","month":"2019-05"},{"category":"bicycle-theft","location_type":"Force","location":{"latitude":"51.410257","street":{"id":933833,"name":"On or near Bus\/coach Station"},"longitude":"-0.299791"},"context":"","outcome_status":{"category":"Status update unavailable","date":"2019-09"},"persistent_id":"5ffd5b9680b15dbc3accaaa03a255d4a2386aaaed9fd0e3f6fc14e46f5f694c8","id":74310158,"location_subtype":"","month":"2019-05"},{"category":"bicycle-theft","location_type":"Force","location":{"latitude":"51.410726","street":{"id":933794,"name":"On or near Thames Street"},"longitude":"-0.306762"},"context":"","outcome_status":{"category":"Status update unavailable","date":"2019-09"},"persistent_id":"3c306fc439ebc2182efc86b344f1a939d7d1e7a69ffb8b7ed3b10f04e805225c","id":74330243,"location_subtype":"","month":"2019-05"},{"category":"bicycle-theft","location_type":"Force","location":{"latitude":"51.411435","street":{"id":933828,"name":"On or near Clarence Street"},"longitude":"-0.300438"},"context":"","outcome_status":{"category":"Status update unavailable","date":"2019-09"},"persistent_id":"04066954685f24b82f7dc95655546a922b5ae5a73e0ddf5b0cc2911642c5f91d","id":74341275,"location_subtype":"","month":"2019-05"},{"category":"bicycle-theft","location_type":"Force","location":{"latitude":"51.411565","street":{"id":933789,"name":"On or near Wood Street"},"longitude":"-0.305653"},"context":"","outcome_status":{"category":"Status update unavailable","date":"2019-09"},"persistent_id":"c58fa70d305ca25b89d949edf92d220162534a32208701e9540e1fb45dc99014","id":74341293,"location_subtype":"","month":"2019-05"},{"category":"bicycle-theft","location_type":"Force","location":{"latitude":"51.410262","street":{"id":933843,"name":"On or near Shopping Area"},"longitude":"-0.303861"},"context":"","outcome_status":{"category":"Status update unavailable","date":"2019-09"},"persistent_id":"77a343fc21c17b91364d779045ef378a43399b42ea50983deba1857e78282027","id":74329811,"location_subtype":"","month":"2019-05"},{"category":"bicycle-theft","location_type":"Force","location":{"latitude":"51.409905","street":{"id":933836,"name":"On or near Nightclub"},"longitude":"-0.305341"},"context":"","outcome_status":{"category":"Status update unavailable","date":"2019-09"},"persistent_id":"00e9cad3aa1334671d92dc23f6b38fbe92ffe311fb50d5a8bb5299a66480d827","id":74315305,"location_subtype":"","month":"2019-05"},{"category":"bicycle-theft","location_type":"Force","location":{"latitude":"51.411435","street":{"id":933828,"name":"On or near Clarence Street"},"longitude":"-0.300438"},"context":"","outcome_status":{"category":"Status update unavailable","date":"2019-09"},"persistent_id":"cbfb02aa7cdc23eadceebaf04e1d50ea6e2c89953e7bb94a7338567e80fad6d3","id":74345181,"location_subtype":"","month":"2019-05"},{"category":"bicycle-theft","location_type":"Force","location":{"latitude":"51.411565","street":{"id":933789,"name":"On or near Wood Street"},"longitude":"-0.305653"},"context":"","outcome_status":{"category":"Status update unavailable","date":"2019-09"},"persistent_id":"c6c7f8196454cc13e7ac049ee368997cba132e187a91608fda9aa6d8a546645f","id":74315058,"location_subtype":"","month":"2019-05"},{"category":"bicycle-theft","location_type":"Force","location":{"latitude":"51.411565","street":{"id":933789,"name":"On or near Wood Street"},"longitude":"-0.305653"},"context":"","outcome_status":{"category":"Status update unavailable","date":"2019-09"},"persistent_id":"c6c7f8196454cc13e7ac049ee368997cba132e187a91608fda9aa6d8a546645f","id":74315057,"location_subtype":"","month":"2019-05"},{"category":"bicycle-theft","location_type":"Force","location":{"latitude":"51.410726","street":{"id":933794,"name":"On or near Thames Street"},"longitude":"-0.306762"},"context":"","outcome_status":{"category":"Status update unavailable","date":"2019-09"},"persistent_id":"772871dbacaa38c27110f841379c679fdd84c48fde972b71d0ab27c0c8c5898d","id":74295461,"location_subtype":"","month":"2019-05"},{"category":"bicycle-theft","location_type":"Force","location":{"latitude":"51.409184","street":{"id":933844,"name":"On or near Shopping Area"},"longitude":"-0.304562"},"context":"","outcome_status":{"category":"Status update unavailable","date":"2019-09"},"persistent_id":"4b0d40331326b96c30265c14517f4dbc95b65825423cfcfc12b82575d6c5e85f","id":74313421,"location_subtype":"","month":"2019-05"},{"category":"bicycle-theft","location_type":"Force","location":{"latitude":"51.411565","street":{"id":933789,"name":"On or near Wood Street"},"longitude":"-0.305653"},"context":"","outcome_status":{"category":"Status update unavailable","date":"2019-09"},"persistent_id":"472b2ad1967c31c931739a52c734c8ef151ae898e2316be57f0394aae82e707f","id":74294641,"location_subtype":"","month":"2019-05"},{"category":"bicycle-theft","location_type":"Force","location":{"latitude":"51.408737","street":{"id":933831,"name":"On or near Bath Passage"},"longitude":"-0.306002"},"context":"","outcome_status":{"category":"Offender given a caution","date":"2019-06"},"persistent_id":"6c61afd1d1a21eba38e2fc60ae1aec7d59564e9a082f35dab1b1d579695be72b","id":74294491,"location_subtype":"","month":"2019-05"},{"category":"bicycle-theft","location_type":"Force","location":{"latitude":"51.409507","street":{"id":933793,"name":"On or near Union Street"},"longitude":"-0.305140"},"context":"","outcome_status":{"category":"Status update unavailable","date":"2019-09"},"persistent_id":"0cf34c10b67dfb230d6f3e1cc5fc1a14e99bb5105310e8090091f58add0272dc","id":74361960,"location_subtype":"","month":"2019-05"},{"category":"bicycle-theft","location_type":"Force","location":{"latitude":"51.414276","street":{"id":933717,"name":"On or near Hospital"},"longitude":"-0.283105"},"context":"","outcome_status":{"category":"Status update unavailable","date":"2019-09"},"persistent_id":"240e06d105dd7b2f2caba79ef8b6b5a2050ce12cebf99111b2764944e5d73796","id":74297644,"location_subtype":"","month":"2019-05"},{"category":"bicycle-theft","location_type":"Force","location":{"latitude":"51.411010","street":{"id":933829,"name":"On or near Clarence Street"},"longitude":"-0.305832"},"context":"","outcome_status":{"category":"Status update unavailable","date":"2019-09"},"persistent_id":"2e47d3ca8ed7e8b2b1ba25388c39233cf79e133fe56bb10dc01701543a86b51d","id":74360614,"location_subtype":"","month":"2019-05"},{"category":"bicycle-theft","location_type":"BTP","location":{"latitude":"51.412300","street":{"id":1488003,"name":"Norbiton (station)"},"longitude":"-0.284182"},"context":"","outcome_status":{"category":"Status update unavailable","date":"2019-09"},"persistent_id":"","id":88717272,"location_subtype":"STATION","month":"2019-05"},{"category":"bicycle-theft","location_type":"Force","location":{"latitude":"51.414959","street":{"id":933804,"name":"On or near Richmond Road"},"longitude":"-0.300969"},"context":"","outcome_status":{"category":"Status update unavailable","date":"2019-09"},"persistent_id":"e8e40a68b396f414a1298757862dae285c9eb8d61934c607218ec7ab2eb9407a","id":74297651,"location_subtype":"","month":"2019-05"},{"category":"bicycle-theft","location_type":"Force","location":{"latitude":"51.411894","street":{"id":933819,"name":"On or near Fife Road"},"longitude":"-0.302290"},"context":"","outcome_status":{"category":"Status update unavailable","date":"2019-09"},"persistent_id":"af29497d2cbceb4dda21ca9e340619c56ab0edf03a4f6d934263893157e8975c","id":74344171,"location_subtype":"","month":"2019-05"},{"category":"bicycle-theft","location_type":"Force","location":{"latitude":"51.411010","street":{"id":933829,"name":"On or near Clarence Street"},"longitude":"-0.305832"},"context":"","outcome_status":{"category":"Status update unavailable","date":"2019-09"},"persistent_id":"2e47d3ca8ed7e8b2b1ba25388c39233cf79e133fe56bb10dc01701543a86b51d","id":74360612,"location_subtype":"","month":"2019-05"},{"category":"bicycle-theft","location_type":"Force","location":{"latitude":"51.412554","street":{"id":933803,"name":"On or near Richmond Road"},"longitude":"-0.300713"},"context":"","outcome_status":{"category":"Status update unavailable","date":"2019-09"},"persistent_id":"9db77048d88f01d7d5bd6bff0cf4f178854cc41baf0f213202faa9a76e5a94a0","id":74333601,"location_subtype":"","month":"2019-05"},{"category":"bicycle-theft","location_type":"Force","location":{"latitude":"51.411565","street":{"id":933789,"name":"On or near Wood Street"},"longitude":"-0.305653"},"context":"","outcome_status":{"category":"Status update unavailable","date":"2019-09"},"persistent_id":"8809d229edb5f4ccead78539fcdcc7a02a8d4a520a150be43811e8a679dee832","id":74308641,"location_subtype":"","month":"2019-05"},{"category":"bicycle-theft","location_type":"Force","location":{"latitude":"51.407263","street":{"id":933805,"name":"On or near Palmer Crescent"},"longitude":"-0.302965"},"context":"","outcome_status":{"category":"Status update unavailable","date":"2019-09"},"persistent_id":"c7d756194accd916a7250c4ed9474f1895b0e1336e73ee88e4cbf2bc80ee8a04","id":74305193,"location_subtype":"","month":"2019-05"},{"category":"bicycle-theft","location_type":"Force","location":{"latitude":"51.413838","street":{"id":933791,"name":"On or near Walter Street"},"longitude":"-0.301183"},"context":"","outcome_status":{"category":"Status update unavailable","date":"2019-09"},"persistent_id":"6fa5b162c614e5efbc89bfac1263152e22363b9569ecb40fccf8098d33f44160","id":74337700,"location_subtype":"","month":"2019-05"},{"category":"bicycle-theft","location_type":"Force","location":{"latitude":"51.410726","street":{"id":933794,"name":"On or near Thames Street"},"longitude":"-0.306762"},"context":"","outcome_status":{"category":"Status update unavailable","date":"2019-09"},"persistent_id":"177677a0838fc93fdd7f2bdb2d8e05e9c321dddfcc341df38bb47db44b58645f","id":74296494,"location_subtype":"","month":"2019-05"},{"category":"bicycle-theft","location_type":"Force","location":{"latitude":"51.410726","street":{"id":933794,"name":"On or near Thames Street"},"longitude":"-0.306762"},"context":"","outcome_status":{"category":"Status update unavailable","date":"2019-09"},"persistent_id":"6207eafddb354d8b88b5408d8f52b16c449574a09152dcef45c9b1106e0f8e5f","id":74310196,"location_subtype":"","month":"2019-05"},{"category":"bicycle-theft","location_type":"Force","location":{"latitude":"51.415771","street":{"id":934347,"name":"On or near Supermarket"},"longitude":"-0.303024"},"context":"","outcome_status":{"category":"Status update unavailable","date":"2019-09"},"persistent_id":"9d81e85aac19ff574d24a71c23ee05dd9ba5714062b53faba7fb8874e9c3b048","id":74337799,"location_subtype":"","month":"2019-05"},{"category":"bicycle-theft","location_type":"Force","location":{"latitude":"51.412620","street":{"id":933700,"name":"On or near Parking Area"},"longitude":"-0.284260"},"context":"","outcome_status":{"category":"Status update unavailable","date":"2019-09"},"persistent_id":"7c6f0a9cd946c8f1aeca8a9bef2403c2024632d81264533b719fd5d0f30c4166","id":74305514,"location_subtype":"","month":"2019-05"},{"category":"bicycle-theft","location_type":"Force","location":{"latitude":"51.410257","street":{"id":933833,"name":"On or near Bus\/coach Station"},"longitude":"-0.299791"},"context":"","outcome_status":{"category":"Status update unavailable","date":"2019-09"},"persistent_id":"1f29d191e49429e7c79ec5362f2f480a05e34e799c0d64de8bc1741ae6c284a9","id":74339653,"location_subtype":"","month":"2019-05"},{"category":"bicycle-theft","location_type":"Force","location":{"latitude":"51.410726","street":{"id":933794,"name":"On or near Thames Street"},"longitude":"-0.306762"},"context":"","outcome_status":{"category":"Status update unavailable","date":"2019-09"},"persistent_id":"9a52c257be92e4536cc85988e48e316fe509311a955d18325efbc2874b3162e0","id":74296574,"location_subtype":"","month":"2019-05"},{"category":"bicycle-theft","location_type":"Force","location":{"latitude":"51.410726","street":{"id":933794,"name":"On or near Thames Street"},"longitude":"-0.306762"},"context":"","outcome_status":{"category":"Status update unavailable","date":"2019-09"},"persistent_id":"ff14515c59953f9d608c33bbfa76dbaf50e0c5cd3d29d5417ab2e03f6e92b3b5","id":74345847,"location_subtype":"","month":"2019-05"},{"category":"bicycle-theft","location_type":"Force","location":{"latitude":"51.411435","street":{"id":933828,"name":"On or near Clarence Street"},"longitude":"-0.300438"},"context":"","outcome_status":{"category":"Status update unavailable","date":"2019-09"},"persistent_id":"66b39578530303912a75e5f8c4fad2d5db9f4586b2a8d853ed36b111204ac39e","id":74295611,"location_subtype":"","month":"2019-05"},{"category":"bicycle-theft","location_type":"Force","location":{"latitude":"51.410257","street":{"id":933833,"name":"On or near Bus\/coach Station"},"longitude":"-0.299791"},"context":"","outcome_status":{"category":"Status update unavailable","date":"2019-09"},"persistent_id":"4098f6100a3c298b2f3dabbd4ed8c8ed5f9362c43739a37c70a5f79561a7f748","id":74330262,"location_subtype":"","month":"2019-05"},{"category":"bicycle-theft","location_type":"Force","location":{"latitude":"51.418919","street":{"id":934348,"name":"On or near Woodside Road"},"longitude":"-0.303094"},"context":"","outcome_status":{"category":"Status update unavailable","date":"2019-09"},"persistent_id":"b889c946cc5dbbd76032522cfd640f26d224fc6557e90efc8dc1266811607c4d","id":74297643,"location_subtype":"","month":"2019-05"},{"category":"bicycle-theft","location_type":"Force","location":{"latitude":"51.415771","street":{"id":934347,"name":"On or near Supermarket"},"longitude":"-0.303024"},"context":"","outcome_status":{"category":"Status update unavailable","date":"2019-09"},"persistent_id":"ed1d7b34872abfc2365b0fb8281e54886b95fae7dee6f093a81f8e3d6b75e468","id":74333389,"location_subtype":"","month":"2019-05"},{"category":"bicycle-theft","location_type":"Force","location":{"latitude":"51.410726","street":{"id":933794,"name":"On or near Thames Street"},"longitude":"-0.306762"},"context":"","outcome_status":{"category":"Status update unavailable","date":"2019-09"},"persistent_id":"2600cecdb41e60d54df9a8ec4f667a70d5514214eef9192f32b83da0923be29b","id":74343092,"location_subtype":"","month":"2019-05"},{"category":"bicycle-theft","location_type":"Force","location":{"latitude":"51.411010","street":{"id":933829,"name":"On or near Clarence Street"},"longitude":"-0.305832"},"context":"","outcome_status":{"category":"Status update unavailable","date":"2019-09"},"persistent_id":"9e89c2ba6df26e5059a1effb0c427528b3cc937474587c09a3fb907b9fcc7965","id":74362167,"location_subtype":"","month":"2019-05"},{"category":"bicycle-theft","location_type":"Force","location":{"latitude":"51.410726","street":{"id":933794,"name":"On or near Thames Street"},"longitude":"-0.306762"},"context":"","outcome_status":{"category":"Status update unavailable","date":"2019-09"},"persistent_id":"aa3bb07ed72018510f4fc54a37f477729e99b976d0df11cda16a1cd1b984c4cf","id":74362127,"location_subtype":"","month":"2019-05"},{"category":"bicycle-theft","location_type":"Force","location":{"latitude":"51.414959","street":{"id":933804,"name":"On or near Richmond Road"},"longitude":"-0.300969"},"context":"","outcome_status":{"category":"Status update unavailable","date":"2019-09"},"persistent_id":"13d208bd5565e81285047b0bf47324b18fcccb773971413a309309a730a1c9d7","id":74362624,"location_subtype":"","month":"2019-05"},{"category":"burglary","location_type":"Force","location":{"latitude":"51.398217","street":{"id":929836,"name":"On or near Rose Walk"},"longitude":"-0.278933"},"context":"","outcome_status":{"category":"Status update unavailable","date":"2019-09"},"persistent_id":"97ccf2616ae35c49636c17230fff72d554c0a5086af8c14225769e2e71ab5018","id":74342025,"location_subtype":"","month":"2019-05"},{"category":"burglary","location_type":"Force","location":{"latitude":"51.412176","street":{"id":933825,"name":"On or near Dolphin Street"},"longitude":"-0.303775"},"context":"","outcome_status":{"category":"Court result unavailable","date":"2020-05"},"persistent_id":"8494dc30759df249e4793cb33a33d90076addea8848a31b3dcab91e503c09ea3","id":74310960,"location_subtype":"","month":"2019-05"},{"category":"burglary","location_type":"Force","location":{"latitude":"51.409905","street":{"id":933836,"name":"On or near Nightclub"},"longitude":"-0.305341"},"context":"","outcome_status":{"category":"Status update unavailable","date":"2019-09"},"persistent_id":"b771eaed16f8efd596e482fef8b1944b116b7977cef89c39a7b61c8cc9dbc248","id":74316318,"location_subtype":"","month":"2019-05"},{"category":"burglary","location_type":"Force","location":{"latitude":"51.405896","street":{"id":933718,"name":"On or near Jack Goodchild Way"},"longitude":"-0.281362"},"context":"","outcome_status":{"category":"Status update unavailable","date":"2019-09"},"persistent_id":"36712c578afce168287918a27ceccbc38e7d0da10a3a535f0112900ae3bad43f","id":74311845,"location_subtype":"","month":"2019-05"},{"category":"burglary","location_type":"Force","location":{"latitude":"51.408966","street":{"id":933614,"name":"On or near Wimpole Close"},"longitude":"-0.290177"},"context":"","outcome_status":{"category":"Status update unavailable","date":"2019-09"},"persistent_id":"e679128d65752ac0846e263fe4b62268fb4126d4cc9fb12b418c6609568f91e2","id":74369389,"location_subtype":"","month":"2019-05"},{"category":"burglary","location_type":"Force","location":{"latitude":"51.417811","street":{"id":934430,"name":"On or near Rosewood Court"},"longitude":"-0.288092"},"context":"","outcome_status":{"category":"Status update unavailable","date":"2019-09"},"persistent_id":"bfc91182390de2cd301aa57928ce2d6fcbdb3615959f21064955dedb3c21b816","id":74367569,"location_subtype":"","month":"2019-05"},{"category":"burglary","location_type":"Force","location":{"latitude":"51.410262","street":{"id":933843,"name":"On or near Shopping Area"},"longitude":"-0.303861"},"context":"","outcome_status":{"category":"Status update unavailable","date":"2019-09"},"persistent_id":"a25f74ef9493a7cc871ce25b3de8952d5aa79741983c030f00e7fe6c8305415e","id":74321380,"location_subtype":"","month":"2019-05"},{"category":"burglary","location_type":"Force","location":{"latitude":"51.422130","street":{"id":934464,"name":"On or near Magnolia Close"},"longitude":"-0.276036"},"context":"","outcome_status":{"category":"Status update unavailable","date":"2019-09"},"persistent_id":"9df46839307a442ead9bf57788885722054a8e342d1d2b90f2cfb769f7d6f36d","id":74346027,"location_subtype":"","month":"2019-05"},{"category":"burglary","location_type":"Force","location":{"latitude":"51.409946","street":{"id":933664,"name":"On or near Camm Gardens"},"longitude":"-0.292671"},"context":"","outcome_status":{"category":"Status update unavailable","date":"2019-09"},"persistent_id":"9cb26f68d106af2197e7bca4692787f56eb20078e23c9f0a6af8c672ce20e182","id":74351701,"location_subtype":"","month":"2019-05"},{"category":"burglary","location_type":"Force","location":{"latitude":"51.413451","street":{"id":933663,"name":"On or near Canbury Park Road"},"longitude":"-0.294999"},"context":"","outcome_status":{"category":"Status update unavailable","date":"2019-09"},"persistent_id":"93bb418723fd328dbf4e2c3083e9228c0545800fc5bbc079e2e89cc6f6619f7c","id":74351418,"location_subtype":"","month":"2019-05"},{"category":"burglary","location_type":"Force","location":{"latitude":"51.408966","street":{"id":933614,"name":"On or near Wimpole Close"},"longitude":"-0.290177"},"context":"","outcome_status":{"category":"Status update unavailable","date":"2019-09"},"persistent_id":"68be8441bfb11654c212ae39b8fffc856e77219bebf46110a8540d39e50cb4df","id":74321025,"location_subtype":"","month":"2019-05"},{"category":"burglary","location_type":"Force","location":{"latitude":"51.410161","street":{"id":933658,"name":"On or near Church Road"},"longitude":"-0.293238"},"context":"","outcome_status":{"category":"Status update unavailable","date":"2019-09"},"persistent_id":"0cb7389348f17591267f77ee9dd952253a31a8e21a45e8d42ac9810e65e90e29","id":74346292,"location_subtype":"","month":"2019-05"},{"category":"burglary","location_type":"Force","location":{"latitude":"51.406841","street":{"id":933782,"name":"On or near Parking Area"},"longitude":"-0.304260"},"context":"","outcome_status":{"category":"Status update unavailable","date":"2019-09"},"persistent_id":"40381186df15b63ed729b1121922091db2527a2d34d3b088974ab1443e9c2ef4","id":74346085,"location_subtype":"","month":"2019-05"},{"category":"burglary","location_type":"Force","location":{"latitude":"51.401617","street":{"id":929877,"name":"On or near Geneva Road"},"longitude":"-0.299307"},"context":"","outcome_status":{"category":"Status update unavailable","date":"2019-09"},"persistent_id":"011bf3180b2c8251dd7160b35fe9c9a1683cecfff7c8ad93d1880296202ea435","id":74340384,"location_subtype":"","month":"2019-05"},{"category":"burglary","location_type":"Force","location":{"latitude":"51.410262","street":{"id":933843,"name":"On or near Shopping Area"},"longitude":"-0.303861"},"context":"","outcome_status":{"category":"Status update unavailable","date":"2019-09"},"persistent_id":"d6b95e4f7a0d25531e1e03a087cbe5b06e9bca93d10d36c3bb934bfb62e75e44","id":74338060,"location_subtype":"","month":"2019-05"},{"category":"burglary","location_type":"Force","location":{"latitude":"51.421952","street":{"id":934364,"name":"On or near Haygreen Close"},"longitude":"-0.279782"},"context":"","outcome_status":{"category":"Status update unavailable","date":"2019-09"},"persistent_id":"1e959296ef1b1e5fc08ac6d1774fca70aa55e31949f257b2e950c21b9c1ce69e","id":74344600,"location_subtype":"","month":"2019-05"},{"category":"burglary","location_type":"Force","location":{"latitude":"51.398217","street":{"id":929836,"name":"On or near Rose Walk"},"longitude":"-0.278933"},"context":"","outcome_status":{"category":"Status update unavailable","date":"2019-09"},"persistent_id":"302b4a3ac2699ae23b135445a6f1adf5eca842b6006f16de012bb2965cf5521f","id":74344418,"location_subtype":"","month":"2019-05"},{"category":"burglary","location_type":"Force","location":{"latitude":"51.415464","street":{"id":933808,"name":"On or near May Bate Avenue"},"longitude":"-0.306027"},"context":"","outcome_status":{"category":"Status update unavailable","date":"2019-09"},"persistent_id":"93b96dd541c3c304012c218f8fe81adc98a6db44c9db01a5e19823688cacd51d","id":74342361,"location_subtype":"","month":"2019-05"},{"category":"burglary","location_type":"Force","location":{"latitude":"51.415431","street":{"id":933773,"name":"On or near Parking Area"},"longitude":"-0.305007"},"context":"","outcome_status":{"category":"Status update unavailable","date":"2019-09"},"persistent_id":"275176ad75b40229a1679a9b81e999eb8bed4d1980b6a52c5006ce2a9d3a3e36","id":74329830,"location_subtype":"","month":"2019-05"},{"category":"burglary","location_type":"Force","location":{"latitude":"51.401617","street":{"id":929877,"name":"On or near Geneva Road"},"longitude":"-0.299307"},"context":"","outcome_status":{"category":"Status update unavailable","date":"2019-09"},"persistent_id":"4e0abe827b32fe92c37c7226a7fc161c7c1e96738b1a57896c6e1f1c57a7d659","id":74341071,"location_subtype":"","month":"2019-05"},{"category":"burglary","location_type":"Force","location":{"latitude":"51.407262","street":{"id":933625,"name":"On or near Rowlls Road"},"longitude":"-0.290499"},"context":"","outcome_status":{"category":"Status update unavailable","date":"2019-09"},"persistent_id":"ffdf58314e6290cceb6d83872efd777b222157f9d5d6fd89adcf6472ed23545c","id":74308604,"location_subtype":"","month":"2019-05"},{"category":"burglary","location_type":"Force","location":{"latitude":"51.410262","street":{"id":933843,"name":"On or near Shopping Area"},"longitude":"-0.303861"},"context":"","outcome_status":{"category":"Status update unavailable","date":"2019-09"},"persistent_id":"69ed0e5593f13b403499a4e4b3da6b8bbe16b9759f05edae264ff1748d41dd6b","id":74291373,"location_subtype":"","month":"2019-05"},{"category":"criminal-damage-arson","location_type":"Force","location":{"latitude":"51.408605","street":{"id":924029,"name":"On or near Eureka Road"},"longitude":"-0.288853"},"context":"","outcome_status":{"category":"Status update unavailable","date":"2019-09"},"persistent_id":"7209eae50e394d17ce441ea86492fdf13d73e0c17edbc987f856bd04d5b1a78b","id":74334939,"location_subtype":"","month":"2019-05"},{"category":"criminal-damage-arson","location_type":"Force","location":{"latitude":"51.408966","street":{"id":933614,"name":"On or near Wimpole Close"},"longitude":"-0.290177"},"context":"","outcome_status":{"category":"Status update unavailable","date":"2019-09"},"persistent_id":"913a3eb9317b8a6bfa91c62d133607d61e6b3f322e270720364f98109fefb0b5","id":74337862,"location_subtype":"","month":"2019-05"},{"category":"criminal-damage-arson","location_type":"Force","location":{"latitude":"51.401647","street":{"id":929870,"name":"On or near Portland Road"},"longitude":"-0.295165"},"context":"","outcome_status":{"category":"Status update unavailable","date":"2019-09"},"persistent_id":"5a1c9c56151715e998c082b6e596078c3db07893c154c651baef55da52d16796","id":74366755,"location_subtype":"","month":"2019-05"},{"category":"criminal-damage-arson","location_type":"Force","location":{"latitude":"51.409686","street":{"id":933845,"name":"On or near Supermarket"},"longitude":"-0.303249"},"context":"","outcome_status":{"category":"Status update unavailable","date":"2019-09"},"persistent_id":"455fe2672cecc9432d9eacd815f605ec5ff59a1fb67b5f2dd9271c06cfd3b6e9","id":74331635,"location_subtype":"","month":"2019-05"},{"category":"criminal-damage-arson","location_type":"Force","location":{"latitude":"51.422242","street":{"id":934384,"name":"On or near Latchmere Road"},"longitude":"-0.296556"},"context":"","outcome_status":{"category":"Status update unavailable","date":"2019-09"},"persistent_id":"8257fbea505a64dce05644267a3224ad3443844d688daad4ec086dc847b45a6b","id":74338997,"location_subtype":"","month":"2019-05"},{"category":"criminal-damage-arson","location_type":"Force","location":{"latitude":"51.408943","street":{"id":933714,"name":"On or near Cambridge Road"},"longitude":"-0.286755"},"context":"","outcome_status":{"category":"Status update unavailable","date":"2019-09"},"persistent_id":"62f8978935f5176b42d588b504bef238f8f4ac05acd62eeaa758dde9484d4e8a","id":74331392,"location_subtype":"","month":"2019-05"},{"category":"criminal-damage-arson","location_type":"Force","location":{"latitude":"51.412176","street":{"id":933825,"name":"On or near Dolphin Street"},"longitude":"-0.303775"},"context":"","outcome_status":{"category":"Status update unavailable","date":"2019-09"},"persistent_id":"73bb1656b7f1f72a908c99c9b4257003128d25bfd563139cda5cb129afa6b8e6","id":74301527,"location_subtype":"","month":"2019-05"},{"category":"criminal-damage-arson","location_type":"Force","location":{"latitude":"51.409879","street":{"id":933509,"name":"On or near Kenley Road"},"longitude":"-0.277000"},"context":"","outcome_status":{"category":"Status update unavailable","date":"2019-09"},"persistent_id":"51b8834aa21187e996c08a1569a5a21e4bb8777868b0a25633303bf84300aee3","id":74368470,"location_subtype":"","month":"2019-05"},{"category":"criminal-damage-arson","location_type":"Force","location":{"latitude":"51.405456","street":{"id":933598,"name":"On or near Lincoln Road"},"longitude":"-0.274061"},"context":"","outcome_status":{"category":"Status update unavailable","date":"2019-09"},"persistent_id":"6ec06d60232fa65289046d5444adebe6ebe0532a1be57b6c09644a2fa8619dd4","id":74344801,"location_subtype":"","month":"2019-05"},{"category":"criminal-damage-arson","location_type":"Force","location":{"latitude":"51.407821","street":{"id":933623,"name":"On or near Somerset Road"},"longitude":"-0.291240"},"context":"","outcome_status":{"category":"Status update unavailable","date":"2019-09"},"persistent_id":"bc6ca8fba5d9969eb4a933535a286864010beeebb3e33e17c49c290780a10d40","id":74311152,"location_subtype":"","month":"2019-05"},{"category":"criminal-damage-arson","location_type":"Force","location":{"latitude":"51.410932","street":{"id":933635,"name":"On or near London Road"},"longitude":"-0.291843"},"context":"","outcome_status":{"category":"Status update unavailable","date":"2019-09"},"persistent_id":"6b90d6c82a44dddca27b1c7c6b8ecf757694aefde5b5d91e8a0c4a9a8a3d144a","id":74332188,"location_subtype":"","month":"2019-05"},{"category":"criminal-damage-arson","location_type":"Force","location":{"latitude":"51.420687","street":{"id":934401,"name":"On or near Bertram Road"},"longitude":"-0.288574"},"context":"","outcome_status":{"category":"Status update unavailable","date":"2019-09"},"persistent_id":"43784f6f3c55ad68f42660c19047b2d9330935aa4baf7b40248d748abdb06a89","id":74369898,"location_subtype":"","month":"2019-05"},{"category":"criminal-damage-arson","location_type":"Force","location":{"latitude":"51.411208","street":{"id":933675,"name":"On or near Supermarket"},"longitude":"-0.290381"},"context":"","outcome_status":{"category":"Status update unavailable","date":"2019-09"},"persistent_id":"1914dc8f1db64d6786f4e44e5a7457d8720916c12476c8f9c4b268e49210ff29","id":74370117,"location_subtype":"","month":"2019-05"},{"category":"criminal-damage-arson","location_type":"Force","location":{"latitude":"51.417433","street":{"id":934345,"name":"On or near King's Road"},"longitude":"-0.300417"},"context":"","outcome_status":{"category":"Status update unavailable","date":"2019-09"},"persistent_id":"cf733274fd63f8f9019403dca299be06ae60bfa4251eff49b4433ea7f5be3463","id":74305366,"location_subtype":"","month":"2019-05"},{"category":"criminal-damage-arson","location_type":"Force","location":{"latitude":"51.406781","street":{"id":933688,"name":"On or near King Henry's Road"},"longitude":"-0.278554"},"context":"","outcome_status":{"category":"Status update unavailable","date":"2019-09"},"persistent_id":"8ec87104aee54ddabeab12f2cd5109a5faeb5917df14cd91d7876ca81e71053a","id":74342313,"location_subtype":"","month":"2019-05"},{"category":"criminal-damage-arson","location_type":"Force","location":{"latitude":"51.407682","street":{"id":933715,"name":"On or near Cambridge Grove Road"},"longitude":"-0.287220"},"context":"","outcome_status":{"category":"Status update unavailable","date":"2019-09"},"persistent_id":"9f29c5b580de4e47775047e688a403a03a23a861864ad716e3b75a402ad85979","id":74342046,"location_subtype":"","month":"2019-05"},{"category":"criminal-damage-arson","location_type":"Force","location":{"latitude":"51.411260","street":{"id":933807,"name":"On or near Nipper Alley"},"longitude":"-0.300761"},"context":"","outcome_status":{"category":"Status update unavailable","date":"2019-09"},"persistent_id":"61d85c6e5770862a1906de2caaaedbd9c27e2fece32d186c756c0cb05d8edb65","id":74333080,"location_subtype":"","month":"2019-05"},{"category":"criminal-damage-arson","location_type":"Force","location":{"latitude":"51.408943","street":{"id":933714,"name":"On or near Cambridge Road"},"longitude":"-0.286755"},"context":"","outcome_status":{"category":"Status update unavailable","date":"2019-09"},"persistent_id":"abd95765172c9e29e35502540b364353654e5c4517d6b006fb43328c5b16f819","id":74313011,"location_subtype":"","month":"2019-05"},{"category":"criminal-damage-arson","location_type":"Force","location":{"latitude":"51.419085","street":{"id":934438,"name":"On or near Supermarket"},"longitude":"-0.295897"},"context":"","outcome_status":{"category":"Status update unavailable","date":"2019-09"},"persistent_id":"3658472739036dd759571e4386a535dcd20f4fdf42ce1a0dbd9fd064af713daf","id":74313081,"location_subtype":"","month":"2019-05"},{"category":"criminal-damage-arson","location_type":"Force","location":{"latitude":"51.409810","street":{"id":933783,"name":"On or near Parking Area"},"longitude":"-0.301232"},"context":"","outcome_status":{"category":"Status update unavailable","date":"2019-09"},"persistent_id":"11a91fb1f6297c4f569e921e67527d7e62972366e1ea1f2eefc5b5d48f73008a","id":74341364,"location_subtype":"","month":"2019-05"},{"category":"criminal-damage-arson","location_type":"Force","location":{"latitude":"51.409184","street":{"id":933844,"name":"On or near Shopping Area"},"longitude":"-0.304562"},"context":"","outcome_status":{"category":"Status update unavailable","date":"2019-09"},"persistent_id":"5f10cd126783dd005806a19895bc257cdc23e158dd8c2362b788646f5fb6d7e0","id":74341363,"location_subtype":"","month":"2019-05"},{"category":"criminal-damage-arson","location_type":"Force","location":{"latitude":"51.409307","street":{"id":933671,"name":"On or near Albert Road"},"longitude":"-0.294492"},"context":"","outcome_status":{"category":"Status update unavailable","date":"2019-09"},"persistent_id":"e5fc69fa46f20b619706aa9e78b7fc4e0805cdf0ed0c9b0bfedce6ab3153fe9c","id":74312189,"location_subtype":"","month":"2019-05"},{"category":"criminal-damage-arson","location_type":"Force","location":{"latitude":"51.417433","street":{"id":934345,"name":"On or near King's Road"},"longitude":"-0.300417"},"context":"","outcome_status":{"category":"Status update unavailable","date":"2019-09"},"persistent_id":"6d212369c206227a6b4128b6a9d970f0422d8f6d8d5f957edc025f137096c8d0","id":74316219,"location_subtype":"","month":"2019-05"},{"category":"criminal-damage-arson","location_type":"Force","location":{"latitude":"51.409492","street":{"id":933619,"name":"On or near Victoria Road"},"longitude":"-0.292947"},"context":"","outcome_status":{"category":"Status update unavailable","date":"2019-09"},"persistent_id":"5e8859a334fc3cc7f7ac24425e68eea7685164a1b92d0230204071ba1907c0c2","id":74311953,"location_subtype":"","month":"2019-05"},{"category":"criminal-damage-arson","location_type":"Force","location":{"latitude":"51.415263","street":{"id":933654,"name":"On or near David Twigg Close"},"longitude":"-0.297779"},"context":"","outcome_status":{"category":"Status update unavailable","date":"2019-09"},"persistent_id":"06b7c3b077d0814ce0bfd64fb21daa8ca72048883c7f2a26379f5371ca2979a6","id":74316585,"location_subtype":"","month":"2019-05"},{"category":"criminal-damage-arson","location_type":"Force","location":{"latitude":"51.408943","street":{"id":933714,"name":"On or near Cambridge Road"},"longitude":"-0.286755"},"context":"","outcome_status":{"category":"Status update unavailable","date":"2019-09"},"persistent_id":"599adc6913183ab5a2c5472985dd83458f6db874e45f1231413824579b9c9162","id":74349795,"location_subtype":"","month":"2019-05"},{"category":"criminal-damage-arson","location_type":"Force","location":{"latitude":"51.407569","street":{"id":933696,"name":"On or near Douglas Road"},"longitude":"-0.280149"},"context":"","outcome_status":{"category":"Status update unavailable","date":"2019-09"},"persistent_id":"69755432c1cbf5f03e4ad7a1f2bdfc7d647660fcb2152296aaa80e76380df868","id":74334475,"location_subtype":"","month":"2019-05"},{"category":"criminal-damage-arson","location_type":"Force","location":{"latitude":"51.422242","street":{"id":934384,"name":"On or near Latchmere Road"},"longitude":"-0.296556"},"context":"","outcome_status":{"category":"Status update unavailable","date":"2019-09"},"persistent_id":"097023626a77453576616dc36592586cea9e7370f3856216b3a2d8df7e1745d1","id":74311333,"location_subtype":"","month":"2019-05"},{"category":"criminal-damage-arson","location_type":"Force","location":{"latitude":"51.420143","street":{"id":934359,"name":"On or near King's Road"},"longitude":"-0.286466"},"context":"","outcome_status":{"category":"Status update unavailable","date":"2019-09"},"persistent_id":"d6609c372a7762a06febc8bc8db5e4782346abece885c582b5b146b926fb8708","id":74336794,"location_subtype":"","month":"2019-05"},{"category":"criminal-damage-arson","location_type":"Force","location":{"latitude":"51.411260","street":{"id":933807,"name":"On or near Nipper Alley"},"longitude":"-0.300761"},"context":"","outcome_status":{"category":"Local resolution","date":"2019-10"},"persistent_id":"394353d792126f0699739c01046c927c36db487c30f98d1b47722e86f75b2163","id":74329809,"location_subtype":"","month":"2019-05"},{"category":"criminal-damage-arson","location_type":"Force","location":{"latitude":"51.408618","street":{"id":933809,"name":"On or near Littlefield Close"},"longitude":"-0.300888"},"context":"","outcome_status":{"category":"Status update unavailable","date":"2019-09"},"persistent_id":"6f51105f369ee65d964f6521570c5421b05be8a7a3be46a6c9cef08f7e253f3f","id":74347243,"location_subtype":"","month":"2019-05"},{"category":"criminal-damage-arson","location_type":"Force","location":{"latitude":"51.409184","street":{"id":933844,"name":"On or near Shopping Area"},"longitude":"-0.304562"},"context":"","outcome_status":{"category":"Status update unavailable","date":"2019-09"},"persistent_id":"27ca8e2c6795a6951a1bf1ae3b360408af5ee0fea234b44a89f9d7d8f6496ff7","id":74324460,"location_subtype":"","month":"2019-05"},{"category":"criminal-damage-arson","location_type":"Force","location":{"latitude":"51.421265","street":{"id":934394,"name":"On or near Earle Gardens"},"longitude":"-0.298635"},"context":"","outcome_status":{"category":"Status update unavailable","date":"2019-09"},"persistent_id":"b4fd14cce59b768f00ff5bd1ce9e3663259f0b302fc46a2d205518a27185f440","id":74343616,"location_subtype":"","month":"2019-05"},{"category":"criminal-damage-arson","location_type":"Force","location":{"latitude":"51.408605","street":{"id":924029,"name":"On or near Eureka Road"},"longitude":"-0.288853"},"context":"","outcome_status":{"category":"Status update unavailable","date":"2019-09"},"persistent_id":"9606826b6ea7f017b8e95d1bfd20a33ead87d7755f04cee8cb22f4a7d4a90d8e","id":74348879,"location_subtype":"","month":"2019-05"},{"category":"criminal-damage-arson","location_type":"Force","location":{"latitude":"51.408605","street":{"id":924029,"name":"On or near Eureka Road"},"longitude":"-0.288853"},"context":"","outcome_status":{"category":"Offender given a caution","date":"2019-05"},"persistent_id":"71edfe416f9ad5677122b72c5ab86dbf9b70cccc6b45c89f8009eab8cb6d8412","id":74319058,"location_subtype":"","month":"2019-05"},{"category":"criminal-damage-arson","location_type":"Force","location":{"latitude":"51.412176","street":{"id":933825,"name":"On or near Dolphin Street"},"longitude":"-0.303775"},"context":"","outcome_status":{"category":"Offender given a caution","date":"2019-05"},"persistent_id":"73bb1656b7f1f72a908c99c9b4257003128d25bfd563139cda5cb129afa6b8e6","id":74301528,"location_subtype":"","month":"2019-05"},{"category":"drugs","location_type":"Force","location":{"latitude":"51.416417","street":{"id":934344,"name":"On or near Lower Kings Road"},"longitude":"-0.304179"},"context":"","outcome_status":{"category":"Local resolution","date":"2019-06"},"persistent_id":"c2882de9df3902426813643c48fd2fe990783e5f9df9fd28926addbf4f8f349f","id":74291482,"location_subtype":"","month":"2019-05"},{"category":"drugs","location_type":"Force","location":{"latitude":"51.409041","street":{"id":933694,"name":"On or near Ernest Road"},"longitude":"-0.281158"},"context":"","outcome_status":{"category":"Court result unavailable","date":"2019-11"},"persistent_id":"3febe3218a49fe3c327ce1e234f1bffaf211ad7b90707932042231bb275de182","id":74308522,"location_subtype":"","month":"2019-05"},{"category":"drugs","location_type":"Force","location":{"latitude":"51.411700","street":{"id":933642,"name":"On or near Hardman Road"},"longitude":"-0.297624"},"context":"","outcome_status":{"category":"Local resolution","date":"2019-05"},"persistent_id":"60d84ffe04a834fa2f12ff677e478a8710b13b4673352e2788bc519925eef430","id":74313152,"location_subtype":"","month":"2019-05"},{"category":"drugs","location_type":"Force","location":{"latitude":"51.409810","street":{"id":933783,"name":"On or near Parking Area"},"longitude":"-0.301232"},"context":"","outcome_status":{"category":"Local resolution","date":"2019-05"},"persistent_id":"911bc1cc3f6030fd86b7c0c0bf49388dcd0461cf8be07ff06b10f5f7cb58b370","id":74331476,"location_subtype":"","month":"2019-05"},{"category":"drugs","location_type":"Force","location":{"latitude":"51.413386","street":{"id":933666,"name":"On or near Bridge End Close"},"longitude":"-0.288689"},"context":"","outcome_status":{"category":"Local resolution","date":"2019-05"},"persistent_id":"e64a8e6e91554144a6fac4da7fce3382dab4706bbaf373d4ea124f650639846f","id":74337897,"location_subtype":"","month":"2019-05"},{"category":"drugs","location_type":"Force","location":{"latitude":"51.408618","street":{"id":933809,"name":"On or near Littlefield Close"},"longitude":"-0.300888"},"context":"","outcome_status":{"category":"Status update unavailable","date":"2019-09"},"persistent_id":"c9002b47fbf01bfd3b17388b266149a0b124b6cbc8c8f07da69c2a8ce4a545a7","id":74343262,"location_subtype":"","month":"2019-05"},{"category":"drugs","location_type":"Force","location":{"latitude":"51.417514","street":{"id":934346,"name":"On or near Eastbury Road"},"longitude":"-0.302916"},"context":"","outcome_status":{"category":"Local resolution","date":"2019-05"},"persistent_id":"b69686de12e607a54b41d181e003925f644491981a9e13d7c566de984b82a51a","id":74290965,"location_subtype":"","month":"2019-05"},{"category":"drugs","location_type":"Force","location":{"latitude":"51.407405","street":{"id":933704,"name":"On or near Stapleford Close"},"longitude":"-0.286137"},"context":"","outcome_status":{"category":"Local resolution","date":"2019-05"},"persistent_id":"f5e3fa724431d7a54262163705663cc4a479e8192adac97e05049f342fe9cb51","id":74318781,"location_subtype":"","month":"2019-05"},{"category":"drugs","location_type":"Force","location":{"latitude":"51.412434","street":{"id":933628,"name":"On or near Queen Elizabeth Road"},"longitude":"-0.296159"},"context":"","outcome_status":{"category":"Local resolution","date":"2019-05"},"persistent_id":"6b7deec982c4c9d82a23805465464d4adc797bdb1c90a63e6c15d1a5ac329f7c","id":74301465,"location_subtype":"","month":"2019-05"},{"category":"drugs","location_type":"Force","location":{"latitude":"51.401195","street":{"id":929871,"name":"On or near Portland Road"},"longitude":"-0.296864"},"context":"","outcome_status":{"category":"Local resolution","date":"2019-05"},"persistent_id":"e180a829dae483f1b3afd563ec47190b70207219391c5f9e98cd05e8a58ae72d","id":74297165,"location_subtype":"","month":"2019-05"},{"category":"drugs","location_type":"Force","location":{"latitude":"51.416417","street":{"id":934344,"name":"On or near Lower Kings Road"},"longitude":"-0.304179"},"context":"","outcome_status":{"category":"Local resolution","date":"2019-05"},"persistent_id":"62d8604fdcacd29f1f2a0d2ecf1f20b8242bd57e3df11b1148dad7c9c65ed3ec","id":74330537,"location_subtype":"","month":"2019-05"},{"category":"drugs","location_type":"Force","location":{"latitude":"51.405662","street":{"id":933735,"name":"On or near Fairfield Place"},"longitude":"-0.297992"},"context":"","outcome_status":{"category":"Offender given penalty notice","date":"2019-05"},"persistent_id":"84e4cebcbabeeff950d89c8b9c4b03239f8cd2bb1e4a6c5a8e68af60f3ff5c1c","id":74343540,"location_subtype":"","month":"2019-05"},{"category":"drugs","location_type":"Force","location":{"latitude":"51.408482","street":{"id":933495,"name":"On or near The Triangle"},"longitude":"-0.274335"},"context":"","outcome_status":{"category":"Local resolution","date":"2019-05"},"persistent_id":"56d01d1501b0b4cedd78a5fc7872bd13a1ac29f95ec60a4290c314047fbb06e7","id":74369651,"location_subtype":"","month":"2019-05"},{"category":"drugs","location_type":"Force","location":{"latitude":"51.407915","street":{"id":933806,"name":"On or near Orchard Road"},"longitude":"-0.301374"},"context":"","outcome_status":{"category":"Court result unavailable","date":"2020-05"},"persistent_id":"8119566c82cccdfec7de5283b04ec624e1edcb447005e05e9925a56b1eebc1f3","id":74355561,"location_subtype":"","month":"2019-05"},{"category":"drugs","location_type":"Force","location":{"latitude":"51.410262","street":{"id":933843,"name":"On or near Shopping Area"},"longitude":"-0.303861"},"context":"","outcome_status":{"category":"Local resolution","date":"2019-05"},"persistent_id":"44b5da409cf2734d00723a95240c7ade3818c99e6cfeb34b7b1f93eed5cc8c0c","id":74313337,"location_subtype":"","month":"2019-05"},{"category":"drugs","location_type":"Force","location":{"latitude":"51.405892","street":{"id":933852,"name":"On or near Watersplash Close"},"longitude":"-0.302656"},"context":"","outcome_status":{"category":"Offender given a caution","date":"2019-05"},"persistent_id":"07e16788d84f8af5415b664efcbece7229c76961b38278b0d82b2cda9d91fb2b","id":74353340,"location_subtype":"","month":"2019-05"},{"category":"drugs","location_type":"Force","location":{"latitude":"51.418919","street":{"id":934348,"name":"On or near Woodside Road"},"longitude":"-0.303094"},"context":"","outcome_status":{"category":"Local resolution","date":"2019-05"},"persistent_id":"0faaefbff594dd1079273c46db5e78943feb3513efded4ee38ee9ea0bd8f4d45","id":74366562,"location_subtype":"","month":"2019-05"},{"category":"drugs","location_type":"Force","location":{"latitude":"51.408472","street":{"id":933556,"name":"On or near Barton Green"},"longitude":"-0.263925"},"context":"","outcome_status":{"category":"Court result unavailable","date":"2020-09"},"persistent_id":"e75af7f5c140e41fea1e16666340201a8adb21046d4ef11a90d47d7d29c37934","id":74296174,"location_subtype":"","month":"2019-05"},{"category":"drugs","location_type":"Force","location":{"latitude":"51.405249","street":{"id":933588,"name":"On or near Stafford Road"},"longitude":"-0.274054"},"context":"","outcome_status":{"category":"Local resolution","date":"2019-05"},"persistent_id":"607d56244db1501a705b349999deeb37a04feb3326dfbc078ef396e4f0c0736d","id":74306651,"location_subtype":"","month":"2019-05"},{"category":"drugs","location_type":"Force","location":{"latitude":"51.408383","street":{"id":933716,"name":"On or near Burritt Road"},"longitude":"-0.286000"},"context":"","outcome_status":{"category":"Court result unavailable","date":"2020-01"},"persistent_id":"7c4bdd81181c177ec64084991ba036e743a48eabbd6645db86c6f63dcd5b66d9","id":74317157,"location_subtype":"","month":"2019-05"},{"category":"drugs","location_type":"Force","location":{"latitude":"51.418919","street":{"id":934348,"name":"On or near Woodside Road"},"longitude":"-0.303094"},"context":"","outcome_status":{"category":"Local resolution","date":"2019-05"},"persistent_id":"eb9b7b73c87f815d56031e0dc7b48cddcd242ea377c8000ab2c02256081a445f","id":74367132,"location_subtype":"","month":"2019-05"},{"category":"drugs","location_type":"Force","location":{"latitude":"51.409797","street":{"id":933662,"name":"On or near Caversham Road"},"longitude":"-0.297235"},"context":"","outcome_status":{"category":"Offender given a caution","date":"2019-12"},"persistent_id":"58748e048ce2dd497ebc31eb6c4d99b98436446b802b0fdfe4174d088516f7b8","id":74343260,"location_subtype":"","month":"2019-05"},{"category":"drugs","location_type":"Force","location":{"latitude":"51.414959","street":{"id":933804,"name":"On or near Richmond Road"},"longitude":"-0.300969"},"context":"","outcome_status":{"category":"Local resolution","date":"2019-06"},"persistent_id":"72398b30c8535597df52a29287e76839b131adbdee2a8eb1ec9781f8a1a2f4e8","id":74341862,"location_subtype":"","month":"2019-05"},{"category":"drugs","location_type":"Force","location":{"latitude":"51.407453","street":{"id":933652,"name":"On or near Dudley Road"},"longitude":"-0.296215"},"context":"","outcome_status":{"category":"Local resolution","date":"2019-05"},"persistent_id":"eef76dae32d428d1cd93e41f85172f89973ed822ecdfaffa76f6e8febb5a9d0c","id":74367043,"location_subtype":"","month":"2019-05"},{"category":"drugs","location_type":"Force","location":{"latitude":"51.406205","street":{"id":933719,"name":"On or near Boundary Close"},"longitude":"-0.282199"},"context":"","outcome_status":{"category":"Offender given a caution","date":"2019-06"},"persistent_id":"907eed2a01583fe4de42b4330dda0d36d26f0655c88398dff6296e824906202b","id":74346727,"location_subtype":"","month":"2019-05"},{"category":"drugs","location_type":"Force","location":{"latitude":"51.413170","street":{"id":933643,"name":"On or near Gordon Road"},"longitude":"-0.292968"},"context":"","outcome_status":{"category":"Local resolution","date":"2019-05"},"persistent_id":"b9172b59f5d6a1a2fd4ab10cf3c1c1b429996ac3d93b1276170f3cb0d6e74ee4","id":74310509,"location_subtype":"","month":"2019-05"},{"category":"drugs","location_type":"Force","location":{"latitude":"51.416417","street":{"id":934344,"name":"On or near Lower Kings Road"},"longitude":"-0.304179"},"context":"","outcome_status":{"category":"Local resolution","date":"2019-05"},"persistent_id":"3766d47143e1f90c4710e71d872a617b0202c0cdd8100ac4b3c8fd72aaace1a8","id":74297744,"location_subtype":"","month":"2019-05"},{"category":"drugs","location_type":"Force","location":{"latitude":"51.410176","street":{"id":933626,"name":"On or near Rayleigh Court"},"longitude":"-0.290505"},"context":"","outcome_status":{"category":"Offender given suspended prison sentence","date":"2019-05"},"persistent_id":"a06288659027116cd4c14dcdc8d5a7a6d0fd7c689d47fd3cf5997ed253dbc383","id":74317245,"location_subtype":"","month":"2019-05"},{"category":"drugs","location_type":"Force","location":{"latitude":"51.422242","street":{"id":934384,"name":"On or near Latchmere Road"},"longitude":"-0.296556"},"context":"","outcome_status":{"category":"Local resolution","date":"2019-12"},"persistent_id":"3dfa2887f12f8040c0365f0f2e3705edf07a4d227ae67a7035b9a780c431ee66","id":74356464,"location_subtype":"","month":"2019-05"},{"category":"drugs","location_type":"Force","location":{"latitude":"51.411260","street":{"id":933807,"name":"On or near Nipper Alley"},"longitude":"-0.300761"},"context":"","outcome_status":{"category":"Court result unavailable","date":"2020-10"},"persistent_id":"1870c7f1111d432166dd15c378200f7269284b41678b7bb835cc34b296c5f5eb","id":74314458,"location_subtype":"","month":"2019-05"},{"category":"drugs","location_type":"Force","location":{"latitude":"51.411260","street":{"id":933807,"name":"On or near Nipper Alley"},"longitude":"-0.300761"},"context":"","outcome_status":{"category":"Court result unavailable","date":"2020-10"},"persistent_id":"cfda5ce07368ba8fba421b7c4c45cf5355bc67143f07fc739a75e0916e10b14f","id":74308490,"location_subtype":"","month":"2019-05"},{"category":"drugs","location_type":"Force","location":{"latitude":"51.412409","street":{"id":933620,"name":"On or near Tithe Barn Close"},"longitude":"-0.293801"},"context":"","outcome_status":{"category":"Offender given penalty notice","date":"2019-06"},"persistent_id":"8c29aa3425eabd616c712e76d3d30806c277f01a1d747599d7cebe5c1f6216df","id":74342952,"location_subtype":"","month":"2019-05"},{"category":"drugs","location_type":"Force","location":{"latitude":"51.407915","street":{"id":933806,"name":"On or near Orchard Road"},"longitude":"-0.301374"},"context":"","outcome_status":{"category":"Offender given a caution","date":"2019-07"},"persistent_id":"22c2128e42e80c06aebc22cb49446b874df25888439cb18467fad049dc548e9a","id":74335216,"location_subtype":"","month":"2019-05"},{"category":"other-theft","location_type":"Force","location":{"latitude":"51.401854","street":{"id":933591,"name":"On or near Springfield Place"},"longitude":"-0.273075"},"context":"","outcome_status":{"category":"Status update unavailable","date":"2019-09"},"persistent_id":"f3e33c44fdb73b285e04982e4bd2c343b28d338cd55a4af39aea2b569e6a7165","id":74367311,"location_subtype":"","month":"2019-05"},{"category":"other-theft","location_type":"Force","location":{"latitude":"51.407722","street":{"id":933698,"name":"On or near Charter Square"},"longitude":"-0.278893"},"context":"","outcome_status":{"category":"Investigation complete; no suspect identified","date":"2020-04"},"persistent_id":"f4d9c36155fa479ef5530eb8714902a1d48c4c29746b5011dd34da73d1a2bdf6","id":74352811,"location_subtype":"","month":"2019-05"},{"category":"other-theft","location_type":"Force","location":{"latitude":"51.408383","street":{"id":933781,"name":"On or near Parking Area"},"longitude":"-0.304563"},"context":"","outcome_status":{"category":"Status update unavailable","date":"2019-09"},"persistent_id":"d2088279ca96a82cb71371b14cb481a8e9947953d859fad7400c099c1a0260b3","id":74290345,"location_subtype":"","month":"2019-05"},{"category":"other-theft","location_type":"Force","location":{"latitude":"51.411565","street":{"id":933789,"name":"On or near Wood Street"},"longitude":"-0.305653"},"context":"","outcome_status":{"category":"Status update unavailable","date":"2019-09"},"persistent_id":"e5c5fc07c01b43f37e31f6736681120fcc088dd0e8e04f64ce2e64cba9e36cdc","id":74290587,"location_subtype":"","month":"2019-05"},{"category":"other-theft","location_type":"Force","location":{"latitude":"51.410262","street":{"id":933843,"name":"On or near Shopping Area"},"longitude":"-0.303861"},"context":"","outcome_status":{"category":"Status update unavailable","date":"2019-09"},"persistent_id":"c30be2316e41521400396754f67ec34586b54ed7a62eafc23f0a0619411fcfac","id":74293328,"location_subtype":"","month":"2019-05"},{"category":"other-theft","location_type":"Force","location":{"latitude":"51.410726","street":{"id":933794,"name":"On or near Thames Street"},"longitude":"-0.306762"},"context":"","outcome_status":{"category":"Status update unavailable","date":"2019-09"},"persistent_id":"c972bbf58d7ba6a9fb63aa4f8f201466b77ce4197a8cc67ffc3a8d83eeef86ce","id":74308409,"location_subtype":"","month":"2019-05"},{"category":"other-theft","location_type":"Force","location":{"latitude":"51.407114","street":{"id":933702,"name":"On or near Vincent Road"},"longitude":"-0.285889"},"context":"","outcome_status":{"category":"Status update unavailable","date":"2019-09"},"persistent_id":"6f13fc7c29454293f3709190573d15e4ff1852afde04111af9b1cf4e47b394cb","id":74306828,"location_subtype":"","month":"2019-05"},{"category":"other-theft","location_type":"Force","location":{"latitude":"51.409265","street":{"id":933810,"name":"On or near Lady Booth Road"},"longitude":"-0.302115"},"context":"","outcome_status":{"category":"Status update unavailable","date":"2019-09"},"persistent_id":"ad5cf97f4fe515910086a633a59ab9f6e8ab4a5f3e3a71b275a60529d9fdbe7f","id":74310772,"location_subtype":"","month":"2019-05"},{"category":"other-theft","location_type":"Force","location":{"latitude":"51.415431","street":{"id":933773,"name":"On or near Parking Area"},"longitude":"-0.305007"},"context":"","outcome_status":{"category":"Status update unavailable","date":"2019-09"},"persistent_id":"6b93ce30cad0345722f94a0c1e8922902edd2ebb130bba8b100e5736d1b2280a","id":74330244,"location_subtype":"","month":"2019-05"},{"category":"other-theft","location_type":"Force","location":{"latitude":"51.405896","street":{"id":933718,"name":"On or near Jack Goodchild Way"},"longitude":"-0.281362"},"context":"","outcome_status":{"category":"Status update unavailable","date":"2019-09"},"persistent_id":"e9cce2dc3f0cce098f7c3b59b8ab94e14daa66f4ca03f8f169958970795e9a3a","id":74331692,"location_subtype":"","month":"2019-05"},{"category":"other-theft","location_type":"Force","location":{"latitude":"51.409905","street":{"id":933836,"name":"On or near Nightclub"},"longitude":"-0.305341"},"context":"","outcome_status":{"category":"Status update unavailable","date":"2019-09"},"persistent_id":"629b588a79c7b4350e4e9b0c063e5c901edba09c636a678d22bd6d499189c4fa","id":74352153,"location_subtype":"","month":"2019-05"},{"category":"other-theft","location_type":"Force","location":{"latitude":"51.411435","street":{"id":933828,"name":"On or near Clarence Street"},"longitude":"-0.300438"},"context":"","outcome_status":{"category":"Status update unavailable","date":"2019-09"},"persistent_id":"a4fb6d7bf653f12dfe4d420eec09d030cc0ba79d74c21b336e4a77472370c47e","id":74356392,"location_subtype":"","month":"2019-05"},{"category":"other-theft","location_type":"Force","location":{"latitude":"51.418919","street":{"id":934348,"name":"On or near Woodside Road"},"longitude":"-0.303094"},"context":"","outcome_status":{"category":"Status update unavailable","date":"2019-09"},"persistent_id":"993466f411b8066f31fd0600a1cad0a41919507c1cf9a44a14c3d5a3c1142f28","id":74310767,"location_subtype":"","month":"2019-05"},{"category":"other-theft","location_type":"Force","location":{"latitude":"51.402431","street":{"id":933599,"name":"On or near Leigh Close"},"longitude":"-0.268941"},"context":"","outcome_status":{"category":"Status update unavailable","date":"2019-09"},"persistent_id":"fd0aad749ae72a585f401ae117575e1f3d112e02bfd5376f0571e99b34a48bb6","id":74296271,"location_subtype":"","month":"2019-05"},{"category":"other-theft","location_type":"Force","location":{"latitude":"51.410262","street":{"id":933843,"name":"On or near Shopping Area"},"longitude":"-0.303861"},"context":"","outcome_status":{"category":"Status update unavailable","date":"2019-09"},"persistent_id":"fdc8835a3e18340a571970d329b7ec99152fd9d6ed0c1c9644a624fcd4280b21","id":74292420,"location_subtype":"","month":"2019-05"},{"category":"other-theft","location_type":"Force","location":{"latitude":"51.411435","street":{"id":933828,"name":"On or near Clarence Street"},"longitude":"-0.300438"},"context":"","outcome_status":{"category":"Status update unavailable","date":"2019-09"},"persistent_id":"e9d02f6bc7f8a5691f76152af05f5c685b9d67fa01159031a11978f8592f5d2c","id":74293357,"location_subtype":"","month":"2019-05"},{"category":"other-theft","location_type":"Force","location":{"latitude":"51.413838","street":{"id":933791,"name":"On or near Walter Street"},"longitude":"-0.301183"},"context":"","outcome_status":{"category":"Status update unavailable","date":"2019-09"},"persistent_id":"47be1ed0b3973d506e5bd7d3a6bad901f4229ed8144a0178271d406fed274d1d","id":74293633,"location_subtype":"","month":"2019-05"},{"category":"other-theft","location_type":"Force","location":{"latitude":"51.409905","street":{"id":933836,"name":"On or near Nightclub"},"longitude":"-0.305341"},"context":"","outcome_status":{"category":"Status update unavailable","date":"2019-09"},"persistent_id":"f1c88992ddd6c8cb7fcefe765802ffd9364b3e9c08a90168a8f3ac9288714081","id":74295482,"location_subtype":"","month":"2019-05"},{"category":"other-theft","location_type":"Force","location":{"latitude":"51.402431","street":{"id":933599,"name":"On or near Leigh Close"},"longitude":"-0.268941"},"context":"","outcome_status":{"category":"Status update unavailable","date":"2019-09"},"persistent_id":"692835c58722b30ff1bce539e9ab1bffaae12b8d7ea2494928437b2af8e8e3d9","id":74295486,"location_subtype":"","month":"2019-05"},{"category":"other-theft","location_type":"Force","location":{"latitude":"51.409265","street":{"id":933810,"name":"On or near Lady Booth Road"},"longitude":"-0.302115"},"context":"","outcome_status":{"category":"Status update unavailable","date":"2019-09"},"persistent_id":"46c59ae462b27e82752d764eefc942268740f11120f76151d956e0c7ed93d625","id":74307941,"location_subtype":"","month":"2019-05"},{"category":"other-theft","location_type":"Force","location":{"latitude":"51.410465","street":{"id":933790,"name":"On or near Weston Park"},"longitude":"-0.301150"},"context":"","outcome_status":{"category":"Status update unavailable","date":"2019-09"},"persistent_id":"0c51d1e41c62ef8cd36a0ad572b422c99d80215dcebb8a1f90e5f229d2a20eb8","id":74308074,"location_subtype":"","month":"2019-05"},{"category":"other-theft","location_type":"Force","location":{"latitude":"51.408618","street":{"id":933809,"name":"On or near Littlefield Close"},"longitude":"-0.300888"},"context":"","outcome_status":{"category":"Status update unavailable","date":"2019-09"},"persistent_id":"0ab30404762f6cd6e98c4bd7f99cc6998f2261f3cff5c3ff064d0379dcdeb300","id":74308077,"location_subtype":"","month":"2019-05"},{"category":"other-theft","location_type":"Force","location":{"latitude":"51.416417","street":{"id":934344,"name":"On or near Lower Kings Road"},"longitude":"-0.304179"},"context":"","outcome_status":{"category":"Status update unavailable","date":"2019-09"},"persistent_id":"b2adda49ddcaba10105878101fa518cfce9e1f4b8290163003c92ef116f4ccad","id":74305042,"location_subtype":"","month":"2019-05"},{"category":"other-theft","location_type":"Force","location":{"latitude":"51.401449","street":{"id":929869,"name":"On or near Villiers Close"},"longitude":"-0.292700"},"context":"","outcome_status":{"category":"Status update unavailable","date":"2019-09"},"persistent_id":"b4336dde7b1da66625f8be172082e265f6ebd33d8c57e411000961a0b54db282","id":74319844,"location_subtype":"","month":"2019-05"},{"category":"other-theft","location_type":"Force","location":{"latitude":"51.410262","street":{"id":933843,"name":"On or near Shopping Area"},"longitude":"-0.303861"},"context":"","outcome_status":{"category":"Status update unavailable","date":"2019-09"},"persistent_id":"f553db83de4cca0d5aff40402c71d2debc477ef611cd2bc3b4de5afb77193eee","id":74319952,"location_subtype":"","month":"2019-05"},{"category":"other-theft","location_type":"Force","location":{"latitude":"51.402646","street":{"id":933587,"name":"On or near Virginia Close"},"longitude":"-0.274943"},"context":"","outcome_status":{"category":"Investigation complete; no suspect identified","date":"2020-03"},"persistent_id":"d1b42d15b149635139d672f6acb62eec88b0b034a34f466a26a680b331b9eb0c","id":74325202,"location_subtype":"","month":"2019-05"},{"category":"other-theft","location_type":"Force","location":{"latitude":"51.414276","street":{"id":933717,"name":"On or near Hospital"},"longitude":"-0.283105"},"context":"","outcome_status":{"category":"Status update unavailable","date":"2019-09"},"persistent_id":"60541505f995bc14f89b5065bb2b487a0cbbf11f9f671dcd0c6e9172b122e5ab","id":74312045,"location_subtype":"","month":"2019-05"},{"category":"other-theft","location_type":"Force","location":{"latitude":"51.412923","street":{"id":933799,"name":"On or near Skerne Road"},"longitude":"-0.305042"},"context":"","outcome_status":{"category":"Status update unavailable","date":"2019-09"},"persistent_id":"6a3c7e4110a53fa928219b29eab4a37e712fd01136d56f23e0d614402b0b9022","id":74305688,"location_subtype":"","month":"2019-05"},{"category":"other-theft","location_type":"Force","location":{"latitude":"51.411435","street":{"id":933828,"name":"On or near Clarence Street"},"longitude":"-0.300438"},"context":"","outcome_status":{"category":"Status update unavailable","date":"2019-09"},"persistent_id":"e0596468fd3882ef42de61ce2a1fb12588600ced16915133146eb6807fdd8375","id":74315805,"location_subtype":"","month":"2019-05"},{"category":"other-theft","location_type":"Force","location":{"latitude":"51.407908","street":{"id":933525,"name":"On or near Sports\/recreation Area"},"longitude":"-0.276298"},"context":"","outcome_status":{"category":"Status update unavailable","date":"2019-09"},"persistent_id":"ae6613f83ff8c3a85aad9d1693250cc699ab7d98ad406357330ab9e2b757f16e","id":74316835,"location_subtype":"","month":"2019-05"},{"category":"other-theft","location_type":"Force","location":{"latitude":"51.416169","street":{"id":934486,"name":"On or near Coombe Lane West"},"longitude":"-0.265086"},"context":"","outcome_status":{"category":"Status update unavailable","date":"2019-09"},"persistent_id":"cb7245f42b0d6b7c06687a4e184e200fcad3257c999a4a481b5d6f65fc68d2db","id":74316837,"location_subtype":"","month":"2019-05"},{"category":"other-theft","location_type":"Force","location":{"latitude":"51.409686","street":{"id":933845,"name":"On or near Supermarket"},"longitude":"-0.303249"},"context":"","outcome_status":{"category":"Status update unavailable","date":"2019-09"},"persistent_id":"5f6e54708e54552723bfdc377340d91e3e66db96543edfa7546953ea1523fe84","id":74318362,"location_subtype":"","month":"2019-05"},{"category":"other-theft","location_type":"Force","location":{"latitude":"51.411435","street":{"id":933828,"name":"On or near Clarence Street"},"longitude":"-0.300438"},"context":"","outcome_status":{"category":"Status update unavailable","date":"2019-09"},"persistent_id":"a61a2d39f7160e7ed7058a916bb01f80f945d72a784c4f2e898939dc14ffa748","id":74332306,"location_subtype":"","month":"2019-05"},{"category":"other-theft","location_type":"Force","location":{"latitude":"51.414951","street":{"id":933618,"name":"On or near Waights Court"},"longitude":"-0.298553"},"context":"","outcome_status":{"category":"Status update unavailable","date":"2019-09"},"persistent_id":"30b9cf884e628eaafaa7d20fc88628015b91b5707537e1845ae4bb7e6a3f1a51","id":74332307,"location_subtype":"","month":"2019-05"},{"category":"other-theft","location_type":"Force","location":{"latitude":"51.410932","street":{"id":933635,"name":"On or near London Road"},"longitude":"-0.291843"},"context":"","outcome_status":{"category":"Status update unavailable","date":"2019-09"},"persistent_id":"ad664aa5c4e1f037246612957b471a2a29bc96218678e30f2cc19d2a841dc980","id":74332315,"location_subtype":"","month":"2019-05"},{"category":"other-theft","location_type":"Force","location":{"latitude":"51.411435","street":{"id":933828,"name":"On or near Clarence Street"},"longitude":"-0.300438"},"context":"","outcome_status":{"category":"Status update unavailable","date":"2019-09"},"persistent_id":"57b6692581ebf48b5794e837a32e7eb47160bc195461025b69032474fd6af761","id":74334227,"location_subtype":"","month":"2019-05"},{"category":"other-theft","location_type":"Force","location":{"latitude":"51.411435","street":{"id":933828,"name":"On or near Clarence Street"},"longitude":"-0.300438"},"context":"","outcome_status":{"category":"Status update unavailable","date":"2019-09"},"persistent_id":"5bf176fa4d1253350eec4f6b84f5a29042eb98d964af649740e7d391bbedc028","id":74328988,"location_subtype":"","month":"2019-05"},{"category":"other-theft","location_type":"Force","location":{"latitude":"51.409372","street":{"id":933500,"name":"On or near Orme Road"},"longitude":"-0.277968"},"context":"","outcome_status":{"category":"Status update unavailable","date":"2019-09"},"persistent_id":"17c15ccec64265425e5d4626e0fa4e085c008dd180552836077efa6b03c72d56","id":74335906,"location_subtype":"","month":"2019-05"},{"category":"other-theft","location_type":"Force","location":{"latitude":"51.409810","street":{"id":933783,"name":"On or near Parking Area"},"longitude":"-0.301232"},"context":"","outcome_status":{"category":"Status update unavailable","date":"2019-09"},"persistent_id":"1a01c072f710be86ef1466b4730163dc861859f58ed2462c831266ffc60cbfb1","id":74330622,"location_subtype":"","month":"2019-05"},{"category":"other-theft","location_type":"Force","location":{"latitude":"51.406841","street":{"id":933782,"name":"On or near Parking Area"},"longitude":"-0.304260"},"context":"","outcome_status":{"category":"Status update unavailable","date":"2019-09"},"persistent_id":"996d2936961e10687d459dcf0f946abe6684ba818c2313566776aa4448c2ab10","id":74343331,"location_subtype":"","month":"2019-05"},{"category":"other-theft","location_type":"Force","location":{"latitude":"51.412296","street":{"id":933655,"name":"On or near Cromwell Road"},"longitude":"-0.298422"},"context":"","outcome_status":{"category":"Status update unavailable","date":"2019-09"},"persistent_id":"045f9978e1850898f1b20edeb38daa21b43343a0ccc294e21eb7eb2b92788213","id":74340691,"location_subtype":"","month":"2019-05"},{"category":"other-theft","location_type":"Force","location":{"latitude":"51.414702","street":{"id":933778,"name":"On or near Parking Area"},"longitude":"-0.304933"},"context":"","outcome_status":{"category":"Status update unavailable","date":"2019-09"},"persistent_id":"87f9305b0717625bed964f2d08c72f0b65bcf8b77c1e075688f205d0f753b74d","id":74340694,"location_subtype":"","month":"2019-05"},{"category":"other-theft","location_type":"Force","location":{"latitude":"51.413559","street":{"id":933673,"name":"On or near Petrol Station"},"longitude":"-0.288208"},"context":"","outcome_status":{"category":"Status update unavailable","date":"2019-09"},"persistent_id":"647e65ccd923fb25da417c88e5b26d34dec607cb4c6e98f7d74f1e9de080a20c","id":74341681,"location_subtype":"","month":"2019-05"},{"category":"other-theft","location_type":"Force","location":{"latitude":"51.409810","street":{"id":933783,"name":"On or near Parking Area"},"longitude":"-0.301232"},"context":"","outcome_status":{"category":"Status update unavailable","date":"2019-09"},"persistent_id":"6f1886cafea41bdf9c029370f49add25e81e1ee26fb4f8ddad50fc77afa30175","id":74341686,"location_subtype":"","month":"2019-05"},{"category":"other-theft","location_type":"Force","location":{"latitude":"51.410932","street":{"id":933635,"name":"On or near London Road"},"longitude":"-0.291843"},"context":"","outcome_status":{"category":"Status update unavailable","date":"2019-09"},"persistent_id":"95b96d5f7e7da4eda29b4036d359762e1b1023ea1fe03550d33a185fdcd5c696","id":74342182,"location_subtype":"","month":"2019-05"},{"category":"other-theft","location_type":"Force","location":{"latitude":"51.405325","street":{"id":933748,"name":"On or near Further\/higher Educational Building"},"longitude":"-0.298910"},"context":"","outcome_status":{"category":"Status update unavailable","date":"2019-09"},"persistent_id":"f22a2ad2d946a08a9c4946a2586d86ff5457529df5c22c8cee99840634adeb84","id":74342183,"location_subtype":"","month":"2019-05"},{"category":"other-theft","location_type":"Force","location":{"latitude":"51.411708","street":{"id":933847,"name":"On or near Shopping Area"},"longitude":"-0.305015"},"context":"","outcome_status":{"category":"Status update unavailable","date":"2019-09"},"persistent_id":"7e6fb542f1852c6cfa674cf2a76c61776189aab818a812850233dc2e9a70bac6","id":74344109,"location_subtype":"","month":"2019-05"},