[{"category":"anti-social-behaviour","location_type":"Force","location":{"latitude":"51.480171","street":{"id":949057,"name":"On or near Hillbeck Close"},"longitude":"-0.057119"},"context":"","outcome_status":null,"persistent_id":"","id":74285903,"location_subtype":"","month":"2019-05"},{"category":"anti-social-behaviour","location_type":"Force","location":{"latitude":"51.469920","street":{"id":946479,"name":"On or near Hathorne Close"},"longitude":"-0.057728"},"context":"","outcome_status":null,"persistent_id":"","id":74285907,"location_subtype":"","month":"2019-05"},{"category":"anti-social-behaviour","location_type":"Force","location":{"latitude":"51.465217","street":{"id":946527,"name":"On or near Cheam Street"},"longitude":"-0.058230"},"context":"","outcome_status":null,"persistent_id":"","id":74285910,"location_subtype":"","month":"2019-05"},{"category":"anti-social-behaviour","location_type":"Force","location":{"latitude":"51.473448","street":{"id":946463,"name":"On or near Queen's Road"},"longitude":"-0.057880"},"context":"","outcome_status":null,"persistent_id":"","id":74285908,"location_subtype":"","month":"2019-05"},{"category":"anti-social-behaviour","location_type":"Force","location":{"latitude":"51.473448","street":{"id":946463,"name":"On or near Queen's Road"},"longitude":"-0.057880"},"context":"","outcome_status":null,"persistent_id":"","id":74285909,"location_subtype":"","month":"2019-05"},{"category":"anti-social-behaviour","location_type":"Force","location":{"latitude":"51.466393","street":{"id":946529,"name":"On or near Barton Close"},"longitude":"-0.058669"},"context":"","outcome_status":null,"persistent_id":"","id":74285911,"location_subtype":"","month":"2019-05"},{"category":"anti-social-behaviour","location_type":"Force","location":{"latitude":"51.477226","street":{"id":946501,"name":"On or near Asylum Road"},"longitude":"-0.058497"},"context":"","outcome_status":null,"persistent_id":"","id":74285912,"location_subtype":"","month":"2019-05"},{"category":"anti-social-behaviour","location_type":"Force","location":{"latitude":"51.477226","street":{"id":946501,"name":"On or near Asylum Road"},"longitude":"-0.058497"},"context":"","outcome_status":null,"persistent_id":"","id":74285914,"location_subtype":"","month":"2019-05"},{"category":"anti-social-behaviour","location_type":"Force","location":{"latitude":"51.477226","street":{"id":946501,"name":"On or near Asylum Road"},"longitude":"-0.058497"},"context":"","outcome_status":null,"persistent_id":"","id":74285913,"location_subtype":"","month":"2019-05"},{"category":"anti-social-behaviour","location_type":"Force","location":{"latitude":"51.477226","street":{"id":946501,"name":"On or near Asylum Road"},"longitude":"-0.058497"},"context":"","outcome_status":null,"persistent_id":"","id":74285915,"location_subtype":"","month":"2019-05"},{"category":"anti-social-behaviour","location_type":"Force","location":{"latitude":"51.477226","street":{"id":946501,"name":"On or near Asylum Road"},"longitude":"-0.058497"},"context":"","outcome_status":null,"persistent_id":"","id":74285916,"location_subtype":"","month":"2019-05"},{"category":"anti-social-behaviour","location_type":"Force","location":{"latitude":"51.477226","street":{"id":946501,"name":"On or near Asylum Road"},"longitude":"-0.058497"},"context":"","outcome_status":null,"persistent_id":"","id":74285917,"location_subtype":"","month":"2019-05"},{"category":"anti-social-behaviour","location_type":"Force","location":{"latitude":"51.477226","street":{"id":946501,"name":"On or near Asylum Road"},"longitude":"-0.058497"},"context":"","outcome_status":null,"persistent_id":"","id":74285919,"location_subtype":"","month":"2019-05"},{"category":"anti-social-behaviour","location_type":"Force","location":{"latitude":"51.477226","street":{"id":946501,"name":"On or near Asylum Road"},"longitude":"-0.058497"},"context":"","outcome_status":null,"persistent_id":"","id":74285921,"location_subtype":"","month":"2019-05"},{"category":"anti-social-behaviour","location_type":"Force","location":{"latitude":"51.477226","street":{"id":946501,"name":"On or near Asylum Road"},"longitude":"-0.058497"},"context":"","outcome_status":null,"persistent_id":"","id":74285920,"location_subtype":"","month":"2019-05"},{"category":"anti-social-behaviour","location_type":"Force","location":{"latitude":"51.462044","street":{"id":942099,"name":"On or near Tresco Road"},"longitude":"-0.059415"},"context":"","outcome_status":null,"persistent_id":"","id":74285922,"location_subtype":"","month":"2019-05"},{"category":"anti-social-behaviour","location_type":"Force","location":{"latitude":"51.477226","street":{"id":946501,"name":"On or near Asylum Road"},"longitude":"-0.058497"},"context":"","outcome_status":null,"persistent_id":"","id":74285924,"location_subtype":"","month":"2019-05"},{"category":"anti-social-behaviour","location_type":"Force","location":{"latitude":"51.477226","street":{"id":946501,"name":"On or near Asylum Road"},"longitude":"-0.058497"},"context":"","outcome_status":null,"persistent_id":"","id":74285925,"location_subtype":"","month":"2019-05"},{"category":"anti-social-behaviour","location_type":"Force","location":{"latitude":"51.477226","street":{"id":946501,"name":"On or near Asylum Road"},"longitude":"-0.058497"},"context":"","outcome_status":null,"persistent_id":"","id":74285926,"location_subtype":"","month":"2019-05"},{"category":"anti-social-behaviour","location_type":"Force","location":{"latitude":"51.477226","street":{"id":946501,"name":"On or near Asylum Road"},"longitude":"-0.058497"},"context":"","outcome_status":null,"persistent_id":"","id":74285927,"location_subtype":"","month":"2019-05"},{"category":"anti-social-behaviour","location_type":"Force","location":{"latitude":"51.479365","street":{"id":949058,"name":"On or near Gervase Street"},"longitude":"-0.058392"},"context":"","outcome_status":null,"persistent_id":"","id":74285928,"location_subtype":"","month":"2019-05"},{"category":"anti-social-behaviour","location_type":"Force","location":{"latitude":"51.469433","street":{"id":946492,"name":"On or near Brayard's Road"},"longitude":"-0.058684"},"context":"","outcome_status":null,"persistent_id":"","id":74285930,"location_subtype":"","month":"2019-05"},{"category":"anti-social-behaviour","location_type":"Force","location":{"latitude":"51.468855","street":{"id":946475,"name":"On or near Kirkwood Road"},"longitude":"-0.059659"},"context":"","outcome_status":null,"persistent_id":"","id":74285929,"location_subtype":"","month":"2019-05"},{"category":"anti-social-behaviour","location_type":"Force","location":{"latitude":"51.479365","street":{"id":949058,"name":"On or near Gervase Street"},"longitude":"-0.058392"},"context":"","outcome_status":null,"persistent_id":"","id":74285931,"location_subtype":"","month":"2019-05"},{"category":"anti-social-behaviour","location_type":"Force","location":{"latitude":"51.473912","street":{"id":946464,"name":"On or near Queen's Road"},"longitude":"-0.060395"},"context":"","outcome_status":null,"persistent_id":"","id":74285933,"location_subtype":"","month":"2019-05"},{"category":"anti-social-behaviour","location_type":"Force","location":{"latitude":"51.479365","street":{"id":949058,"name":"On or near Gervase Street"},"longitude":"-0.058392"},"context":"","outcome_status":null,"persistent_id":"","id":74285932,"location_subtype":"","month":"2019-05"},{"category":"anti-social-behaviour","location_type":"Force","location":{"latitude":"51.473912","street":{"id":946464,"name":"On or near Queen's Road"},"longitude":"-0.060395"},"context":"","outcome_status":null,"persistent_id":"","id":74285934,"location_subtype":"","month":"2019-05"},{"category":"anti-social-behaviour","location_type":"Force","location":{"latitude":"51.473912","street":{"id":946464,"name":"On or near Queen's Road"},"longitude":"-0.060395"},"context":"","outcome_status":null,"persistent_id":"","id":74285935,"location_subtype":"","month":"2019-05"},{"category":"anti-social-behaviour","location_type":"Force","location":{"latitude":"51.467821","street":{"id":946512,"name":"On or near Sturdy Road"},"longitude":"-0.061287"},"context":"","outcome_status":null,"persistent_id":"","id":74285936,"location_subtype":"","month":"2019-05"},{"category":"anti-social-behaviour","location_type":"Force","location":{"latitude":"51.471898","street":{"id":946488,"name":"On or near Cossall Walk"},"longitude":"-0.060394"},"context":"","outcome_status":null,"persistent_id":"","id":74285943,"location_subtype":"","month":"2019-05"},{"category":"anti-social-behaviour","location_type":"Force","location":{"latitude":"51.475318","street":{"id":946490,"name":"On or near Carlton Grove"},"longitude":"-0.061127"},"context":"","outcome_status":null,"persistent_id":"","id":74285944,"location_subtype":"","month":"2019-05"},{"category":"anti-social-behaviour","location_type":"Force","location":{"latitude":"51.463741","street":{"id":942107,"name":"On or near Nunhead Lane"},"longitude":"-0.062007"},"context":"","outcome_status":null,"persistent_id":"","id":74285948,"location_subtype":"","month":"2019-05"},{"category":"anti-social-behaviour","location_type":"Force","location":{"latitude":"51.462580","street":{"id":942118,"name":"On or near Banfield Road"},"longitude":"-0.062502"},"context":"","outcome_status":null,"persistent_id":"","id":74285953,"location_subtype":"","month":"2019-05"},{"category":"anti-social-behaviour","location_type":"Force","location":{"latitude":"51.475318","street":{"id":946490,"name":"On or near Carlton Grove"},"longitude":"-0.061127"},"context":"","outcome_status":null,"persistent_id":"","id":74285954,"location_subtype":"","month":"2019-05"},{"category":"anti-social-behaviour","location_type":"Force","location":{"latitude":"51.466393","street":{"id":946516,"name":"On or near Manaton Close"},"longitude":"-0.061966"},"context":"","outcome_status":null,"persistent_id":"","id":74285955,"location_subtype":"","month":"2019-05"},{"category":"anti-social-behaviour","location_type":"Force","location":{"latitude":"51.456793","street":{"id":942104,"name":"On or near Peckham Rye"},"longitude":"-0.064388"},"context":"","outcome_status":null,"persistent_id":"","id":74285965,"location_subtype":"","month":"2019-05"},{"category":"anti-social-behaviour","location_type":"Force","location":{"latitude":"51.468758","street":{"id":946493,"name":"On or near Brayard's Road"},"longitude":"-0.063032"},"context":"","outcome_status":null,"persistent_id":"","id":74285969,"location_subtype":"","month":"2019-05"},{"category":"anti-social-behaviour","location_type":"Force","location":{"latitude":"51.463465","street":{"id":942095,"name":"On or near Nunhead Crescent"},"longitude":"-0.064350"},"context":"","outcome_status":null,"persistent_id":"","id":74285970,"location_subtype":"","month":"2019-05"},{"category":"anti-social-behaviour","location_type":"Force","location":{"latitude":"51.469142","street":{"id":946496,"name":"On or near Blackpool Road"},"longitude":"-0.063966"},"context":"","outcome_status":null,"persistent_id":"","id":74285971,"location_subtype":"","month":"2019-05"},{"category":"anti-social-behaviour","location_type":"Force","location":{"latitude":"51.466784","street":{"id":946508,"name":"On or near Wivenhoe Close"},"longitude":"-0.063821"},"context":"","outcome_status":null,"persistent_id":"","id":74285974,"location_subtype":"","month":"2019-05"},{"category":"anti-social-behaviour","location_type":"Force","location":{"latitude":"51.466784","street":{"id":946508,"name":"On or near Wivenhoe Close"},"longitude":"-0.063821"},"context":"","outcome_status":null,"persistent_id":"","id":74285975,"location_subtype":"","month":"2019-05"},{"category":"anti-social-behaviour","location_type":"Force","location":{"latitude":"51.466784","street":{"id":946508,"name":"On or near Wivenhoe Close"},"longitude":"-0.063821"},"context":"","outcome_status":null,"persistent_id":"","id":74285976,"location_subtype":"","month":"2019-05"},{"category":"anti-social-behaviour","location_type":"Force","location":{"latitude":"51.466784","street":{"id":946508,"name":"On or near Wivenhoe Close"},"longitude":"-0.063821"},"context":"","outcome_status":null,"persistent_id":"","id":74285977,"location_subtype":"","month":"2019-05"},{"category":"anti-social-behaviour","location_type":"Force","location":{"latitude":"51.474883","street":{"id":946397,"name":"On or near Staffordshire Street"},"longitude":"-0.065250"},"context":"","outcome_status":null,"persistent_id":"","id":74285980,"location_subtype":"","month":"2019-05"},{"category":"anti-social-behaviour","location_type":"Force","location":{"latitude":"51.467402","street":{"id":946384,"name":"On or near Claude Road"},"longitude":"-0.064227"},"context":"","outcome_status":null,"persistent_id":"","id":74285984,"location_subtype":"","month":"2019-05"},{"category":"anti-social-behaviour","location_type":"Force","location":{"latitude":"51.478382","street":{"id":949211,"name":"On or near Elcot Avenue"},"longitude":"-0.064209"},"context":"","outcome_status":null,"persistent_id":"","id":74285987,"location_subtype":"","month":"2019-05"},{"category":"anti-social-behaviour","location_type":"Force","location":{"latitude":"51.467557","street":{"id":946365,"name":"On or near Parking Area"},"longitude":"-0.065459"},"context":"","outcome_status":null,"persistent_id":"","id":74285988,"location_subtype":"","month":"2019-05"},{"category":"anti-social-behaviour","location_type":"Force","location":{"latitude":"51.473154","street":{"id":946277,"name":"On or near Clayton Road"},"longitude":"-0.065654"},"context":"","outcome_status":null,"persistent_id":"","id":74286845,"location_subtype":"","month":"2019-05"},{"category":"anti-social-behaviour","location_type":"Force","location":{"latitude":"51.466603","street":{"id":946370,"name":"On or near Sternhall Lane"},"longitude":"-0.067054"},"context":"","outcome_status":null,"persistent_id":"","id":74286850,"location_subtype":"","month":"2019-05"},{"category":"anti-social-behaviour","location_type":"Force","location":{"latitude":"51.471825","street":{"id":946228,"name":"On or near Robert Keen Close"},"longitude":"-0.066301"},"context":"","outcome_status":null,"persistent_id":"","id":74286855,"location_subtype":"","month":"2019-05"},{"category":"anti-social-behaviour","location_type":"Force","location":{"latitude":"51.472454","street":{"id":946293,"name":"On or near Petrol Station"},"longitude":"-0.066836"},"context":"","outcome_status":null,"persistent_id":"","id":74286859,"location_subtype":"","month":"2019-05"},{"category":"anti-social-behaviour","location_type":"Force","location":{"latitude":"51.460014","street":{"id":942233,"name":"On or near The Gardens"},"longitude":"-0.067750"},"context":"","outcome_status":null,"persistent_id":"","id":74286861,"location_subtype":"","month":"2019-05"},{"category":"anti-social-behaviour","location_type":"Force","location":{"latitude":"51.468251","street":{"id":946392,"name":"On or near Atwell Road"},"longitude":"-0.067186"},"context":"","outcome_status":null,"persistent_id":"","id":74286863,"location_subtype":"","month":"2019-05"},{"category":"anti-social-behaviour","location_type":"Force","location":{"latitude":"51.466148","street":{"id":946375,"name":"On or near Nigel Road"},"longitude":"-0.067793"},"context":"","outcome_status":null,"persistent_id":"","id":74286864,"location_subtype":"","month":"2019-05"},{"category":"anti-social-behaviour","location_type":"Force","location":{"latitude":"51.476915","street":{"id":946216,"name":"On or near Wilmot Close"},"longitude":"-0.069081"},"context":"","outcome_status":null,"persistent_id":"","id":74286875,"location_subtype":"","month":"2019-05"},{"category":"anti-social-behaviour","location_type":"Force","location":{"latitude":"51.470250","street":{"id":946296,"name":"On or near Supermarket"},"longitude":"-0.068988"},"context":"","outcome_status":null,"persistent_id":"","id":74286876,"location_subtype":"","month":"2019-05"},{"category":"anti-social-behaviour","location_type":"Force","location":{"latitude":"51.468049","street":{"id":946387,"name":"On or near Choumert Grove"},"longitude":"-0.069642"},"context":"","outcome_status":null,"persistent_id":"","id":74286879,"location_subtype":"","month":"2019-05"},{"category":"anti-social-behaviour","location_type":"Force","location":{"latitude":"51.468049","street":{"id":946387,"name":"On or near Choumert Grove"},"longitude":"-0.069642"},"context":"","outcome_status":null,"persistent_id":"","id":74286880,"location_subtype":"","month":"2019-05"},{"category":"anti-social-behaviour","location_type":"Force","location":{"latitude":"51.468049","street":{"id":946387,"name":"On or near Choumert Grove"},"longitude":"-0.069642"},"context":"","outcome_status":null,"persistent_id":"","id":74286881,"location_subtype":"","month":"2019-05"},{"category":"anti-social-behaviour","location_type":"Force","location":{"latitude":"51.474821","street":{"id":946447,"name":"On or near Besson Street"},"longitude":"-0.049067"},"context":"","outcome_status":null,"persistent_id":"","id":74278345,"location_subtype":"","month":"2019-05"},{"category":"anti-social-behaviour","location_type":"Force","location":{"latitude":"51.475352","street":{"id":946427,"name":"On or near Kender Street"},"longitude":"-0.051218"},"context":"","outcome_status":null,"persistent_id":"","id":74278373,"location_subtype":"","month":"2019-05"},{"category":"anti-social-behaviour","location_type":"Force","location":{"latitude":"51.465677","street":{"id":946695,"name":"On or near Endwell Road"},"longitude":"-0.038356"},"context":"","outcome_status":null,"persistent_id":"","id":74277486,"location_subtype":"","month":"2019-05"},{"category":"anti-social-behaviour","location_type":"Force","location":{"latitude":"51.467311","street":{"id":946691,"name":"On or near Sprules Road"},"longitude":"-0.039812"},"context":"","outcome_status":null,"persistent_id":"","id":74277507,"location_subtype":"","month":"2019-05"},{"category":"anti-social-behaviour","location_type":"Force","location":{"latitude":"51.472121","street":{"id":946271,"name":"On or near Consort Road"},"longitude":"-0.064085"},"context":"","outcome_status":null,"persistent_id":"","id":74285968,"location_subtype":"","month":"2019-05"},{"category":"anti-social-behaviour","location_type":"Force","location":{"latitude":"51.471122","street":{"id":946240,"name":"On or near Oliver Mews"},"longitude":"-0.071111"},"context":"","outcome_status":null,"persistent_id":"","id":74286891,"location_subtype":"","month":"2019-05"},{"category":"anti-social-behaviour","location_type":"Force","location":{"latitude":"51.465521","street":{"id":946377,"name":"On or near Maxted Road"},"longitude":"-0.072326"},"context":"","outcome_status":null,"persistent_id":"","id":74286921,"location_subtype":"","month":"2019-05"},{"category":"anti-social-behaviour","location_type":"Force","location":{"latitude":"51.475011","street":{"id":946232,"name":"On or near Pioneer Street"},"longitude":"-0.071407"},"context":"","outcome_status":null,"persistent_id":"","id":74270928,"location_subtype":"","month":"2019-05"},{"category":"anti-social-behaviour","location_type":"Force","location":{"latitude":"51.463691","street":{"id":942288,"name":"On or near Adys Road"},"longitude":"-0.072590"},"context":"","outcome_status":null,"persistent_id":"","id":74270930,"location_subtype":"","month":"2019-05"},{"category":"anti-social-behaviour","location_type":"Force","location":{"latitude":"51.463691","street":{"id":942288,"name":"On or near Adys Road"},"longitude":"-0.072590"},"context":"","outcome_status":null,"persistent_id":"","id":74270931,"location_subtype":"","month":"2019-05"},{"category":"anti-social-behaviour","location_type":"Force","location":{"latitude":"51.463691","street":{"id":942288,"name":"On or near Adys Road"},"longitude":"-0.072590"},"context":"","outcome_status":null,"persistent_id":"","id":74270932,"location_subtype":"","month":"2019-05"},{"category":"anti-social-behaviour","location_type":"Force","location":{"latitude":"51.463691","street":{"id":942288,"name":"On or near Adys Road"},"longitude":"-0.072590"},"context":"","outcome_status":null,"persistent_id":"","id":74270933,"location_subtype":"","month":"2019-05"},{"category":"anti-social-behaviour","location_type":"Force","location":{"latitude":"51.461704","street":{"id":942275,"name":"On or near East Dulwich Road"},"longitude":"-0.073682"},"context":"","outcome_status":null,"persistent_id":"","id":74270935,"location_subtype":"","month":"2019-05"},{"category":"anti-social-behaviour","location_type":"Force","location":{"latitude":"51.473421","street":{"id":946288,"name":"On or near Basing Court"},"longitude":"-0.072583"},"context":"","outcome_status":null,"persistent_id":"","id":74270937,"location_subtype":"","month":"2019-05"},{"category":"anti-social-behaviour","location_type":"Force","location":{"latitude":"51.473421","street":{"id":946288,"name":"On or near Basing Court"},"longitude":"-0.072583"},"context":"","outcome_status":null,"persistent_id":"","id":74270938,"location_subtype":"","month":"2019-05"},{"category":"anti-social-behaviour","location_type":"Force","location":{"latitude":"51.465521","street":{"id":946377,"name":"On or near Maxted Road"},"longitude":"-0.072326"},"context":"","outcome_status":null,"persistent_id":"","id":74270942,"location_subtype":"","month":"2019-05"},{"category":"anti-social-behaviour","location_type":"Force","location":{"latitude":"51.461159","street":{"id":942272,"name":"On or near East Dulwich Road"},"longitude":"-0.073388"},"context":"","outcome_status":null,"persistent_id":"","id":74270945,"location_subtype":"","month":"2019-05"},{"category":"anti-social-behaviour","location_type":"Force","location":{"latitude":"51.468042","street":{"id":946388,"name":"On or near Chadwick Road"},"longitude":"-0.073587"},"context":"","outcome_status":null,"persistent_id":"","id":74270948,"location_subtype":"","month":"2019-05"},{"category":"anti-social-behaviour","location_type":"Force","location":{"latitude":"51.468042","street":{"id":946388,"name":"On or near Chadwick Road"},"longitude":"-0.073587"},"context":"","outcome_status":null,"persistent_id":"","id":74270949,"location_subtype":"","month":"2019-05"},{"category":"anti-social-behaviour","location_type":"Force","location":{"latitude":"51.463247","street":{"id":942252,"name":"On or near Marsden Road"},"longitude":"-0.074567"},"context":"","outcome_status":null,"persistent_id":"","id":74270953,"location_subtype":"","month":"2019-05"},{"category":"anti-social-behaviour","location_type":"Force","location":{"latitude":"51.468280","street":{"id":946596,"name":"On or near Manor Avenue"},"longitude":"-0.031103"},"context":"","outcome_status":null,"persistent_id":"","id":74276756,"location_subtype":"","month":"2019-05"},{"category":"anti-social-behaviour","location_type":"Force","location":{"latitude":"51.465296","street":{"id":946698,"name":"On or near Wickham Road"},"longitude":"-0.031203"},"context":"","outcome_status":null,"persistent_id":"","id":74277391,"location_subtype":"","month":"2019-05"},{"category":"anti-social-behaviour","location_type":"Force","location":{"latitude":"51.460851","street":{"id":942019,"name":"On or near Wickham Road"},"longitude":"-0.034230"},"context":"","outcome_status":null,"persistent_id":"","id":74277405,"location_subtype":"","month":"2019-05"},{"category":"anti-social-behaviour","location_type":"Force","location":{"latitude":"51.469177","street":{"id":946569,"name":"On or near Vulcan Terrace"},"longitude":"-0.033613"},"context":"","outcome_status":null,"persistent_id":"","id":74277407,"location_subtype":"","month":"2019-05"},{"category":"anti-social-behaviour","location_type":"Force","location":{"latitude":"51.467309","street":{"id":946712,"name":"On or near Ashby Mews"},"longitude":"-0.032729"},"context":"","outcome_status":null,"persistent_id":"","id":74277414,"location_subtype":"","month":"2019-05"},{"category":"anti-social-behaviour","location_type":"Force","location":{"latitude":"51.467309","street":{"id":946712,"name":"On or near Ashby Mews"},"longitude":"-0.032729"},"context":"","outcome_status":null,"persistent_id":"","id":74277416,"location_subtype":"","month":"2019-05"},{"category":"anti-social-behaviour","location_type":"Force","location":{"latitude":"51.469177","street":{"id":946569,"name":"On or near Vulcan Terrace"},"longitude":"-0.033613"},"context":"","outcome_status":null,"persistent_id":"","id":74277420,"location_subtype":"","month":"2019-05"},{"category":"anti-social-behaviour","location_type":"Force","location":{"latitude":"51.460504","street":{"id":942033,"name":"On or near Meredith Mews"},"longitude":"-0.033928"},"context":"","outcome_status":null,"persistent_id":"","id":74277423,"location_subtype":"","month":"2019-05"},{"category":"anti-social-behaviour","location_type":"Force","location":{"latitude":"51.460884","street":{"id":942058,"name":"On or near Petrol Station"},"longitude":"-0.035150"},"context":"","outcome_status":null,"persistent_id":"","id":74277431,"location_subtype":"","month":"2019-05"},{"category":"anti-social-behaviour","location_type":"Force","location":{"latitude":"51.469196","street":{"id":946597,"name":"On or near Malpas Road"},"longitude":"-0.034764"},"context":"","outcome_status":null,"persistent_id":"","id":74277435,"location_subtype":"","month":"2019-05"},{"category":"anti-social-behaviour","location_type":"Force","location":{"latitude":"51.469196","street":{"id":946597,"name":"On or near Malpas Road"},"longitude":"-0.034764"},"context":"","outcome_status":null,"persistent_id":"","id":74277436,"location_subtype":"","month":"2019-05"},{"category":"anti-social-behaviour","location_type":"Force","location":{"latitude":"51.469196","street":{"id":946597,"name":"On or near Malpas Road"},"longitude":"-0.034764"},"context":"","outcome_status":null,"persistent_id":"","id":74277438,"location_subtype":"","month":"2019-05"},{"category":"anti-social-behaviour","location_type":"Force","location":{"latitude":"51.465597","street":{"id":946688,"name":"On or near Brockley Cross"},"longitude":"-0.035739"},"context":"","outcome_status":null,"persistent_id":"","id":74277440,"location_subtype":"","month":"2019-05"},{"category":"anti-social-behaviour","location_type":"Force","location":{"latitude":"51.475392","street":{"id":946657,"name":"On or near Lewisham Way"},"longitude":"-0.035837"},"context":"","outcome_status":null,"persistent_id":"","id":74277443,"location_subtype":"","month":"2019-05"},{"category":"anti-social-behaviour","location_type":"Force","location":{"latitude":"51.475392","street":{"id":946657,"name":"On or near Lewisham Way"},"longitude":"-0.035837"},"context":"","outcome_status":null,"persistent_id":"","id":74277444,"location_subtype":"","month":"2019-05"},{"category":"anti-social-behaviour","location_type":"Force","location":{"latitude":"51.475392","street":{"id":946657,"name":"On or near Lewisham Way"},"longitude":"-0.035837"},"context":"","outcome_status":null,"persistent_id":"","id":74277445,"location_subtype":"","month":"2019-05"},{"category":"anti-social-behaviour","location_type":"Force","location":{"latitude":"51.475392","street":{"id":946657,"name":"On or near Lewisham Way"},"longitude":"-0.035837"},"context":"","outcome_status":null,"persistent_id":"","id":74277446,"location_subtype":"","month":"2019-05"},{"category":"anti-social-behaviour","location_type":"Force","location":{"latitude":"51.464226","street":{"id":946684,"name":"On or near Harefield Mews"},"longitude":"-0.035496"},"context":"","outcome_status":null,"persistent_id":"","id":74277453,"location_subtype":"","month":"2019-05"},{"category":"anti-social-behaviour","location_type":"Force","location":{"latitude":"51.459033","street":{"id":942008,"name":"On or near Comerford Road"},"longitude":"-0.036324"},"context":"","outcome_status":null,"persistent_id":"","id":74277455,"location_subtype":"","month":"2019-05"},{"category":"anti-social-behaviour","location_type":"Force","location":{"latitude":"51.459033","street":{"id":942008,"name":"On or near Comerford Road"},"longitude":"-0.036324"},"context":"","outcome_status":null,"persistent_id":"","id":74277456,"location_subtype":"","month":"2019-05"},{"category":"anti-social-behaviour","location_type":"Force","location":{"latitude":"51.459033","street":{"id":942008,"name":"On or near Comerford Road"},"longitude":"-0.036324"},"context":"","outcome_status":null,"persistent_id":"","id":74277457,"location_subtype":"","month":"2019-05"},{"category":"anti-social-behaviour","location_type":"Force","location":{"latitude":"51.459033","street":{"id":942008,"name":"On or near Comerford Road"},"longitude":"-0.036324"},"context":"","outcome_status":null,"persistent_id":"","id":74277458,"location_subtype":"","month":"2019-05"},{"category":"anti-social-behaviour","location_type":"Force","location":{"latitude":"51.458252","street":{"id":942003,"name":"On or near Whitbread Road"},"longitude":"-0.036400"},"context":"","outcome_status":null,"persistent_id":"","id":74277459,"location_subtype":"","month":"2019-05"},{"category":"anti-social-behaviour","location_type":"Force","location":{"latitude":"51.470360","street":{"id":946659,"name":"On or near Barriedale"},"longitude":"-0.036600"},"context":"","outcome_status":null,"persistent_id":"","id":74277463,"location_subtype":"","month":"2019-05"},{"category":"anti-social-behaviour","location_type":"Force","location":{"latitude":"51.475938","street":{"id":946678,"name":"On or near Nightclub"},"longitude":"-0.036778"},"context":"","outcome_status":null,"persistent_id":"","id":74277469,"location_subtype":"","month":"2019-05"},{"category":"anti-social-behaviour","location_type":"Force","location":{"latitude":"51.475631","street":{"id":946669,"name":"On or near Lewisham Way"},"longitude":"-0.037224"},"context":"","outcome_status":null,"persistent_id":"","id":74277477,"location_subtype":"","month":"2019-05"},{"category":"anti-social-behaviour","location_type":"Force","location":{"latitude":"51.475631","street":{"id":946669,"name":"On or near Lewisham Way"},"longitude":"-0.037224"},"context":"","outcome_status":null,"persistent_id":"","id":74277478,"location_subtype":"","month":"2019-05"},{"category":"anti-social-behaviour","location_type":"Force","location":{"latitude":"51.475902","street":{"id":946675,"name":"On or near Batavia Mews"},"longitude":"-0.037817"},"context":"","outcome_status":null,"persistent_id":"","id":74277485,"location_subtype":"","month":"2019-05"},{"category":"anti-social-behaviour","location_type":"Force","location":{"latitude":"51.464797","street":{"id":946694,"name":"On or near Foxwell Street"},"longitude":"-0.038970"},"context":"","outcome_status":null,"persistent_id":"","id":74277491,"location_subtype":"","month":"2019-05"},{"category":"anti-social-behaviour","location_type":"Force","location":{"latitude":"51.476519","street":{"id":946673,"name":"On or near Goodwood Road"},"longitude":"-0.039749"},"context":"","outcome_status":null,"persistent_id":"","id":74277504,"location_subtype":"","month":"2019-05"},{"category":"anti-social-behaviour","location_type":"Force","location":{"latitude":"51.476519","street":{"id":946673,"name":"On or near Goodwood Road"},"longitude":"-0.039749"},"context":"","outcome_status":null,"persistent_id":"","id":74277505,"location_subtype":"","month":"2019-05"},{"category":"anti-social-behaviour","location_type":"Force","location":{"latitude":"51.476519","street":{"id":946673,"name":"On or near Goodwood Road"},"longitude":"-0.039749"},"context":"","outcome_status":null,"persistent_id":"","id":74277506,"location_subtype":"","month":"2019-05"},{"category":"anti-social-behaviour","location_type":"Force","location":{"latitude":"51.470961","street":{"id":946671,"name":"On or near Jerningham Road"},"longitude":"-0.040822"},"context":"","outcome_status":null,"persistent_id":"","id":74277515,"location_subtype":"","month":"2019-05"},{"category":"anti-social-behaviour","location_type":"Force","location":{"latitude":"51.478006","street":{"id":948924,"name":"On or near Redstart Close"},"longitude":"-0.039973"},"context":"","outcome_status":null,"persistent_id":"","id":74277516,"location_subtype":"","month":"2019-05"},{"category":"anti-social-behaviour","location_type":"Force","location":{"latitude":"51.477055","street":{"id":946676,"name":"On or near Auburn Close"},"longitude":"-0.040619"},"context":"","outcome_status":null,"persistent_id":"","id":74277523,"location_subtype":"","month":"2019-05"},{"category":"anti-social-behaviour","location_type":"Force","location":{"latitude":"51.470961","street":{"id":946671,"name":"On or near Jerningham Road"},"longitude":"-0.040822"},"context":"","outcome_status":null,"persistent_id":"","id":74277524,"location_subtype":"","month":"2019-05"},{"category":"anti-social-behaviour","location_type":"Force","location":{"latitude":"51.464914","street":{"id":946692,"name":"On or near Seymour Gardens"},"longitude":"-0.042175"},"context":"","outcome_status":null,"persistent_id":"","id":74277528,"location_subtype":"","month":"2019-05"},{"category":"anti-social-behaviour","location_type":"Force","location":{"latitude":"51.464914","street":{"id":946692,"name":"On or near Seymour Gardens"},"longitude":"-0.042175"},"context":"","outcome_status":null,"persistent_id":"","id":74277529,"location_subtype":"","month":"2019-05"},{"category":"anti-social-behaviour","location_type":"Force","location":{"latitude":"51.464914","street":{"id":946692,"name":"On or near Seymour Gardens"},"longitude":"-0.042175"},"context":"","outcome_status":null,"persistent_id":"","id":74277530,"location_subtype":"","month":"2019-05"},{"category":"anti-social-behaviour","location_type":"Force","location":{"latitude":"51.464914","street":{"id":946692,"name":"On or near Seymour Gardens"},"longitude":"-0.042175"},"context":"","outcome_status":null,"persistent_id":"","id":74278312,"location_subtype":"","month":"2019-05"},{"category":"anti-social-behaviour","location_type":"Force","location":{"latitude":"51.472397","street":{"id":946668,"name":"On or near Musgrove Road"},"longitude":"-0.042805"},"context":"","outcome_status":null,"persistent_id":"","id":74278318,"location_subtype":"","month":"2019-05"},{"category":"anti-social-behaviour","location_type":"Force","location":{"latitude":"51.463809","street":{"id":942153,"name":"On or near Avignon Road"},"longitude":"-0.043878"},"context":"","outcome_status":null,"persistent_id":"","id":74278319,"location_subtype":"","month":"2019-05"},{"category":"anti-social-behaviour","location_type":"Force","location":{"latitude":"51.473565","street":{"id":946450,"name":"On or near Bus\/coach Station"},"longitude":"-0.044339"},"context":"","outcome_status":null,"persistent_id":"","id":74278320,"location_subtype":"","month":"2019-05"},{"category":"anti-social-behaviour","location_type":"Force","location":{"latitude":"51.473565","street":{"id":946450,"name":"On or near Bus\/coach Station"},"longitude":"-0.044339"},"context":"","outcome_status":null,"persistent_id":"","id":74278322,"location_subtype":"","month":"2019-05"},{"category":"anti-social-behaviour","location_type":"Force","location":{"latitude":"51.473565","street":{"id":946450,"name":"On or near Bus\/coach Station"},"longitude":"-0.044339"},"context":"","outcome_status":null,"persistent_id":"","id":74278323,"location_subtype":"","month":"2019-05"},{"category":"anti-social-behaviour","location_type":"Force","location":{"latitude":"51.473565","street":{"id":946450,"name":"On or near Bus\/coach Station"},"longitude":"-0.044339"},"context":"","outcome_status":null,"persistent_id":"","id":74278324,"location_subtype":"","month":"2019-05"},{"category":"anti-social-behaviour","location_type":"Force","location":{"latitude":"51.475651","street":{"id":946428,"name":"On or near Hatcham Park Road"},"longitude":"-0.044898"},"context":"","outcome_status":null,"persistent_id":"","id":74278326,"location_subtype":"","month":"2019-05"},{"category":"anti-social-behaviour","location_type":"Force","location":{"latitude":"51.457897","street":{"id":942157,"name":"On or near Aldersford Close"},"longitude":"-0.044750"},"context":"","outcome_status":null,"persistent_id":"","id":74278327,"location_subtype":"","month":"2019-05"},{"category":"anti-social-behaviour","location_type":"Force","location":{"latitude":"51.457897","street":{"id":942157,"name":"On or near Aldersford Close"},"longitude":"-0.044750"},"context":"","outcome_status":null,"persistent_id":"","id":74278328,"location_subtype":"","month":"2019-05"},{"category":"anti-social-behaviour","location_type":"Force","location":{"latitude":"51.478287","street":{"id":949039,"name":"On or near Leylang Road"},"longitude":"-0.045477"},"context":"","outcome_status":null,"persistent_id":"","id":74278334,"location_subtype":"","month":"2019-05"},{"category":"anti-social-behaviour","location_type":"Force","location":{"latitude":"51.466105","street":{"id":946547,"name":"On or near Drakefell Road"},"longitude":"-0.044039"},"context":"","outcome_status":null,"persistent_id":"","id":74278336,"location_subtype":"","month":"2019-05"},{"category":"anti-social-behaviour","location_type":"Force","location":{"latitude":"51.471735","street":{"id":946406,"name":"On or near Sherwin Road"},"longitude":"-0.046765"},"context":"","outcome_status":null,"persistent_id":"","id":74278342,"location_subtype":"","month":"2019-05"},{"category":"anti-social-behaviour","location_type":"Force","location":{"latitude":"51.473813","street":{"id":946410,"name":"On or near Queen's Road"},"longitude":"-0.049556"},"context":"","outcome_status":null,"persistent_id":"","id":74278344,"location_subtype":"","month":"2019-05"},{"category":"anti-social-behaviour","location_type":"Force","location":{"latitude":"51.478444","street":{"id":949048,"name":"On or near Barlborough Street"},"longitude":"-0.048984"},"context":"","outcome_status":null,"persistent_id":"","id":74278358,"location_subtype":"","month":"2019-05"},{"category":"anti-social-behaviour","location_type":"Force","location":{"latitude":"51.477942","street":{"id":949034,"name":"On or near Reaston Street"},"longitude":"-0.049639"},"context":"","outcome_status":null,"persistent_id":"","id":74278361,"location_subtype":"","month":"2019-05"},{"category":"anti-social-behaviour","location_type":"Force","location":{"latitude":"51.477942","street":{"id":949034,"name":"On or near Reaston Street"},"longitude":"-0.049639"},"context":"","outcome_status":null,"persistent_id":"","id":74278362,"location_subtype":"","month":"2019-05"},{"category":"anti-social-behaviour","location_type":"Force","location":{"latitude":"51.477942","street":{"id":949034,"name":"On or near Reaston Street"},"longitude":"-0.049639"},"context":"","outcome_status":null,"persistent_id":"","id":74278363,"location_subtype":"","month":"2019-05"},{"category":"anti-social-behaviour","location_type":"Force","location":{"latitude":"51.477942","street":{"id":949034,"name":"On or near Reaston Street"},"longitude":"-0.049639"},"context":"","outcome_status":null,"persistent_id":"","id":74278364,"location_subtype":"","month":"2019-05"},{"category":"anti-social-behaviour","location_type":"Force","location":{"latitude":"51.478882","street":{"id":949049,"name":"On or near Avonley Road"},"longitude":"-0.050434"},"context":"","outcome_status":null,"persistent_id":"","id":74278369,"location_subtype":"","month":"2019-05"},{"category":"anti-social-behaviour","location_type":"Force","location":{"latitude":"51.472524","street":{"id":946401,"name":"On or near Wild Goose Drive"},"longitude":"-0.050979"},"context":"","outcome_status":null,"persistent_id":"","id":74278370,"location_subtype":"","month":"2019-05"},{"category":"anti-social-behaviour","location_type":"Force","location":{"latitude":"51.475352","street":{"id":946427,"name":"On or near Kender Street"},"longitude":"-0.051218"},"context":"","outcome_status":null,"persistent_id":"","id":74278374,"location_subtype":"","month":"2019-05"},{"category":"anti-social-behaviour","location_type":"Force","location":{"latitude":"51.469474","street":{"id":946433,"name":"On or near Evelina Road"},"longitude":"-0.051958"},"context":"","outcome_status":null,"persistent_id":"","id":74278376,"location_subtype":"","month":"2019-05"},{"category":"anti-social-behaviour","location_type":"Force","location":{"latitude":"51.477391","street":{"id":946412,"name":"On or near Pomeroy Street"},"longitude":"-0.052716"},"context":"","outcome_status":null,"persistent_id":"","id":74278387,"location_subtype":"","month":"2019-05"},{"category":"anti-social-behaviour","location_type":"Force","location":{"latitude":"51.473977","street":{"id":946400,"name":"On or near York Grove"},"longitude":"-0.054503"},"context":"","outcome_status":null,"persistent_id":"","id":74278392,"location_subtype":"","month":"2019-05"},{"category":"anti-social-behaviour","location_type":"Force","location":{"latitude":"51.473977","street":{"id":946400,"name":"On or near York Grove"},"longitude":"-0.054503"},"context":"","outcome_status":null,"persistent_id":"","id":74278393,"location_subtype":"","month":"2019-05"},{"category":"anti-social-behaviour","location_type":"Force","location":{"latitude":"51.463691","street":{"id":942288,"name":"On or near Adys Road"},"longitude":"-0.072590"},"context":"","outcome_status":null,"persistent_id":"","id":74270934,"location_subtype":"","month":"2019-05"},{"category":"anti-social-behaviour","location_type":"Force","location":{"latitude":"51.467498","street":{"id":946534,"name":"On or near Senate Street"},"longitude":"-0.051020"},"context":"","outcome_status":null,"persistent_id":"","id":74285878,"location_subtype":"","month":"2019-05"},{"category":"anti-social-behaviour","location_type":"Force","location":{"latitude":"51.457791","street":{"id":942128,"name":"On or near Reynolds Road"},"longitude":"-0.052384"},"context":"","outcome_status":null,"persistent_id":"","id":74285883,"location_subtype":"","month":"2019-05"},{"category":"anti-social-behaviour","location_type":"Force","location":{"latitude":"51.463158","street":{"id":942119,"name":"On or near Abbotsbury Mews"},"longitude":"-0.056647"},"context":"","outcome_status":null,"persistent_id":"","id":74285897,"location_subtype":"","month":"2019-05"},{"category":"anti-social-behaviour","location_type":"Force","location":{"latitude":"51.477226","street":{"id":946501,"name":"On or near Asylum Road"},"longitude":"-0.058497"},"context":"","outcome_status":null,"persistent_id":"","id":74285918,"location_subtype":"","month":"2019-05"},{"category":"anti-social-behaviour","location_type":"Force","location":{"latitude":"51.456793","street":{"id":942104,"name":"On or near Peckham Rye"},"longitude":"-0.064388"},"context":"","outcome_status":null,"persistent_id":"","id":74285966,"location_subtype":"","month":"2019-05"},{"category":"anti-social-behaviour","location_type":"Force","location":{"latitude":"51.471734","street":{"id":946231,"name":"On or near Portbury Close"},"longitude":"-0.065138"},"context":"","outcome_status":null,"persistent_id":"","id":74286848,"location_subtype":"","month":"2019-05"},{"category":"anti-social-behaviour","location_type":"Force","location":{"latitude":"51.457878","street":{"id":942258,"name":"On or near Hindmans Road"},"longitude":"-0.069064"},"context":"","outcome_status":null,"persistent_id":"","id":74286870,"location_subtype":"","month":"2019-05"},{"category":"anti-social-behaviour","location_type":"Force","location":{"latitude":"51.468049","street":{"id":946387,"name":"On or near Choumert Grove"},"longitude":"-0.069642"},"context":"","outcome_status":null,"persistent_id":"","id":74286882,"location_subtype":"","month":"2019-05"},{"category":"anti-social-behaviour","location_type":"Force","location":{"latitude":"51.473789","street":{"id":946237,"name":"On or near Peckham High Street"},"longitude":"-0.068752"},"context":"","outcome_status":null,"persistent_id":"","id":74286884,"location_subtype":"","month":"2019-05"},{"category":"anti-social-behaviour","location_type":"Force","location":{"latitude":"51.471122","street":{"id":946240,"name":"On or near Oliver Mews"},"longitude":"-0.071111"},"context":"","outcome_status":null,"persistent_id":"","id":74286896,"location_subtype":"","month":"2019-05"},{"category":"anti-social-behaviour","location_type":"Force","location":{"latitude":"51.471122","street":{"id":946240,"name":"On or near Oliver Mews"},"longitude":"-0.071111"},"context":"","outcome_status":null,"persistent_id":"","id":74286895,"location_subtype":"","month":"2019-05"},{"category":"anti-social-behaviour","location_type":"Force","location":{"latitude":"51.471122","street":{"id":946240,"name":"On or near Oliver Mews"},"longitude":"-0.071111"},"context":"","outcome_status":null,"persistent_id":"","id":74286894,"location_subtype":"","month":"2019-05"},{"category":"anti-social-behaviour","location_type":"Force","location":{"latitude":"51.471122","street":{"id":946240,"name":"On or near Oliver Mews"},"longitude":"-0.071111"},"context":"","outcome_status":null,"persistent_id":"","id":74286893,"location_subtype":"","month":"2019-05"},{"category":"anti-social-behaviour","location_type":"Force","location":{"latitude":"51.471122","street":{"id":946240,"name":"On or near Oliver Mews"},"longitude":"-0.071111"},"context":"","outcome_status":null,"persistent_id":"","id":74286897,"location_subtype":"","month":"2019-05"},{"category":"anti-social-behaviour","location_type":"Force","location":{"latitude":"51.471122","street":{"id":946240,"name":"On or near Oliver Mews"},"longitude":"-0.071111"},"context":"","outcome_status":null,"persistent_id":"","id":74286892,"location_subtype":"","month":"2019-05"},{"category":"anti-social-behaviour","location_type":"Force","location":{"latitude":"51.472736","street":{"id":946297,"name":"On or near Shopping Area"},"longitude":"-0.068695"},"context":"","outcome_status":null,"persistent_id":"","id":74286890,"location_subtype":"","month":"2019-05"},{"category":"anti-social-behaviour","location_type":"Force","location":{"latitude":"51.473789","street":{"id":946237,"name":"On or near Peckham High Street"},"longitude":"-0.068752"},"context":"","outcome_status":null,"persistent_id":"","id":74286887,"location_subtype":"","month":"2019-05"},{"category":"anti-social-behaviour","location_type":"Force","location":{"latitude":"51.467309","street":{"id":946712,"name":"On or near Ashby Mews"},"longitude":"-0.032729"},"context":"","outcome_status":null,"persistent_id":"","id":74277415,"location_subtype":"","month":"2019-05"},{"category":"anti-social-behaviour","location_type":"Force","location":{"latitude":"51.460773","street":{"id":941995,"name":"On or near Brockill Crescent"},"longitude":"-0.041950"},"context":"","outcome_status":null,"persistent_id":"","id":74277531,"location_subtype":"","month":"2019-05"},{"category":"anti-social-behaviour","location_type":"Force","location":{"latitude":"51.473789","street":{"id":946237,"name":"On or near Peckham High Street"},"longitude":"-0.068752"},"context":"","outcome_status":null,"persistent_id":"","id":74286886,"location_subtype":"","month":"2019-05"},{"category":"anti-social-behaviour","location_type":"Force","location":{"latitude":"51.473789","street":{"id":946237,"name":"On or near Peckham High Street"},"longitude":"-0.068752"},"context":"","outcome_status":null,"persistent_id":"","id":74286885,"location_subtype":"","month":"2019-05"},{"category":"anti-social-behaviour","location_type":"Force","location":{"latitude":"51.468049","street":{"id":946387,"name":"On or near Choumert Grove"},"longitude":"-0.069642"},"context":"","outcome_status":null,"persistent_id":"","id":74286883,"location_subtype":"","month":"2019-05"},{"category":"anti-social-behaviour","location_type":"Force","location":{"latitude":"51.454500","street":{"id":942087,"name":"On or near Brockley Mews"},"longitude":"-0.042146"},"context":"","outcome_status":null,"persistent_id":"","id":74284980,"location_subtype":"","month":"2019-05"},{"category":"anti-social-behaviour","location_type":"Force","location":{"latitude":"51.461321","street":{"id":942182,"name":"On or near Sports\/recreation Area"},"longitude":"-0.045683"},"context":"","outcome_status":null,"persistent_id":"","id":74285853,"location_subtype":"","month":"2019-05"},{"category":"anti-social-behaviour","location_type":"Force","location":{"latitude":"51.465568","street":{"id":946533,"name":"On or near St Asaph Road"},"longitude":"-0.049058"},"context":"","outcome_status":null,"persistent_id":"","id":74285867,"location_subtype":"","month":"2019-05"},{"category":"anti-social-behaviour","location_type":"Force","location":{"latitude":"51.465389","street":{"id":946535,"name":"On or near Salisbury Terrace"},"longitude":"-0.052910"},"context":"","outcome_status":null,"persistent_id":"","id":74285879,"location_subtype":"","month":"2019-05"},{"category":"anti-social-behaviour","location_type":"Force","location":{"latitude":"51.475251","street":{"id":946411,"name":"On or near Pomeroy Street"},"longitude":"-0.052735"},"context":"","outcome_status":null,"persistent_id":"","id":74285884,"location_subtype":"","month":"2019-05"},{"category":"anti-social-behaviour","location_type":"Force","location":{"latitude":"51.472705","street":{"id":946424,"name":"On or near Lausanne Road"},"longitude":"-0.052685"},"context":"","outcome_status":null,"persistent_id":"","id":74285885,"location_subtype":"","month":"2019-05"},{"category":"anti-social-behaviour","location_type":"Force","location":{"latitude":"51.471155","street":{"id":923548,"name":"On or near Belfort Road"},"longitude":"-0.053010"},"context":"","outcome_status":null,"persistent_id":"","id":74285890,"location_subtype":"","month":"2019-05"},{"category":"anti-social-behaviour","location_type":"Force","location":{"latitude":"51.473977","street":{"id":946400,"name":"On or near York Grove"},"longitude":"-0.054503"},"context":"","outcome_status":null,"persistent_id":"","id":74285892,"location_subtype":"","month":"2019-05"},{"category":"anti-social-behaviour","location_type":"Force","location":{"latitude":"51.479809","street":{"id":949036,"name":"On or near Patterdale Road"},"longitude":"-0.054830"},"context":"","outcome_status":null,"persistent_id":"","id":74285891,"location_subtype":"","month":"2019-05"},{"category":"anti-social-behaviour","location_type":"Force","location":{"latitude":"51.473977","street":{"id":946400,"name":"On or near York Grove"},"longitude":"-0.054503"},"context":"","outcome_status":null,"persistent_id":"","id":74285893,"location_subtype":"","month":"2019-05"},{"category":"anti-social-behaviour","location_type":"Force","location":{"latitude":"51.473729","street":{"id":946462,"name":"On or near Regal Row"},"longitude":"-0.056371"},"context":"","outcome_status":null,"persistent_id":"","id":74285899,"location_subtype":"","month":"2019-05"},{"category":"anti-social-behaviour","location_type":"Force","location":{"latitude":"51.480171","street":{"id":949057,"name":"On or near Hillbeck Close"},"longitude":"-0.057119"},"context":"","outcome_status":null,"persistent_id":"","id":74285901,"location_subtype":"","month":"2019-05"},{"category":"anti-social-behaviour","location_type":"Force","location":{"latitude":"51.480171","street":{"id":949057,"name":"On or near Hillbeck Close"},"longitude":"-0.057119"},"context":"","outcome_status":null,"persistent_id":"","id":74285902,"location_subtype":"","month":"2019-05"},{"category":"bicycle-theft","location_type":"BTP","location":{"latitude":"51.470000","street":{"id":1488010,"name":"Peckham Rye (station)"},"longitude":"-0.069528"},"context":"","outcome_status":{"category":"Status update unavailable","date":"2019-09"},"persistent_id":"","id":88718593,"location_subtype":"STATION","month":"2019-05"},{"category":"bicycle-theft","location_type":"BTP","location":{"latitude":"51.470000","street":{"id":1488010,"name":"Peckham Rye (station)"},"longitude":"-0.069528"},"context":"","outcome_status":{"category":"Status update unavailable","date":"2019-09"},"persistent_id":"","id":88718592,"location_subtype":"STATION","month":"2019-05"},{"category":"bicycle-theft","location_type":"Force","location":{"latitude":"51.470250","street":{"id":946296,"name":"On or near Supermarket"},"longitude":"-0.068988"},"context":"","outcome_status":{"category":"Status update unavailable","date":"2019-09"},"persistent_id":"a12779d7a7710933d9605623b797ebd60416bc3d873bf482b46396132f71bd45","id":74308747,"location_subtype":"","month":"2019-05"},{"category":"bicycle-theft","location_type":"Force","location":{"latitude":"51.468251","street":{"id":946392,"name":"On or near Atwell Road"},"longitude":"-0.067186"},"context":"","outcome_status":{"category":"Status update unavailable","date":"2019-09"},"persistent_id":"b3767633b50acd50c4e8ad5fab51dc8a0f9d56fadd53b57a2dd3bc5503b05045","id":74337723,"location_subtype":"","month":"2019-05"},{"category":"bicycle-theft","location_type":"Force","location":{"latitude":"51.475251","street":{"id":946411,"name":"On or near Pomeroy Street"},"longitude":"-0.052735"},"context":"","outcome_status":{"category":"Status update unavailable","date":"2019-09"},"persistent_id":"af170b790d919173fa37fe54ee52b1d5bb3b582108094737cd1c7518fbb1ab58","id":74337806,"location_subtype":"","month":"2019-05"},{"category":"bicycle-theft","location_type":"Force","location":{"latitude":"51.465679","street":{"id":946374,"name":"On or near Philip Walk"},"longitude":"-0.065538"},"context":"","outcome_status":{"category":"Investigation complete; no suspect identified","date":"2020-07"},"persistent_id":"0496abd1f049fbbbd0a11e5a2dc62397c866548748a5688d2f63300a9e0c0821","id":74335911,"location_subtype":"","month":"2019-05"},{"category":"bicycle-theft","location_type":"Force","location":{"latitude":"51.469042","street":{"id":946291,"name":"On or near Almond Close"},"longitude":"-0.066044"},"context":"","outcome_status":{"category":"Status update unavailable","date":"2019-09"},"persistent_id":"a7d8ffbe33d750d9e6d1a67234a2fd0cf1c41231d30152a049d3a8038eb3e217","id":74313559,"location_subtype":"","month":"2019-05"},{"category":"bicycle-theft","location_type":"Force","location":{"latitude":"51.479809","street":{"id":949036,"name":"On or near Patterdale Road"},"longitude":"-0.054830"},"context":"","outcome_status":{"category":"Status update unavailable","date":"2019-09"},"persistent_id":"dba08ac023b191072b8b348600d18e438be595c341261b38157cc980b112082a","id":74362532,"location_subtype":"","month":"2019-05"},{"category":"bicycle-theft","location_type":"Force","location":{"latitude":"51.472397","street":{"id":946668,"name":"On or near Musgrove Road"},"longitude":"-0.042805"},"context":"","outcome_status":{"category":"Status update unavailable","date":"2019-09"},"persistent_id":"b320bdad402d47d9859abcddeafacd6b3350248136fb6b0c4db6690d0e98521b","id":74325454,"location_subtype":"","month":"2019-05"},{"category":"bicycle-theft","location_type":"Force","location":{"latitude":"51.460225","street":{"id":942295,"name":"On or near Shopping Area"},"longitude":"-0.072376"},"context":"","outcome_status":{"category":"Status update unavailable","date":"2019-09"},"persistent_id":"68b9add50658287aa0e56a9e3529758be89d142514a8fc59307c56983e1ed51e","id":74299747,"location_subtype":"","month":"2019-05"},{"category":"bicycle-theft","location_type":"Force","location":{"latitude":"51.466004","street":{"id":946372,"name":"On or near Relf Road"},"longitude":"-0.068332"},"context":"","outcome_status":{"category":"Status update unavailable","date":"2019-09"},"persistent_id":"1b74191f0d8db7463944e19fa029bd7cd0954e749d146be124a5f52970188c43","id":74299748,"location_subtype":"","month":"2019-05"},{"category":"bicycle-theft","location_type":"Force","location":{"latitude":"51.464575","street":{"id":942276,"name":"On or near Dewar Street"},"longitude":"-0.067860"},"context":"","outcome_status":{"category":"Status update unavailable","date":"2019-09"},"persistent_id":"9bc7bf2d7773a355d7fdbc7826f7d2d48f04848d90bf36443e39d2827330d0c1","id":74328405,"location_subtype":"","month":"2019-05"},{"category":"bicycle-theft","location_type":"Force","location":{"latitude":"51.464495","street":{"id":946686,"name":"On or near Coulgate Street"},"longitude":"-0.037054"},"context":"","outcome_status":{"category":"Status update unavailable","date":"2019-09"},"persistent_id":"5de5a9a908c7d6789eeee3e684ab1b0c49292f5da32d96d3bd13ed053dbfab12","id":74330801,"location_subtype":"","month":"2019-05"},{"category":"bicycle-theft","location_type":"Force","location":{"latitude":"51.471455","street":{"id":946598,"name":"On or near Luxmore Street"},"longitude":"-0.032190"},"context":"","outcome_status":{"category":"Status update unavailable","date":"2019-09"},"persistent_id":"3597eb3d51de057b029aed40f4793fb74fd9d0b90e08679f59baa7a833be7224","id":74308644,"location_subtype":"","month":"2019-05"},{"category":"bicycle-theft","location_type":"Force","location":{"latitude":"51.459364","street":{"id":942280,"name":"On or near Crawthew Grove"},"longitude":"-0.073060"},"context":"","outcome_status":{"category":"Status update unavailable","date":"2019-09"},"persistent_id":"d6607b9a811ac913a82a9b2d0811f1251e13ca1685e85f57c6b4ea41eea8284c","id":74299929,"location_subtype":"","month":"2019-05"},{"category":"bicycle-theft","location_type":"Force","location":{"latitude":"51.466004","street":{"id":946372,"name":"On or near Relf Road"},"longitude":"-0.068332"},"context":"","outcome_status":{"category":"Status update unavailable","date":"2019-09"},"persistent_id":"c25d056a5cb07d0a4b42b040581ed5a8ae0cd92654bfe5739f19db71b98f7d00","id":74299954,"location_subtype":"","month":"2019-05"},{"category":"bicycle-theft","location_type":"Force","location":{"latitude":"51.470250","street":{"id":946296,"name":"On or near Supermarket"},"longitude":"-0.068988"},"context":"","outcome_status":{"category":"Status update unavailable","date":"2019-09"},"persistent_id":"74a5738b4bb132f35d0aa8d91a3169a31ce03ffab0e1b648b3fba317592e5021","id":74300037,"location_subtype":"","month":"2019-05"},{"category":"bicycle-theft","location_type":"Force","location":{"latitude":"51.470250","street":{"id":946296,"name":"On or near Supermarket"},"longitude":"-0.068988"},"context":"","outcome_status":{"category":"Status update unavailable","date":"2019-09"},"persistent_id":"c60f009b642be448bd31ff9b131f5b69058a7689efb6ff04db58b081ca7673fb","id":74339014,"location_subtype":"","month":"2019-05"},{"category":"bicycle-theft","location_type":"Force","location":{"latitude":"51.471122","street":{"id":946240,"name":"On or near Oliver Mews"},"longitude":"-0.071111"},"context":"","outcome_status":{"category":"Status update unavailable","date":"2019-09"},"persistent_id":"84660b4b7f4fdc08c7839c802e0a3dcb97cb0c20749065274aa5e36b7b6eb6ff","id":74335917,"location_subtype":"","month":"2019-05"},{"category":"bicycle-theft","location_type":"Force","location":{"latitude":"51.470250","street":{"id":946296,"name":"On or near Supermarket"},"longitude":"-0.068988"},"context":"","outcome_status":{"category":"Status update unavailable","date":"2019-09"},"persistent_id":"4885d15ace3ad33c1c6aa2f7e233147d4ba93cbac6de13c39739a41c01c877a3","id":74343946,"location_subtype":"","month":"2019-05"},{"category":"burglary","location_type":"Force","location":{"latitude":"51.473855","street":{"id":946243,"name":"On or near Melon Road"},"longitude":"-0.071111"},"context":"","outcome_status":{"category":"Status update unavailable","date":"2019-09"},"persistent_id":"895b0108b35bbd67352b5ed21dfd612f93bd4b2ca992526ceebeb439b9f9fe0a","id":74314156,"location_subtype":"","month":"2019-05"},{"category":"burglary","location_type":"Force","location":{"latitude":"51.463465","street":{"id":942095,"name":"On or near Nunhead Crescent"},"longitude":"-0.064350"},"context":"","outcome_status":{"category":"Status update unavailable","date":"2019-09"},"persistent_id":"0e4a8bf28da148e44c2d7096a03784531050c9d8820278ef2eb866f6c2dbf798","id":74318303,"location_subtype":"","month":"2019-05"},{"category":"burglary","location_type":"Force","location":{"latitude":"51.477922","street":{"id":949205,"name":"On or near Holbeck Row"},"longitude":"-0.065769"},"context":"","outcome_status":{"category":"Status update unavailable","date":"2019-09"},"persistent_id":"d37ebc1387c3f67bd94d561141347092e44f372d0585d2b2e67b2de474355f0f","id":74363796,"location_subtype":"","month":"2019-05"},{"category":"burglary","location_type":"Force","location":{"latitude":"51.473838","street":{"id":946281,"name":"On or near Bull Yard"},"longitude":"-0.067900"},"context":"","outcome_status":{"category":"Status update unavailable","date":"2019-09"},"persistent_id":"5f709659d7ae817c5d5b2bd206cf9098e0d8ad7b064c504e399e966dc00bfa16","id":74308907,"location_subtype":"","month":"2019-05"},{"category":"burglary","location_type":"Force","location":{"latitude":"51.461852","street":{"id":942098,"name":"On or near Water Mews"},"longitude":"-0.056544"},"context":"","outcome_status":{"category":"Status update unavailable","date":"2019-09"},"persistent_id":"bf290a6dca4d67a6beb6d77bedfba4baf9f4376a5837e99f10943cb917537211","id":74338168,"location_subtype":"","month":"2019-05"},{"category":"burglary","location_type":"Force","location":{"latitude":"51.475128","street":{"id":946667,"name":"On or near New Cross Road"},"longitude":"-0.039405"},"context":"","outcome_status":{"category":"Status update unavailable","date":"2019-09"},"persistent_id":"364583007f169c32c60e9b5ea06b8b4a0f7f7edc50911dd70c5b1b29a8748b0b","id":74318003,"location_subtype":"","month":"2019-05"},{"category":"burglary","location_type":"Force","location":{"latitude":"51.474821","street":{"id":946447,"name":"On or near Besson Street"},"longitude":"-0.049067"},"context":"","outcome_status":{"category":"Status update unavailable","date":"2019-09"},"persistent_id":"44bc34a505067c58bb6d68de5ecaf5a8ac22a64fd5b3fe4e945be12ace852ce0","id":74368701,"location_subtype":"","month":"2019-05"},{"category":"burglary","location_type":"Force","location":{"latitude":"51.465521","street":{"id":946377,"name":"On or near Maxted Road"},"longitude":"-0.072326"},"context":"","outcome_status":{"category":"Status update unavailable","date":"2019-09"},"persistent_id":"f8c14f33807df77473922efdbcbd514ce3897f827b21870406f60545d029c3f6","id":74310300,"location_subtype":"","month":"2019-05"},{"category":"burglary","location_type":"Force","location":{"latitude":"51.466105","street":{"id":946547,"name":"On or near Drakefell Road"},"longitude":"-0.044039"},"context":"","outcome_status":{"category":"Status update unavailable","date":"2019-09"},"persistent_id":"cd3726e8397850821a91534e550d724545f36874932c602b11b083069c0cc49f","id":74356143,"location_subtype":"","month":"2019-05"},{"category":"burglary","location_type":"Force","location":{"latitude":"51.475318","street":{"id":946490,"name":"On or near Carlton Grove"},"longitude":"-0.061127"},"context":"","outcome_status":{"category":"Status update unavailable","date":"2019-09"},"persistent_id":"aa2354269ef792d965840891e6bdb88282e9e183a3a9c86d69801b57712c1e58","id":74348127,"location_subtype":"","month":"2019-05"},{"category":"burglary","location_type":"Force","location":{"latitude":"51.465244","street":{"id":946379,"name":"On or near Huguenot Square"},"longitude":"-0.064765"},"context":"","outcome_status":{"category":"Status update unavailable","date":"2019-09"},"persistent_id":"930c371004df30d403c4819c367507575fc05711bbcae0a503e3f88bc6eef832","id":74368161,"location_subtype":"","month":"2019-05"},{"category":"burglary","location_type":"Force","location":{"latitude":"51.468818","street":{"id":946654,"name":"On or near Vesta Road"},"longitude":"-0.036897"},"context":"","outcome_status":{"category":"Status update unavailable","date":"2019-09"},"persistent_id":"6891196608198e3550e20f28d37c45b3b0d1730194f7196c7c091fd0526d594d","id":74316563,"location_subtype":"","month":"2019-05"},{"category":"burglary","location_type":"Force","location":{"latitude":"51.473789","street":{"id":946237,"name":"On or near Peckham High Street"},"longitude":"-0.068752"},"context":"","outcome_status":{"category":"Status update unavailable","date":"2019-09"},"persistent_id":"d067005caf18c4241af946b3948a8f2f61f15f341eb72891acce56f56a30fdbb","id":74296968,"location_subtype":"","month":"2019-05"},{"category":"burglary","location_type":"Force","location":{"latitude":"51.468650","street":{"id":946445,"name":"On or near Bousfield Road"},"longitude":"-0.048898"},"context":"","outcome_status":{"category":"Status update unavailable","date":"2019-09"},"persistent_id":"a70d8737f7da8982e2d77115233cd25db6eb2bd195deeaff67b05aace34111fb","id":74333970,"location_subtype":"","month":"2019-05"},{"category":"burglary","location_type":"Force","location":{"latitude":"51.465438","street":{"id":946390,"name":"On or near Avondale Rise"},"longitude":"-0.076577"},"context":"","outcome_status":{"category":"Status update unavailable","date":"2019-09"},"persistent_id":"4318afd4ac1964fb6f5a1f0cb42c31297e56ff55127699021b58a80c4a90b0f5","id":74301795,"location_subtype":"","month":"2019-05"},{"category":"burglary","location_type":"Force","location":{"latitude":"51.476797","street":{"id":946442,"name":"On or near Casella Road"},"longitude":"-0.047297"},"context":"","outcome_status":{"category":"Status update unavailable","date":"2019-09"},"persistent_id":"261064fd916e698acbb593a5bf0c429addf7b4f55ee647863ceaa8d92574d0a3","id":74354355,"location_subtype":"","month":"2019-05"},{"category":"burglary","location_type":"Force","location":{"latitude":"51.472705","street":{"id":946424,"name":"On or near Lausanne Road"},"longitude":"-0.052685"},"context":"","outcome_status":{"category":"Status update unavailable","date":"2019-09"},"persistent_id":"bcef8f0074c2d30bf94eff1fd35964d4b1166431fd5695c3fe4ccfea58a121eb","id":74365842,"location_subtype":"","month":"2019-05"},{"category":"burglary","location_type":"Force","location":{"latitude":"51.472736","street":{"id":946297,"name":"On or near Shopping Area"},"longitude":"-0.068695"},"context":"","outcome_status":{"category":"Status update unavailable","date":"2019-09"},"persistent_id":"1b46688abab206777e678b8c0bb59906daf43344c06c9f33413548450101d01c","id":74310942,"location_subtype":"","month":"2019-05"},{"category":"burglary","location_type":"Force","location":{"latitude":"51.471064","street":{"id":946419,"name":"On or near Mona Road"},"longitude":"-0.051315"},"context":"","outcome_status":{"category":"Status update unavailable","date":"2019-09"},"persistent_id":"1363d26b0aec93d1581682dbe51b20a254c18b4f8f24266f90217dfde4983f6c","id":74308953,"location_subtype":"","month":"2019-05"},{"category":"burglary","location_type":"Force","location":{"latitude":"51.475783","street":{"id":946415,"name":"On or near New Cross Road"},"longitude":"-0.047398"},"context":"","outcome_status":{"category":"Status update unavailable","date":"2019-09"},"persistent_id":"55180761cf842474bc74009e273a89996e92c096b234d6690917c92f2760f56b","id":74290287,"location_subtype":"","month":"2019-05"},{"category":"burglary","location_type":"Force","location":{"latitude":"51.472512","street":{"id":946484,"name":"On or near Evan Cook Close"},"longitude":"-0.056725"},"context":"","outcome_status":{"category":"Status update unavailable","date":"2019-09"},"persistent_id":"dff227412016d009d148a00fdd1410b980f5c7ba47c1fd64bfcba263c0b58be9","id":74303805,"location_subtype":"","month":"2019-05"},{"category":"burglary","location_type":"Force","location":{"latitude":"51.468634","street":{"id":946238,"name":"On or near Parkstone Road"},"longitude":"-0.067515"},"context":"","outcome_status":{"category":"Status update unavailable","date":"2019-09"},"persistent_id":"ad24dafe47935a247372789c75bccc437f9df4cd29a66c904c354cad90662925","id":74366078,"location_subtype":"","month":"2019-05"},{"category":"burglary","location_type":"Force","location":{"latitude":"51.475128","street":{"id":946667,"name":"On or near New Cross Road"},"longitude":"-0.039405"},"context":"","outcome_status":{"category":"Status update unavailable","date":"2019-09"},"persistent_id":"d9369e7eac2cc42d3c57c07fdf4ad53eed89d3aaaba4c5f49c9a69f4aa61d559","id":74339699,"location_subtype":"","month":"2019-05"},{"category":"burglary","location_type":"Force","location":{"latitude":"51.473729","street":{"id":946462,"name":"On or near Regal Row"},"longitude":"-0.056371"},"context":"","outcome_status":{"category":"Status update unavailable","date":"2019-09"},"persistent_id":"6584ef242a6fb85f347422e1692c835c31c0018733ee8f22dd5281ee3897e4e1","id":74357097,"location_subtype":"","month":"2019-05"},{"category":"burglary","location_type":"Force","location":{"latitude":"51.472705","street":{"id":946424,"name":"On or near Lausanne Road"},"longitude":"-0.052685"},"context":"","outcome_status":{"category":"Status update unavailable","date":"2019-09"},"persistent_id":"844ccbfcc14d062436e2477ed100fd8f522b06a9524e28afa14de954ed562700","id":74336119,"location_subtype":"","month":"2019-05"},{"category":"burglary","location_type":"Force","location":{"latitude":"51.465389","street":{"id":946535,"name":"On or near Salisbury Terrace"},"longitude":"-0.052910"},"context":"","outcome_status":{"category":"Status update unavailable","date":"2019-09"},"persistent_id":"e9f6815e7a3e29663d40afebc6c790f76518d9bce4149ce2c5dcd5de40ac0120","id":74347714,"location_subtype":"","month":"2019-05"},{"category":"burglary","location_type":"Force","location":{"latitude":"51.475713","street":{"id":946235,"name":"On or near Peckham Hill Street"},"longitude":"-0.069232"},"context":"","outcome_status":{"category":"Status update unavailable","date":"2019-09"},"persistent_id":"68de2ec4120fcf067b5c9aaaab4b35b305229b560586e718eb99fbdbc3023e2f","id":74307394,"location_subtype":"","month":"2019-05"},{"category":"burglary","location_type":"Force","location":{"latitude":"51.476551","street":{"id":946474,"name":"On or near Laburnum Close"},"longitude":"-0.056265"},"context":"","outcome_status":{"category":"Status update unavailable","date":"2019-09"},"persistent_id":"68be633f4efc49eb659c491045515a1fe728356283241ea920364491ca0eec44","id":74323013,"location_subtype":"","month":"2019-05"},{"category":"burglary","location_type":"Force","location":{"latitude":"51.462887","street":{"id":942006,"name":"On or near Foxberry Road"},"longitude":"-0.037166"},"context":"","outcome_status":{"category":"Status update unavailable","date":"2019-09"},"persistent_id":"a9bc3edaca6408cde2ea1808a38af7c027b0905e054328e6b0ef6322ff158a6e","id":74310957,"location_subtype":"","month":"2019-05"},{"category":"burglary","location_type":"Force","location":{"latitude":"51.474538","street":{"id":946658,"name":"On or near Dixon Road"},"longitude":"-0.035888"},"context":"","outcome_status":{"category":"Status update unavailable","date":"2019-09"},"persistent_id":"3c061739a65f798fe4269879392b4be8e69c9cebb43a18ff4bd3a0d843f357e5","id":74305903,"location_subtype":"","month":"2019-05"},{"category":"burglary","location_type":"Force","location":{"latitude":"51.458039","street":{"id":942284,"name":"On or near Barry Road"},"longitude":"-0.066826"},"context":"","outcome_status":{"category":"Status update unavailable","date":"2019-09"},"persistent_id":"9664bc93e946a42b49509468633eb5c132699ae2d94e582d0c4fcff6b65d4494","id":74319281,"location_subtype":"","month":"2019-05"},{"category":"burglary","location_type":"Force","location":{"latitude":"51.468574","street":{"id":946430,"name":"On or near Gellatly Road"},"longitude":"-0.050298"},"context":"","outcome_status":{"category":"Status update unavailable","date":"2019-09"},"persistent_id":"6035d4dc33fa2dd5c16482b712f3eb304a83c89b63db17e7507778b51f2a22d2","id":74359682,"location_subtype":"","month":"2019-05"},{"category":"burglary","location_type":"Force","location":{"latitude":"51.467474","street":{"id":946385,"name":"On or near Choumert Road"},"longitude":"-0.072431"},"context":"","outcome_status":{"category":"Status update unavailable","date":"2019-09"},"persistent_id":"6033d05bd4c4722bb00ae81ee265c5a456081a12da20ad5e01b5ce39346faa00","id":74299425,"location_subtype":"","month":"2019-05"},{"category":"burglary","location_type":"Force","location":{"latitude":"51.465568","street":{"id":946533,"name":"On or near St Asaph Road"},"longitude":"-0.049058"},"context":"","outcome_status":{"category":"Status update unavailable","date":"2019-09"},"persistent_id":"cbea882a8d5d777d373e13df0d3f20dd670ca47670ef0e21bfd11f3a9a306150","id":74296677,"location_subtype":"","month":"2019-05"},{"category":"burglary","location_type":"Force","location":{"latitude":"51.461505","street":{"id":942235,"name":"On or near Solway Road"},"longitude":"-0.068738"},"context":"","outcome_status":{"category":"Status update unavailable","date":"2019-09"},"persistent_id":"4096e7d31f1cdbf862dd6e64a5c51fff0819e724bad3a955b3f7e1ad1b871340","id":74307420,"location_subtype":"","month":"2019-05"},{"category":"burglary","location_type":"Force","location":{"latitude":"51.473789","street":{"id":946237,"name":"On or near Peckham High Street"},"longitude":"-0.068752"},"context":"","outcome_status":{"category":"Status update unavailable","date":"2019-09"},"persistent_id":"3d85b11e184c5db5a9aefd675a9342e7e291be0dd26d5f92a999660b061747c9","id":74300064,"location_subtype":"","month":"2019-05"},{"category":"burglary","location_type":"Force","location":{"latitude":"51.475127","street":{"id":946458,"name":"On or near Station Passage"},"longitude":"-0.056628"},"context":"","outcome_status":{"category":"Status update unavailable","date":"2019-09"},"persistent_id":"1d6f4a532930fcf85764b1ba2fc23fb8ac2ad2663cd167e7769d0d6de23d3ba8","id":74352756,"location_subtype":"","month":"2019-05"},{"category":"burglary","location_type":"Force","location":{"latitude":"51.475783","street":{"id":946415,"name":"On or near New Cross Road"},"longitude":"-0.047398"},"context":"","outcome_status":{"category":"Status update unavailable","date":"2019-09"},"persistent_id":"d0ef1a6f9b576ab659c0dbcc1a84886501ac1754660ebb2b9d27790309cbd5b4","id":74290003,"location_subtype":"","month":"2019-05"},{"category":"burglary","location_type":"Force","location":{"latitude":"51.457897","street":{"id":942157,"name":"On or near Aldersford Close"},"longitude":"-0.044750"},"context":"","outcome_status":{"category":"Status update unavailable","date":"2019-09"},"persistent_id":"5b1a6254e4bbbac8dff6e2548ec20dc265efc1358c54c26bb6d7932c5741d639","id":74333721,"location_subtype":"","month":"2019-05"},{"category":"burglary","location_type":"Force","location":{"latitude":"51.473448","street":{"id":946463,"name":"On or near Queen's Road"},"longitude":"-0.057880"},"context":"","outcome_status":{"category":"Status update unavailable","date":"2019-09"},"persistent_id":"0965f24363131d8f69cc1e9790dd98824a3819ccfb3afd4e9fc44fdc99b7551d","id":74321686,"location_subtype":"","month":"2019-05"},{"category":"burglary","location_type":"Force","location":{"latitude":"51.468650","street":{"id":946445,"name":"On or near Bousfield Road"},"longitude":"-0.048898"},"context":"","outcome_status":{"category":"Status update unavailable","date":"2019-09"},"persistent_id":"5ce8e0ad0d91958c48ba6d34372ff5eb53aa85d33354819247dbcf891571e223","id":74364720,"location_subtype":"","month":"2019-05"},{"category":"burglary","location_type":"Force","location":{"latitude":"51.473565","street":{"id":946450,"name":"On or near Bus\/coach Station"},"longitude":"-0.044339"},"context":"","outcome_status":{"category":"Status update unavailable","date":"2019-09"},"persistent_id":"ce8fd22dab93de5188dc21f8c1be6c8af121f9aeefea7a8d9b4e44720f497146","id":74351434,"location_subtype":"","month":"2019-05"},{"category":"burglary","location_type":"Force","location":{"latitude":"51.465438","street":{"id":946390,"name":"On or near Avondale Rise"},"longitude":"-0.076577"},"context":"","outcome_status":{"category":"Status update unavailable","date":"2019-09"},"persistent_id":"7320048c9208ebfa4ce7420a389110e69c9d2eb0829b03cced6a63ad0df7c03f","id":74354183,"location_subtype":"","month":"2019-05"},{"category":"burglary","location_type":"Force","location":{"latitude":"51.472467","street":{"id":946655,"name":"On or near St Donatt's Road"},"longitude":"-0.035689"},"context":"","outcome_status":{"category":"Status update unavailable","date":"2019-09"},"persistent_id":"c55ddd2dff854e28681b05a57db3c0829f4239fcd468314eda76f5d5571d065e","id":74300528,"location_subtype":"","month":"2019-05"},{"category":"burglary","location_type":"Force","location":{"latitude":"51.463896","street":{"id":942109,"name":"On or near Nunhead Grove"},"longitude":"-0.057206"},"context":"","outcome_status":{"category":"Status update unavailable","date":"2019-09"},"persistent_id":"fe8b10f70434b73c3eba3b940efe7e3703411b79d6fe80056267d0ddf3908d6d","id":74314943,"location_subtype":"","month":"2019-05"},{"category":"burglary","location_type":"Force","location":{"latitude":"51.473565","street":{"id":946450,"name":"On or near Bus\/coach Station"},"longitude":"-0.044339"},"context":"","outcome_status":{"category":"Status update unavailable","date":"2019-09"},"persistent_id":"ce8fd22dab93de5188dc21f8c1be6c8af121f9aeefea7a8d9b4e44720f497146","id":74351433,"location_subtype":"","month":"2019-05"},{"category":"burglary","location_type":"Force","location":{"latitude":"51.468049","street":{"id":946387,"name":"On or near Choumert Grove"},"longitude":"-0.069642"},"context":"","outcome_status":{"category":"Status update unavailable","date":"2019-09"},"persistent_id":"08792ab4596beffcfea4894a33f97b920646fcb157d0a3ac246ef2748534dd9c","id":74318999,"location_subtype":"","month":"2019-05"},{"category":"burglary","location_type":"Force","location":{"latitude":"51.470432","street":{"id":946266,"name":"On or near Elm Grove"},"longitude":"-0.070751"},"context":"","outcome_status":{"category":"Status update unavailable","date":"2019-09"},"persistent_id":"2f42581c1db1eae458c91cf0e0bf5ec40834a38c6a947e8a68df6dd0c7225d2f","id":74307803,"location_subtype":"","month":"2019-05"},{"category":"burglary","location_type":"Force","location":{"latitude":"51.460497","street":{"id":942132,"name":"On or near Limesford Road"},"longitude":"-0.048569"},"context":"","outcome_status":{"category":"Status update unavailable","date":"2019-09"},"persistent_id":"0d04c25f6e4c46f3ed25dcbb0bf59dfebf98c964199d9802205e935765cb71ac","id":74313847,"location_subtype":"","month":"2019-05"},{"category":"burglary","location_type":"Force","location":{"latitude":"51.469128","street":{"id":946665,"name":"On or near Reservoir Road"},"longitude":"-0.040915"},"context":"","outcome_status":{"category":"Status update unavailable","date":"2019-09"},"persistent_id":"5680fc33fc625715d340a5f3d86753e02bfbdfa7f0bced80db2d4a34100af190","id":74309936,"location_subtype":"","month":"2019-05"},{"category":"burglary","location_type":"Force","location":{"latitude":"51.475470","street":{"id":946679,"name":"On or near Supermarket"},"longitude":"-0.038887"},"context":"","outcome_status":{"category":"Investigation complete; no suspect identified","date":"2020-03"},"persistent_id":"2effa26fba5d732355d0391e8481dac5520c3f7a8d4060792f331f52172d7fd2","id":74336602,"location_subtype":"","month":"2019-05"},{"category":"burglary","location_type":"Force","location":{"latitude":"51.470250","street":{"id":946296,"name":"On or near Supermarket"},"longitude":"-0.068988"},"context":"","outcome_status":{"category":"Investigation complete; no suspect identified","date":"2020-03"},"persistent_id":"6b344280d5d54a0f34cc1a3e9b2c13b36d2bb675600d2c44fa9f86ad786d15a2","id":74369532,"location_subtype":"","month":"2019-05"},{"category":"burglary","location_type":"Force","location":{"latitude":"51.473912","street":{"id":946464,"name":"On or near Queen's Road"},"longitude":"-0.060395"},"context":"","outcome_status":{"category":"Status update unavailable","date":"2019-09"},"persistent_id":"63b34c320bf19436f55b0e9497b46ec81f9de376a9667348dc8edac513dc3557","id":74322442,"location_subtype":"","month":"2019-05"},{"category":"burglary","location_type":"Force","location":{"latitude":"51.460960","street":{"id":942101,"name":"On or near Somerton Road"},"longitude":"-0.060210"},"context":"","outcome_status":{"category":"Status update unavailable","date":"2019-09"},"persistent_id":"e2c22a2851aebb38d4036f994883d4a59a2530cb69fd37f19feed49d6e80b7ff","id":74344020,"location_subtype":"","month":"2019-05"},{"category":"burglary","location_type":"Force","location":{"latitude":"51.475318","street":{"id":946490,"name":"On or near Carlton Grove"},"longitude":"-0.061127"},"context":"","outcome_status":{"category":"Status update unavailable","date":"2019-09"},"persistent_id":"707c6f1dbd8ce67606d0671a75e7c441c09a1ed67b802e15a934c069d9411acc","id":74345467,"location_subtype":"","month":"2019-05"},{"category":"burglary","location_type":"Force","location":{"latitude":"51.457572","street":{"id":941977,"name":"On or near Turnham Road"},"longitude":"-0.041971"},"context":"","outcome_status":{"category":"Status update unavailable","date":"2019-09"},"persistent_id":"40c446e8efad4bd247b101b0a6e09a8528d659bb6f06f3bcfd158466ebc4fa40","id":74312842,"location_subtype":"","month":"2019-05"},{"category":"burglary","location_type":"Force","location":{"latitude":"51.468818","street":{"id":946473,"name":"On or near Lanvanor Road"},"longitude":"-0.056839"},"context":"","outcome_status":{"category":"Status update unavailable","date":"2019-09"},"persistent_id":"1b045780306800599e123b6ab6c81df3e6afdf8b03053e5591b24086c7134a05","id":74348537,"location_subtype":"","month":"2019-05"},{"category":"burglary","location_type":"Force","location":{"latitude":"51.471206","street":{"id":946257,"name":"On or near Harders Road"},"longitude":"-0.064253"},"context":"","outcome_status":{"category":"Status update unavailable","date":"2019-09"},"persistent_id":"6324cf49677488a80177202b5a2c4c0e8e68cfa08af0d3758e0654c24b9d5652","id":74348844,"location_subtype":"","month":"2019-05"},{"category":"burglary","location_type":"Force","location":{"latitude":"51.471855","street":{"id":946472,"name":"On or near Lugard Road"},"longitude":"-0.058351"},"context":"","outcome_status":{"category":"Status update unavailable","date":"2019-09"},"persistent_id":"033787ad2fc8c25fcd1b3cab576a0aade40255e1c792358d2a45de08986cf736","id":74320464,"location_subtype":"","month":"2019-05"},{"category":"burglary","location_type":"Force","location":{"latitude":"51.475318","street":{"id":946490,"name":"On or near Carlton Grove"},"longitude":"-0.061127"},"context":"","outcome_status":{"category":"Status update unavailable","date":"2019-09"},"persistent_id":"e3b56493f87853160ded1f76b051c1661c26620c12b57f573ddef6005125b60b","id":74346466,"location_subtype":"","month":"2019-05"},{"category":"burglary","location_type":"Force","location":{"latitude":"51.472826","street":{"id":946398,"name":"On or near Swallow Close"},"longitude":"-0.050232"},"context":"","outcome_status":{"category":"Status update unavailable","date":"2019-09"},"persistent_id":"470cd88945b045785429232c5074f3ec4289ffa97421407e92da4719b37a933d","id":74310443,"location_subtype":"","month":"2019-05"},{"category":"burglary","location_type":"Force","location":{"latitude":"51.479695","street":{"id":949040,"name":"On or near Joseph Hardcastle Close"},"longitude":"-0.045244"},"context":"","outcome_status":{"category":"Status update unavailable","date":"2019-09"},"persistent_id":"3f9cd0f47d9a9d441fc4527a3b278c54cd44398cfaba066d76e1f1a3cf9f2e13","id":74321819,"location_subtype":"","month":"2019-05"},{"category":"burglary","location_type":"Force","location":{"latitude":"51.477302","street":{"id":946265,"name":"On or near Fenham Road"},"longitude":"-0.064182"},"context":"","outcome_status":{"category":"Status update unavailable","date":"2019-09"},"persistent_id":"d7840f595a3e56b3f497186ba0603acc1a6fd116e322bfee4629a7d24a2343d2","id":74337547,"location_subtype":"","month":"2019-05"},{"category":"burglary","location_type":"Force","location":{"latitude":"51.471455","street":{"id":946598,"name":"On or near Luxmore Street"},"longitude":"-0.032190"},"context":"","outcome_status":{"category":"Status update unavailable","date":"2019-09"},"persistent_id":"0d5b25f7d0aee263ff3169e90c1398c8a9760fb752b8a3fc94f65a1ffb1294ab","id":74320402,"location_subtype":"","month":"2019-05"},{"category":"burglary","location_type":"Force","location":{"latitude":"51.475631","street":{"id":946669,"name":"On or near Lewisham Way"},"longitude":"-0.037224"},"context":"","outcome_status":{"category":"Status update unavailable","date":"2019-09"},"persistent_id":"1f9e73de4b578d703f22d87cf96dbf9b287acd4664b4e423930334297b6db846","id":74351025,"location_subtype":"","month":"2019-05"},{"category":"burglary","location_type":"Force","location":{"latitude":"51.467517","street":{"id":946395,"name":"On or near Supermarket"},"longitude":"-0.067404"},"context":"","outcome_status":{"category":"Status update unavailable","date":"2019-09"},"persistent_id":"a97efcecbaeca01a51977830f7e2a498cdbb35b88a82f7631ddc896b555c23a2","id":74355038,"location_subtype":"","month":"2019-05"},{"category":"burglary","location_type":"Force","location":{"latitude":"51.473565","street":{"id":946450,"name":"On or near Bus\/coach Station"},"longitude":"-0.044339"},"context":"","outcome_status":{"category":"Status update unavailable","date":"2019-09"},"persistent_id":"8e08858f0564102ad558c38b44295fa6d4af765c83ed5ad22f132123daa09329","id":74337600,"location_subtype":"","month":"2019-05"},{"category":"burglary","location_type":"Force","location":{"latitude":"51.467706","street":{"id":946531,"name":"On or near St Catherine's Drive"},"longitude":"-0.045137"},"context":"","outcome_status":{"category":"Status update unavailable","date":"2019-09"},"persistent_id":"c3488c3c362698255e00cd89799f7312acbe54a7e4519a27433f6b597371fb84","id":74291369,"location_subtype":"","month":"2019-05"},{"category":"burglary","location_type":"Force","location":{"latitude":"51.466068","street":{"id":946704,"name":"On or near Geoffrey Road"},"longitude":"-0.033229"},"context":"","outcome_status":{"category":"Status update unavailable","date":"2019-09"},"persistent_id":"1d65d0e38d8c4cbfd29855fef8cd008228fa18a9cd3c6ce15b5d15790d5456a5","id":74296454,"location_subtype":"","month":"2019-05"},{"category":"burglary","location_type":"Force","location":{"latitude":"51.474809","street":{"id":946670,"name":"On or near Laurie Grove"},"longitude":"-0.037014"},"context":"","outcome_status":{"category":"Status update unavailable","date":"2019-09"},"persistent_id":"f73287de32aac25acbb77521db9bf2a07a2176ec38a94e859c043c5717e10255","id":74350530,"location_subtype":"","month":"2019-05"},{"category":"burglary","location_type":"Force","location":{"latitude":"51.462656","street":{"id":942009,"name":"On or near Brockley Road"},"longitude":"-0.035693"},"context":"","outcome_status":{"category":"Status update unavailable","date":"2019-09"},"persistent_id":"1e5f1c7bf2a6493196a1acd3d186c006c352dc591d8f315df6379d08be18d459","id":74361114,"location_subtype":"","month":"2019-05"},{"category":"burglary","location_type":"Force","location":{"latitude":"51.465389","street":{"id":946535,"name":"On or near Salisbury Terrace"},"longitude":"-0.052910"},"context":"","outcome_status":{"category":"Status update unavailable","date":"2019-09"},"persistent_id":"964a1a7374523e3c73d08bf493d3e719015aa14212a6a89b1ae5a29e8dbb7fcb","id":74309270,"location_subtype":"","month":"2019-05"},{"category":"criminal-damage-arson","location_type":"Force","location":{"latitude":"51.471734","street":{"id":946231,"name":"On or near Portbury Close"},"longitude":"-0.065138"},"context":"","outcome_status":{"category":"Status update unavailable","date":"2019-09"},"persistent_id":"4b561dfdd485d3893ce85e5c91c9677b45690b0e190de9f5349c40b7540cf442","id":74333172,"location_subtype":"","month":"2019-05"},{"category":"criminal-damage-arson","location_type":"Force","location":{"latitude":"51.476150","street":{"id":946421,"name":"On or near Loder Street"},"longitude":"-0.054309"},"context":"","outcome_status":{"category":"Status update unavailable","date":"2019-09"},"persistent_id":"c0d1e436407b2d792a38de2476ca2e961964a9e22eae364620cbc807292a9991","id":74327896,"location_subtype":"","month":"2019-05"},{"category":"criminal-damage-arson","location_type":"Force","location":{"latitude":"51.476673","street":{"id":946409,"name":"On or near Romney Close"},"longitude":"-0.051724"},"context":"","outcome_status":{"category":"Status update unavailable","date":"2019-09"},"persistent_id":"b4f2fe43d2def64d63aa164a78293bdd2e6514b26ce9f24ea6ca3f6b4f65956b","id":74358214,"location_subtype":"","month":"2019-05"},{"category":"criminal-damage-arson","location_type":"Force","location":{"latitude":"51.463158","street":{"id":942119,"name":"On or near Abbotsbury Mews"},"longitude":"-0.056647"},"context":"","outcome_status":{"category":"Status update unavailable","date":"2019-09"},"persistent_id":"2be57ad37c979262447d40de205b2156eee3590e6c244940d4f59d7be5593435","id":74297630,"location_subtype":"","month":"2019-05"},{"category":"criminal-damage-arson","location_type":"Force","location":{"latitude":"51.479044","street":{"id":949061,"name":"On or near Cardine Mews"},"longitude":"-0.062395"},"context":"","outcome_status":{"category":"Status update unavailable","date":"2019-09"},"persistent_id":"2ca815dca2519e5ddad554c63be0de283044f535071c55c7dc1bdeb0e23516a2","id":74302101,"location_subtype":"","month":"2019-05"},{"category":"criminal-damage-arson","location_type":"Force","location":{"latitude":"51.453264","street":{"id":942177,"name":"On or near Dovedale Road"},"longitude":"-0.060349"},"context":"","outcome_status":{"category":"Local resolution","date":"2019-05"},"persistent_id":"9ac8eb46aa85421fe23e0d668a453690d76877fd01af9a4e1502528b19756fcd","id":74339545,"location_subtype":"","month":"2019-05"},{"category":"criminal-damage-arson","location_type":"Force","location":{"latitude":"51.475470","street":{"id":946679,"name":"On or near Supermarket"},"longitude":"-0.038887"},"context":"","outcome_status":{"category":"Status update unavailable","date":"2019-09"},"persistent_id":"aa57e162d730d6805f34b3eb339a835cc5bee9577d08e6938e23db113a7b0817","id":74346005,"location_subtype":"","month":"2019-05"},{"category":"criminal-damage-arson","location_type":"Force","location":{"latitude":"51.462580","street":{"id":942118,"name":"On or near Banfield Road"},"longitude":"-0.062502"},"context":"","outcome_status":{"category":"Offender given a caution","date":"2019-05"},"persistent_id":"d8a5aed192cf2eab34e5ac47cf1af53484f706f85e25a08d35085aefd64bb87f","id":74353749,"location_subtype":"","month":"2019-05"},{"category":"criminal-damage-arson","location_type":"Force","location":{"latitude":"51.473957","street":{"id":946236,"name":"On or near Peckham High Street"},"longitude":"-0.065793"},"context":"","outcome_status":{"category":"Court result unavailable","date":"2019-11"},"persistent_id":"4b7683f7ce6d993cf3239aa5189814d2ba9246a43bcfef48026b5edaa9fc0f29","id":74301261,"location_subtype":"","month":"2019-05"},{"category":"criminal-damage-arson","location_type":"Force","location":{"latitude":"51.458314","street":{"id":942096,"name":"On or near Parking Area"},"longitude":"-0.060120"},"context":"","outcome_status":{"category":"Status update unavailable","date":"2019-09"},"persistent_id":"d04f29a67d92cfd360b2527eb5ab95afc798bb607de6a222488509349a300a38","id":74330750,"location_subtype":"","month":"2019-05"},{"category":"criminal-damage-arson","location_type":"Force","location":{"latitude":"51.474821","street":{"id":946447,"name":"On or near Besson Street"},"longitude":"-0.049067"},"context":"","outcome_status":{"category":"Status update unavailable","date":"2019-09"},"persistent_id":"f64d38c577b200af3ffcc0ab0ee8d1790fd09caa6c74acc8813fbea5463e95f7","id":74360688,"location_subtype":"","month":"2019-05"},{"category":"criminal-damage-arson","location_type":"Force","location":{"latitude":"51.478882","street":{"id":949049,"name":"On or near Avonley Road"},"longitude":"-0.050434"},"context":"","outcome_status":{"category":"Status update unavailable","date":"2019-09"},"persistent_id":"e92bdee9fd2bdcf0f1314908691bde1d30d88c2a436cbf04cb1447c42756f31e","id":74372942,"location_subtype":"","month":"2019-05"},{"category":"criminal-damage-arson","location_type":"Force","location":{"latitude":"51.460851","street":{"id":942019,"name":"On or near Wickham Road"},"longitude":"-0.034230"},"context":"","outcome_status":{"category":"Status update unavailable","date":"2019-09"},"persistent_id":"aede7492d927845a3d612d17d3a8f6d038e6bd5385ba5f605d050195a998c910","id":74304572,"location_subtype":"","month":"2019-05"},{"category":"criminal-damage-arson","location_type":"Force","location":{"latitude":"51.471735","street":{"id":946406,"name":"On or near Sherwin Road"},"longitude":"-0.046765"},"context":"","outcome_status":{"category":"Status update unavailable","date":"2019-09"},"persistent_id":"4f3a3cccf75b8d4a40845f17677de624e8d39197f875755741eb14f3c44b2002","id":74351060,"location_subtype":"","month":"2019-05"},{"category":"criminal-damage-arson","location_type":"Force","location":{"latitude":"51.467336","street":{"id":946696,"name":"On or near Endwell Road"},"longitude":"-0.038588"},"context":"","outcome_status":{"category":"Status update unavailable","date":"2019-09"},"persistent_id":"60bb6212851a9e821636a34a4b4289460abf283baa0adf96d0d89a31ebddd683","id":74352221,"location_subtype":"","month":"2019-05"},{"category":"criminal-damage-arson","location_type":"Force","location":{"latitude":"51.457791","street":{"id":942128,"name":"On or near Reynolds Road"},"longitude":"-0.052384"},"context":"","outcome_status":{"category":"Status update unavailable","date":"2019-09"},"persistent_id":"4f23407622ef35bef03aed48b3c9876e7dcf185c46b90cb701618759fa650364","id":74346984,"location_subtype":"","month":"2019-05"},{"category":"criminal-damage-arson","location_type":"Force","location":{"latitude":"51.476102","street":{"id":946468,"name":"On or near Meeting House Lane"},"longitude":"-0.063384"},"context":"","outcome_status":{"category":"Status update unavailable","date":"2019-09"},"persistent_id":"a1d55fbace6a13bc5517143dfc88eb8e465487b0fc30c76a1d14067139994347","id":74360628,"location_subtype":"","month":"2019-05"},{"category":"criminal-damage-arson","location_type":"Force","location":{"latitude":"51.475086","street":{"id":946417,"name":"On or near Nettleton Road"},"longitude":"-0.043338"},"context":"","outcome_status":{"category":"Status update unavailable","date":"2019-09"},"persistent_id":"bd0e04e2957ed45a4b18c4fe59f7ca6b7566d056bfc0a8def5ca6d45d4034525","id":74304816,"location_subtype":"","month":"2019-05"},{"category":"criminal-damage-arson","location_type":"Force","location":{"latitude":"51.465730","street":{"id":946515,"name":"On or near Monteagle Way"},"longitude":"-0.060468"},"context":"","outcome_status":{"category":"Investigation complete; no suspect identified","date":"2020-03"},"persistent_id":"fbf76d4479f300a1b2e2f981a3322aa3f869a0de0df55ceece3f1654415b2e84","id":74324507,"location_subtype":"","month":"2019-05"},{"category":"criminal-damage-arson","location_type":"Force","location":{"latitude":"51.455566","street":{"id":942154,"name":"On or near Athenlay Road"},"longitude":"-0.047872"},"context":"","outcome_status":{"category":"Status update unavailable","date":"2019-09"},"persistent_id":"c7d4f8687266d343a1062f36176f40b42fb39483a40614552a936978d85d0ea1","id":74291312,"location_subtype":"","month":"2019-05"},{"category":"criminal-damage-arson","location_type":"Force","location":{"latitude":"51.460497","street":{"id":942132,"name":"On or near Limesford Road"},"longitude":"-0.048569"},"context":"","outcome_status":{"category":"Investigation complete; no suspect identified","date":"2020-03"},"persistent_id":"3f08c696f8b747e85f7e7ff70b257a062d7826b310d58eee27e7c05508be59a1","id":74314561,"location_subtype":"","month":"2019-05"},{"category":"criminal-damage-arson","location_type":"Force","location":{"latitude":"51.478030","street":{"id":949037,"name":"On or near New Cross Road"},"longitude":"-0.052760"},"context":"","outcome_status":{"category":"Status update unavailable","date":"2019-09"},"persistent_id":"947d2f3e9371a009df2072f11f58d5d7422e1dc7d14aefafe3eda756c2547e27","id":74291764,"location_subtype":"","month":"2019-05"},{"category":"criminal-damage-arson","location_type":"Force","location":{"latitude":"51.457780","street":{"id":942155,"name":"On or near Athenlay Road"},"longitude":"-0.046353"},"context":"","outcome_status":{"category":"Status update unavailable","date":"2019-09"},"persistent_id":"b5c88702dc0085bd579a4cf8929d97d20cbfdfdfc4e4cfb65dc597b514680ba0","id":74347825,"location_subtype":"","month":"2019-05"},{"category":"criminal-damage-arson","location_type":"Force","location":{"latitude":"51.477994","street":{"id":949046,"name":"On or near Chesterfield Way"},"longitude":"-0.053842"},"context":"","outcome_status":{"category":"Status update unavailable","date":"2019-09"},"persistent_id":"95b2a7a945fa792d5b6c72d88afbb143d46fafbe1dbaa7818e0103173320affa","id":74353748,"location_subtype":"","month":"2019-05"},{"category":"criminal-damage-arson","location_type":"Force","location":{"latitude":"51.466059","street":{"id":946549,"name":"On or near Bonita Mews"},"longitude":"-0.048850"},"context":"","outcome_status":{"category":"Investigation complete; no suspect identified","date":"2020-03"},"persistent_id":"a9dc833025ec775fe23083b67e8231fca40a72b2cefe6ec2ae75dfaaba248a7d","id":74341763,"location_subtype":"","month":"2019-05"},{"category":"criminal-damage-arson","location_type":"Force","location":{"latitude":"51.460497","street":{"id":942132,"name":"On or near Limesford Road"},"longitude":"-0.048569"},"context":"","outcome_status":{"category":"Status update unavailable","date":"2019-09"},"persistent_id":"3f08c696f8b747e85f7e7ff70b257a062d7826b310d58eee27e7c05508be59a1","id":74314560,"location_subtype":"","month":"2019-05"},{"category":"criminal-damage-arson","location_type":"Force","location":{"latitude":"51.476776","street":{"id":946477,"name":"On or near Kincaid Road"},"longitude":"-0.063355"},"context":"","outcome_status":{"category":"Offender given conditional discharge","date":"2019-05"},"persistent_id":"6aed6919f97323908f6b9f22fcc8508c62128db8636ea411324a2145d2cc5673","id":74297895,"location_subtype":"","month":"2019-05"},{"category":"criminal-damage-arson","location_type":"Force","location":{"latitude":"51.466603","street":{"id":946370,"name":"On or near Sternhall Lane"},"longitude":"-0.067054"},"context":"","outcome_status":{"category":"Status update unavailable","date":"2019-09"},"persistent_id":"26b6eccbc42a60250b8aea41086e278184c8dc935f33cb6bcf9329aad8a2443f","id":74300193,"location_subtype":"","month":"2019-05"},{"category":"criminal-damage-arson","location_type":"Force","location":{"latitude":"51.479984","street":{"id":949042,"name":"On or near Hunsdon Road"},"longitude":"-0.048011"},"context":"","outcome_status":{"category":"Status update unavailable","date":"2019-09"},"persistent_id":"0d2d8ad33b49d96e254e9f61847aa2b392f24d2d1916e6a157c87561d718b7e6","id":74316217,"location_subtype":"","month":"2019-05"},{"category":"criminal-damage-arson","location_type":"Force","location":{"latitude":"51.473855","street":{"id":946243,"name":"On or near Melon Road"},"longitude":"-0.071111"},"context":"","outcome_status":{"category":"Status update unavailable","date":"2019-09"},"persistent_id":"967beb18ac8b17bd57864231de467acf57dc6573bfedcdb8bd14817ea51a02de","id":74305543,"location_subtype":"","month":"2019-05"},{"category":"criminal-damage-arson","location_type":"Force","location":{"latitude":"51.457897","street":{"id":942157,"name":"On or near Aldersford Close"},"longitude":"-0.044750"},"context":"","outcome_status":{"category":"Status update unavailable","date":"2019-09"},"persistent_id":"8ab90917e6d22b2cfd3c50cd8038e11e3f41981471f7071564787b2c89f4d0a3","id":74333373,"location_subtype":"","month":"2019-05"},