[{"category":"anti-social-behaviour","location_type":"Force","location":{"latitude":"51.603541","street":{"id":980066,"name":"On or near Jasmin Close"},"longitude":"-0.415006"},"context":"","outcome_status":null,"persistent_id":"","id":74287213,"location_subtype":"","month":"2019-05"},{"category":"anti-social-behaviour","location_type":"Force","location":{"latitude":"51.616320","street":{"id":984819,"name":"On or near Thirlmere Gardens"},"longitude":"-0.440633"},"context":"","outcome_status":null,"persistent_id":"","id":74288018,"location_subtype":"","month":"2019-05"},{"category":"anti-social-behaviour","location_type":"Force","location":{"latitude":"51.616320","street":{"id":984819,"name":"On or near Thirlmere Gardens"},"longitude":"-0.440633"},"context":"","outcome_status":null,"persistent_id":"","id":74288017,"location_subtype":"","month":"2019-05"},{"category":"anti-social-behaviour","location_type":"Force","location":{"latitude":"51.614576","street":{"id":979967,"name":"On or near Harrison Close"},"longitude":"-0.435291"},"context":"","outcome_status":null,"persistent_id":"","id":74287994,"location_subtype":"","month":"2019-05"},{"category":"anti-social-behaviour","location_type":"Force","location":{"latitude":"51.610699","street":{"id":979942,"name":"On or near Police Station"},"longitude":"-0.425762"},"context":"","outcome_status":null,"persistent_id":"","id":74287941,"location_subtype":"","month":"2019-05"},{"category":"anti-social-behaviour","location_type":"Force","location":{"latitude":"51.613591","street":{"id":979935,"name":"On or near Carew Road"},"longitude":"-0.419451"},"context":"","outcome_status":null,"persistent_id":"","id":74287261,"location_subtype":"","month":"2019-05"},{"category":"anti-social-behaviour","location_type":"Force","location":{"latitude":"51.603293","street":{"id":979997,"name":"On or near Lees Avenue"},"longitude":"-0.419332"},"context":"","outcome_status":null,"persistent_id":"","id":74287243,"location_subtype":"","month":"2019-05"},{"category":"anti-social-behaviour","location_type":"Force","location":{"latitude":"51.604385","street":{"id":980016,"name":"On or near Chestnut Avenue"},"longitude":"-0.416955"},"context":"","outcome_status":null,"persistent_id":"","id":74287223,"location_subtype":"","month":"2019-05"},{"category":"anti-social-behaviour","location_type":"Force","location":{"latitude":"51.603541","street":{"id":980066,"name":"On or near Jasmin Close"},"longitude":"-0.415006"},"context":"","outcome_status":null,"persistent_id":"","id":74287212,"location_subtype":"","month":"2019-05"},{"category":"anti-social-behaviour","location_type":"Force","location":{"latitude":"51.603541","street":{"id":980066,"name":"On or near Jasmin Close"},"longitude":"-0.415006"},"context":"","outcome_status":null,"persistent_id":"","id":74287211,"location_subtype":"","month":"2019-05"},{"category":"anti-social-behaviour","location_type":"Force","location":{"latitude":"51.609616","street":{"id":979989,"name":"On or near Duck's Hill Road"},"longitude":"-0.440256"},"context":"","outcome_status":null,"persistent_id":"","id":74288019,"location_subtype":"","month":"2019-05"},{"category":"anti-social-behaviour","location_type":"Force","location":{"latitude":"51.609218","street":{"id":980037,"name":"On or near Townsend Way"},"longitude":"-0.414606"},"context":"","outcome_status":null,"persistent_id":"","id":74287177,"location_subtype":"","month":"2019-05"},{"category":"anti-social-behaviour","location_type":"Force","location":{"latitude":"51.602656","street":{"id":980064,"name":"On or near Waller Drive"},"longitude":"-0.412091"},"context":"","outcome_status":null,"persistent_id":"","id":74287157,"location_subtype":"","month":"2019-05"},{"category":"anti-social-behaviour","location_type":"Force","location":{"latitude":"51.602656","street":{"id":980064,"name":"On or near Waller Drive"},"longitude":"-0.412091"},"context":"","outcome_status":null,"persistent_id":"","id":74287156,"location_subtype":"","month":"2019-05"},{"category":"anti-social-behaviour","location_type":"Force","location":{"latitude":"51.602656","street":{"id":980064,"name":"On or near Waller Drive"},"longitude":"-0.412091"},"context":"","outcome_status":null,"persistent_id":"","id":74287154,"location_subtype":"","month":"2019-05"},{"category":"anti-social-behaviour","location_type":"Force","location":{"latitude":"51.602656","street":{"id":980064,"name":"On or near Waller Drive"},"longitude":"-0.412091"},"context":"","outcome_status":null,"persistent_id":"","id":74287155,"location_subtype":"","month":"2019-05"},{"category":"anti-social-behaviour","location_type":"Force","location":{"latitude":"51.610699","street":{"id":979942,"name":"On or near Police Station"},"longitude":"-0.425762"},"context":"","outcome_status":null,"persistent_id":"","id":74287940,"location_subtype":"","month":"2019-05"},{"category":"anti-social-behaviour","location_type":"Force","location":{"latitude":"51.602656","street":{"id":980064,"name":"On or near Waller Drive"},"longitude":"-0.412091"},"context":"","outcome_status":null,"persistent_id":"","id":74287153,"location_subtype":"","month":"2019-05"},{"category":"anti-social-behaviour","location_type":"Force","location":{"latitude":"51.599240","street":{"id":979762,"name":"On or near Colchester Road"},"longitude":"-0.411532"},"context":"","outcome_status":null,"persistent_id":"","id":74287138,"location_subtype":"","month":"2019-05"},{"category":"anti-social-behaviour","location_type":"Force","location":{"latitude":"51.599240","street":{"id":979762,"name":"On or near Colchester Road"},"longitude":"-0.411532"},"context":"","outcome_status":null,"persistent_id":"","id":74287137,"location_subtype":"","month":"2019-05"},{"category":"bicycle-theft","location_type":"Force","location":{"latitude":"51.610710","street":{"id":979957,"name":"On or near Myrtleside Close"},"longitude":"-0.431264"},"context":"","outcome_status":{"category":"Status update unavailable","date":"2019-09"},"persistent_id":"ca454943fccd87ac4a1764277dec49393e017a8196275f2de8190848f4f93989","id":74330648,"location_subtype":"","month":"2019-05"},{"category":"burglary","location_type":"Force","location":{"latitude":"51.608406","street":{"id":980054,"name":"On or near Church Close"},"longitude":"-0.413739"},"context":"","outcome_status":{"category":"Status update unavailable","date":"2019-09"},"persistent_id":"2475cb2d107e6acad1d96ae3273aa1f4a1fcadc250872d148091430d9665517b","id":74323714,"location_subtype":"","month":"2019-05"},{"category":"burglary","location_type":"Force","location":{"latitude":"51.608524","street":{"id":980051,"name":"On or near Emmanuel Road"},"longitude":"-0.415121"},"context":"","outcome_status":{"category":"Status update unavailable","date":"2019-09"},"persistent_id":"411349b3cb0d37d893a71662c20de9fa45154ac20e3d00dd88b48529bd399889","id":74327585,"location_subtype":"","month":"2019-05"},{"category":"burglary","location_type":"Force","location":{"latitude":"51.616735","street":{"id":984809,"name":"On or near Little Stream Close"},"longitude":"-0.421249"},"context":"","outcome_status":{"category":"Status update unavailable","date":"2019-09"},"persistent_id":"57062d72659282aca1e958898b1381c21004e502c738e9ad2432901cefd705c1","id":74304515,"location_subtype":"","month":"2019-05"},{"category":"burglary","location_type":"Force","location":{"latitude":"51.614457","street":{"id":980041,"name":"On or near Mountview"},"longitude":"-0.413023"},"context":"","outcome_status":{"category":"Status update unavailable","date":"2019-09"},"persistent_id":"994a94e5b552a9dceb118d66e575e46069e3d5cb7c29c7ee9eea520015b803e7","id":74304498,"location_subtype":"","month":"2019-05"},{"category":"burglary","location_type":"Force","location":{"latitude":"51.607084","street":{"id":980046,"name":"On or near High Street"},"longitude":"-0.416356"},"context":"","outcome_status":{"category":"Status update unavailable","date":"2019-09"},"persistent_id":"fc664686cae9b2c64ea0daebed27eec9f4eca79cad922a0399505c47c3dd924b","id":74303698,"location_subtype":"","month":"2019-05"},{"category":"burglary","location_type":"Force","location":{"latitude":"51.613698","street":{"id":979972,"name":"On or near Firs Walk"},"longitude":"-0.430786"},"context":"","outcome_status":{"category":"Status update unavailable","date":"2019-09"},"persistent_id":"d05021756218ca704e5357441dfddccd430668e3da9b8f308e5bc785a3d7cf82","id":74290031,"location_subtype":"","month":"2019-05"},{"category":"burglary","location_type":"Force","location":{"latitude":"51.609840","street":{"id":980040,"name":"On or near Northwood Way"},"longitude":"-0.414021"},"context":"","outcome_status":{"category":"Status update unavailable","date":"2019-09"},"persistent_id":"3e0903789c010636d63841e367722c5cf1f464729917043d8e2d9da9fcd86c13","id":74340211,"location_subtype":"","month":"2019-05"},{"category":"burglary","location_type":"Force","location":{"latitude":"51.605649","street":{"id":979924,"name":"On or near Highfield Crescent"},"longitude":"-0.424002"},"context":"","outcome_status":{"category":"Investigation complete; no suspect identified","date":"2020-09"},"persistent_id":"7d801c6fb1408217692988879d6e6e029f0b54c8d967f66487a0a21c6c4fcc49","id":74307418,"location_subtype":"","month":"2019-05"},{"category":"burglary","location_type":"Force","location":{"latitude":"51.614916","street":{"id":979968,"name":"On or near Halland Way"},"longitude":"-0.429083"},"context":"","outcome_status":{"category":"Status update unavailable","date":"2019-09"},"persistent_id":"7217adf2cc632ba8d20991897e07191c17c736e1802baac91edfebca9e1e7f60","id":74343293,"location_subtype":"","month":"2019-05"},{"category":"burglary","location_type":"Force","location":{"latitude":"51.604951","street":{"id":980019,"name":"On or near Stanley Road"},"longitude":"-0.406957"},"context":"","outcome_status":{"category":"Status update unavailable","date":"2019-09"},"persistent_id":"8c10631deacaa47cdb1a051961eb775c881f0c66340629b92a77be59b7f15c24","id":74325285,"location_subtype":"","month":"2019-05"},{"category":"burglary","location_type":"Force","location":{"latitude":"51.602579","street":{"id":979995,"name":"On or near Copse Close"},"longitude":"-0.438490"},"context":"","outcome_status":{"category":"Status update unavailable","date":"2019-09"},"persistent_id":"be360a251318b5e37bcfe6c66a79dda402b01cd60d76c8ae2fac84310f910768","id":74315905,"location_subtype":"","month":"2019-05"},{"category":"burglary","location_type":"Force","location":{"latitude":"51.618803","street":{"id":984818,"name":"On or near Farm Road"},"longitude":"-0.440057"},"context":"","outcome_status":{"category":"Status update unavailable","date":"2019-09"},"persistent_id":"8c2376eca11b88e4aff2483d5f93ca45a59399a5a520598c9d9316017c7a50a3","id":74370747,"location_subtype":"","month":"2019-05"},{"category":"burglary","location_type":"Force","location":{"latitude":"51.616739","street":{"id":984815,"name":"On or near Mezen Close"},"longitude":"-0.431620"},"context":"","outcome_status":{"category":"Status update unavailable","date":"2019-09"},"persistent_id":"3cc5206bcec19b66efadafe44e608fb7b8a0fa77f8f70b820f1b6bce88dfc5a8","id":74367452,"location_subtype":"","month":"2019-05"},{"category":"burglary","location_type":"Force","location":{"latitude":"51.604833","street":{"id":980013,"name":"On or near Pinner Road"},"longitude":"-0.417503"},"context":"","outcome_status":{"category":"Status update unavailable","date":"2019-09"},"persistent_id":"98e57645a73bcb9dee9da356ead398877f184b1c82a710ad6a94739981d5243a","id":74337645,"location_subtype":"","month":"2019-05"},{"category":"criminal-damage-arson","location_type":"Force","location":{"latitude":"51.606007","street":{"id":980062,"name":"On or near Addison Way"},"longitude":"-0.413837"},"context":"","outcome_status":{"category":"Status update unavailable","date":"2019-09"},"persistent_id":"450aad103cb17e988dbfda78dc39bde9d349be3152b4d32d717e193f0294924e","id":74327201,"location_subtype":"","month":"2019-05"},{"category":"criminal-damage-arson","location_type":"Force","location":{"latitude":"51.601919","street":{"id":979754,"name":"On or near Oakdale Avenue"},"longitude":"-0.408781"},"context":"","outcome_status":{"category":"Offender given a caution","date":"2019-10"},"persistent_id":"c0a8b64af2c423b8db260f4999870f903c52578f23e84c14289824b2c997ccc4","id":74345009,"location_subtype":"","month":"2019-05"},{"category":"criminal-damage-arson","location_type":"Force","location":{"latitude":"51.616948","street":{"id":984805,"name":"On or near Grove Road"},"longitude":"-0.428420"},"context":"","outcome_status":{"category":"Status update unavailable","date":"2019-09"},"persistent_id":"9e84d4f00a629efb152dfbc5305276f883c4d63fdfec5642b878b8aaa6c2b42c","id":74351156,"location_subtype":"","month":"2019-05"},{"category":"criminal-damage-arson","location_type":"Force","location":{"latitude":"51.616320","street":{"id":984819,"name":"On or near Thirlmere Gardens"},"longitude":"-0.440633"},"context":"","outcome_status":{"category":"Status update unavailable","date":"2019-09"},"persistent_id":"9ae6676c5f9ada0368c61828edea1545bfba5f80cfae9bcf3db51a1fdc2adaf4","id":74291210,"location_subtype":"","month":"2019-05"},{"category":"criminal-damage-arson","location_type":"Force","location":{"latitude":"51.601919","street":{"id":979754,"name":"On or near Oakdale Avenue"},"longitude":"-0.408781"},"context":"","outcome_status":{"category":"Status update unavailable","date":"2019-09"},"persistent_id":"d75a90dba686b22c501e77f9561fa4909b16c519008ddb5771739de0244ae42f","id":74354557,"location_subtype":"","month":"2019-05"},{"category":"criminal-damage-arson","location_type":"Force","location":{"latitude":"51.606937","street":{"id":979925,"name":"On or near Highfield Close"},"longitude":"-0.422152"},"context":"","outcome_status":{"category":"Status update unavailable","date":"2019-09"},"persistent_id":"cf357fe1e25511d70718a51334628bd179c1abeeb6aee52dd8fe8da90e200e21","id":74344795,"location_subtype":"","month":"2019-05"},{"category":"criminal-damage-arson","location_type":"Force","location":{"latitude":"51.616898","street":{"id":788503,"name":"On or near Eastbury Avenue"},"longitude":"-0.414656"},"context":"","outcome_status":{"category":"Unable to prosecute suspect","date":"2019-06"},"persistent_id":"bc2700d15d07639c3609e0985c211d1acd8d4d94cd709eb45e4bb18d1a5b3977","id":75206395,"location_subtype":"","month":"2019-05"},{"category":"criminal-damage-arson","location_type":"Force","location":{"latitude":"51.603293","street":{"id":979997,"name":"On or near Lees Avenue"},"longitude":"-0.419332"},"context":"","outcome_status":{"category":"Status update unavailable","date":"2019-09"},"persistent_id":"1e895b3b6f1a4c0645cfc3bb275e30e1d24f78c33f585df9b8fa2e81a18b30db","id":74340763,"location_subtype":"","month":"2019-05"},{"category":"criminal-damage-arson","location_type":"Force","location":{"latitude":"51.610344","street":{"id":980047,"name":"On or near Hawes Close"},"longitude":"-0.418048"},"context":"","outcome_status":{"category":"Status update unavailable","date":"2019-09"},"persistent_id":"bfed25d5359029541f5385aee0dd81e8ab7894751ba208aeb99088c24b438868","id":74315379,"location_subtype":"","month":"2019-05"},{"category":"criminal-damage-arson","location_type":"Force","location":{"latitude":"51.610121","street":{"id":980048,"name":"On or near Green Lane"},"longitude":"-0.414893"},"context":"","outcome_status":{"category":"Status update unavailable","date":"2019-09"},"persistent_id":"64c6a90a5572cd0ca35ce45f7fc0c386cc13b8e7d6fee7a4f8f6479bb893f26c","id":74335918,"location_subtype":"","month":"2019-05"},{"category":"drugs","location_type":"Force","location":{"latitude":"51.602999","street":{"id":979998,"name":"On or near Knoll Crescent"},"longitude":"-0.420195"},"context":"","outcome_status":{"category":"Local resolution","date":"2019-05"},"persistent_id":"4a1b5036bccbd6e59578fab67151c6d7befc3ee37a50b3581fd28eecfb892bf0","id":74301627,"location_subtype":"","month":"2019-05"},{"category":"drugs","location_type":"Force","location":{"latitude":"51.615507","street":{"id":788527,"name":"On or near Sandy Lane"},"longitude":"-0.406226"},"context":"","outcome_status":{"category":"Court result unavailable","date":"2019-11"},"persistent_id":"87e6232a9ab9e5699dff2f70fab580c215a7d7955d02afdf0abbf72e27b343ee","id":75198223,"location_subtype":"","month":"2019-05"},{"category":"drugs","location_type":"Force","location":{"latitude":"51.601919","street":{"id":979754,"name":"On or near Oakdale Avenue"},"longitude":"-0.408781"},"context":"","outcome_status":{"category":"Local resolution","date":"2019-05"},"persistent_id":"2cfac8771f52d3dfaea46338b826df67f03c0f38b8cff4a3961ebade817b98a6","id":74306478,"location_subtype":"","month":"2019-05"},{"category":"drugs","location_type":"Force","location":{"latitude":"51.614376","street":{"id":979988,"name":"On or near Rising Hill Close"},"longitude":"-0.439140"},"context":"","outcome_status":{"category":"Offender given penalty notice","date":"2019-05"},"persistent_id":"8595fcbccbb89b2b70fdf22498796786cc60a809809406f93caa2630ed1778e5","id":74353356,"location_subtype":"","month":"2019-05"},{"category":"other-theft","location_type":"Force","location":{"latitude":"51.625114","street":{"id":788562,"name":"On or near Bishops Avenue"},"longitude":"-0.419094"},"context":"","outcome_status":{"category":"Investigation complete; no suspect identified","date":"2019-07"},"persistent_id":"ed3a0f582ae42576c08ea06fd224e55003f8f0cbcb2ae2875b3b5ff77655b82a","id":75221648,"location_subtype":"","month":"2019-05"},{"category":"other-theft","location_type":"Force","location":{"latitude":"51.615133","street":{"id":979916,"name":"On or near Rofant Road"},"longitude":"-0.423803"},"context":"","outcome_status":{"category":"Status update unavailable","date":"2019-09"},"persistent_id":"6a4ebfb360271637c8f6bd7b2683db547e1a31cd52ff941e4bc3bfed1f398aad","id":74324969,"location_subtype":"","month":"2019-05"},{"category":"other-theft","location_type":"Force","location":{"latitude":"51.611840","street":{"id":979946,"name":"On or near Parking Area"},"longitude":"-0.426993"},"context":"","outcome_status":{"category":"Status update unavailable","date":"2019-09"},"persistent_id":"d8f18a27f78cbc5d9fbd37cf02475c53f8c7282b4d434f3c3c99644f22405bc1","id":74342168,"location_subtype":"","month":"2019-05"},{"category":"other-theft","location_type":"Force","location":{"latitude":"51.603541","street":{"id":980066,"name":"On or near Jasmin Close"},"longitude":"-0.415006"},"context":"","outcome_status":{"category":"Status update unavailable","date":"2019-09"},"persistent_id":"f0bf4dadfae0cf26cc10c20929d4db21f4c4c5dc077f825ed13a2809af71c458","id":74295848,"location_subtype":"","month":"2019-05"},{"category":"other-theft","location_type":"Force","location":{"latitude":"51.611647","street":{"id":979928,"name":"On or near Green Lane"},"longitude":"-0.424704"},"context":"","outcome_status":{"category":"Status update unavailable","date":"2019-09"},"persistent_id":"e3abc69e7d6ac6f2f18ec5f07e5cad1c8be24492df4556cf7a8cb7fa5b4ac967","id":74354400,"location_subtype":"","month":"2019-05"},{"category":"other-theft","location_type":"Force","location":{"latitude":"51.612750","street":{"id":979980,"name":"On or near Closemead Close"},"longitude":"-0.437231"},"context":"","outcome_status":{"category":"Status update unavailable","date":"2019-09"},"persistent_id":"570dae6788eb645bb453c78fbd75d2382474425bf174148e679105b42cdf3a30","id":74347941,"location_subtype":"","month":"2019-05"},{"category":"other-theft","location_type":"Force","location":{"latitude":"51.610353","street":{"id":980022,"name":"On or near Wieland Road"},"longitude":"-0.408068"},"context":"","outcome_status":{"category":"Status update unavailable","date":"2019-09"},"persistent_id":"a3aee96d3dedae356beb1ea02649d714adf9fc0ce08dc8f3f778f821318c0401","id":74315761,"location_subtype":"","month":"2019-05"},{"category":"other-theft","location_type":"Force","location":{"latitude":"51.614177","street":{"id":979931,"name":"On or near Eastbury Road"},"longitude":"-0.422912"},"context":"","outcome_status":{"category":"Status update unavailable","date":"2019-09"},"persistent_id":"2d4ce1448ae573edd23e45f854aafd75cfd217947d8440ad4f2e21ace9b8bd0a","id":74343306,"location_subtype":"","month":"2019-05"},{"category":"other-theft","location_type":"Force","location":{"latitude":"51.604385","street":{"id":980016,"name":"On or near Chestnut Avenue"},"longitude":"-0.416955"},"context":"","outcome_status":{"category":"Status update unavailable","date":"2019-09"},"persistent_id":"8464572cd4dec9293ccbf177be408d7dd205ab34aa5e208234381e6dc5a921f0","id":74346111,"location_subtype":"","month":"2019-05"},{"category":"public-order","location_type":"Force","location":{"latitude":"51.609783","street":{"id":979940,"name":"On or near Shopping Area"},"longitude":"-0.421143"},"context":"","outcome_status":{"category":"Status update unavailable","date":"2019-09"},"persistent_id":"af4cbebcc2f7abe84e3c3bcb1adb99092622509fcf43ea74464ede608aa06e4e","id":74352842,"location_subtype":"","month":"2019-05"},{"category":"public-order","location_type":"Force","location":{"latitude":"51.609616","street":{"id":979989,"name":"On or near Duck's Hill Road"},"longitude":"-0.440256"},"context":"","outcome_status":{"category":"Status update unavailable","date":"2019-09"},"persistent_id":"76a4e302bc2049c3adaeae38a75fa5344ee4d7c0e619cfc051b59d10f23d6aab","id":74320189,"location_subtype":"","month":"2019-05"},{"category":"public-order","location_type":"Force","location":{"latitude":"51.612206","street":{"id":979918,"name":"On or near Oaklands Gate"},"longitude":"-0.425464"},"context":"","outcome_status":{"category":"Status update unavailable","date":"2019-09"},"persistent_id":"d702fc1710a794b6543b5d888463207bbfaa0996b1e960c5321ea432c72e3e5d","id":74318518,"location_subtype":"","month":"2019-05"},{"category":"public-order","location_type":"Force","location":{"latitude":"51.611156","street":{"id":979941,"name":"On or near Supermarket"},"longitude":"-0.424316"},"context":"","outcome_status":{"category":"Status update unavailable","date":"2019-09"},"persistent_id":"f12dd4523c5c2cffb30666d9d35c9ea7413b59522d14b0936b73cff6c1d24c23","id":74291439,"location_subtype":"","month":"2019-05"},{"category":"public-order","location_type":"BTP","location":{"latitude":"51.611200","street":{"id":1488631,"name":"Northwood (lu Station)"},"longitude":"-0.423907"},"context":"","outcome_status":{"category":"Status update unavailable","date":"2019-09"},"persistent_id":"","id":88718944,"location_subtype":"LU STATION","month":"2019-05"},{"category":"public-order","location_type":"Force","location":{"latitude":"51.618885","street":{"id":788492,"name":"On or near The Woods"},"longitude":"-0.405992"},"context":"","outcome_status":{"category":"Unable to prosecute suspect","date":"2019-05"},"persistent_id":"30ed8dcd73780f752a859d501570b8afa585926e4b2e09865a4b7bdcacb6ffec","id":75220456,"location_subtype":"","month":"2019-05"},{"category":"robbery","location_type":"Force","location":{"latitude":"51.610403","street":{"id":980076,"name":"On or near Green Lane"},"longitude":"-0.415749"},"context":"","outcome_status":{"category":"Status update unavailable","date":"2019-09"},"persistent_id":"b7c96fe393857dbaaffdb6538abc483b16906febdf2947345a0699598d6d0d6a","id":74312858,"location_subtype":"","month":"2019-05"},{"category":"robbery","location_type":"Force","location":{"latitude":"51.602696","street":{"id":980068,"name":"On or near Pinner Road"},"longitude":"-0.409736"},"context":"","outcome_status":{"category":"Status update unavailable","date":"2019-09"},"persistent_id":"ed9727a6ebf75114c9804694457a4f869e65c4fc5b30baa8731dba9ddfea998c","id":74347695,"location_subtype":"","month":"2019-05"},{"category":"robbery","location_type":"Force","location":{"latitude":"51.611123","street":{"id":979933,"name":"On or near Cervantes Court"},"longitude":"-0.419133"},"context":"","outcome_status":{"category":"Status update unavailable","date":"2019-09"},"persistent_id":"b037bda10a877b24c017ab93880768231070e5b1e1cb594f66671d4d2022708e","id":74333462,"location_subtype":"","month":"2019-05"},{"category":"shoplifting","location_type":"Force","location":{"latitude":"51.601951","street":{"id":979749,"name":"On or near Windsor Close"},"longitude":"-0.410499"},"context":"","outcome_status":{"category":"Status update unavailable","date":"2019-09"},"persistent_id":"a80c4c9d3756de84c2e61743d9424e0c527675365a74074647f8637ac866af22","id":74324955,"location_subtype":"","month":"2019-05"},{"category":"shoplifting","location_type":"Force","location":{"latitude":"51.601951","street":{"id":979749,"name":"On or near Windsor Close"},"longitude":"-0.410499"},"context":"","outcome_status":{"category":"Status update unavailable","date":"2019-09"},"persistent_id":"5e811b78e7d7c2530369f2b0249f3c5e7608927b5c876bf87046724a02fe1864","id":74342165,"location_subtype":"","month":"2019-05"},{"category":"shoplifting","location_type":"Force","location":{"latitude":"51.611156","street":{"id":979941,"name":"On or near Supermarket"},"longitude":"-0.424316"},"context":"","outcome_status":{"category":"Status update unavailable","date":"2019-09"},"persistent_id":"361514fe88f5cab0d2846c399bec784eb8917d2070714272cd2e1abd2c6a864e","id":74308794,"location_subtype":"","month":"2019-05"},{"category":"theft-from-the-person","location_type":"Force","location":{"latitude":"51.611156","street":{"id":979941,"name":"On or near Supermarket"},"longitude":"-0.424316"},"context":"","outcome_status":{"category":"Status update unavailable","date":"2019-09"},"persistent_id":"8fddabca5a8cf25c158dfc02726e32f5c6ce43a159e5a1c7890f8658eb8bb236","id":74320123,"location_subtype":"","month":"2019-05"},{"category":"theft-from-the-person","location_type":"Force","location":{"latitude":"51.605649","street":{"id":979924,"name":"On or near Highfield Crescent"},"longitude":"-0.424002"},"context":"","outcome_status":{"category":"Status update unavailable","date":"2019-09"},"persistent_id":"8f43efe5f9da7d93b22181a25807629cbda1b9b085f39e3e39e4baf048c761b9","id":74327687,"location_subtype":"","month":"2019-05"},{"category":"theft-from-the-person","location_type":"BTP","location":{"latitude":"51.611200","street":{"id":1488631,"name":"Northwood (lu Station)"},"longitude":"-0.423907"},"context":"","outcome_status":{"category":"Status update unavailable","date":"2019-09"},"persistent_id":"","id":88718945,"location_subtype":"LU STATION","month":"2019-05"},{"category":"vehicle-crime","location_type":"Force","location":{"latitude":"51.607767","street":{"id":923717,"name":"On or near Hillside Rise"},"longitude":"-0.409039"},"context":"","outcome_status":{"category":"Status update unavailable","date":"2019-09"},"persistent_id":"c969281365d1878f8f114fbfc0e9495394c22b838996713d07e5321117f160be","id":74304605,"location_subtype":"","month":"2019-05"},{"category":"vehicle-crime","location_type":"Force","location":{"latitude":"51.606829","street":{"id":980027,"name":"On or near Hillside Gardens"},"longitude":"-0.405490"},"context":"","outcome_status":{"category":"Status update unavailable","date":"2019-09"},"persistent_id":"79b3e82eb5d5e214ceec4a7006b036d8b3c87bafc9cedd3add289f80a0e8b1ef","id":74303223,"location_subtype":"","month":"2019-05"},{"category":"vehicle-crime","location_type":"Force","location":{"latitude":"51.615579","street":{"id":984813,"name":"On or near Sandy Lodge Way"},"longitude":"-0.426908"},"context":"","outcome_status":{"category":"Status update unavailable","date":"2019-09"},"persistent_id":"295409be349515aa00d3be14c456e05bc646b6908d9281b440b1b47804a885a0","id":74313073,"location_subtype":"","month":"2019-05"},{"category":"vehicle-crime","location_type":"Force","location":{"latitude":"51.615372","street":{"id":984801,"name":"On or near Frithwood Avenue"},"longitude":"-0.417541"},"context":"","outcome_status":{"category":"Status update unavailable","date":"2019-09"},"persistent_id":"33a1e0264c73a77bc7d379d05b66ced2e53a33fb9606c94eb4a87b7ba61b2a94","id":74295655,"location_subtype":"","month":"2019-05"},{"category":"vehicle-crime","location_type":"Force","location":{"latitude":"51.614170","street":{"id":979977,"name":"On or near Dene Road"},"longitude":"-0.430452"},"context":"","outcome_status":{"category":"Status update unavailable","date":"2019-09"},"persistent_id":"dd3e3f3655284221d361d62ea78a0db4af2bac34bccdc364fb24fcb42aea7398","id":74291223,"location_subtype":"","month":"2019-05"},{"category":"vehicle-crime","location_type":"Force","location":{"latitude":"51.604965","street":{"id":979943,"name":"On or near Nicholas Way"},"longitude":"-0.439433"},"context":"","outcome_status":{"category":"Status update unavailable","date":"2019-09"},"persistent_id":"587cb59e585081c7d0ee0aab4dd38cacc19076350c543b26d3b7428eb49ea9b9","id":74309681,"location_subtype":"","month":"2019-05"},{"category":"vehicle-crime","location_type":"Force","location":{"latitude":"51.605484","street":{"id":980053,"name":"On or near Columbus Gardens"},"longitude":"-0.411762"},"context":"","outcome_status":{"category":"Status update unavailable","date":"2019-09"},"persistent_id":"44f6e8130fbe3a50e7f24d19c46c23fd49c5412bafea916ea64826d46b1a3932","id":74335140,"location_subtype":"","month":"2019-05"},{"category":"vehicle-crime","location_type":"Force","location":{"latitude":"51.616519","street":{"id":984812,"name":"On or near Clare Court"},"longitude":"-0.423871"},"context":"","outcome_status":{"category":"Status update unavailable","date":"2019-09"},"persistent_id":"600a7f8316cd32149006ecf0b595215c0049f3d4c8abf57be17a73fdc91371ff","id":74343634,"location_subtype":"","month":"2019-05"},{"category":"vehicle-crime","location_type":"Force","location":{"latitude":"51.604965","street":{"id":979943,"name":"On or near Nicholas Way"},"longitude":"-0.439433"},"context":"","outcome_status":{"category":"Status update unavailable","date":"2019-09"},"persistent_id":"696dfc6842381f33dc1b724390687d89d8faa43f419a7e98a2e08d1a4481c845","id":74304716,"location_subtype":"","month":"2019-05"},{"category":"vehicle-crime","location_type":"Force","location":{"latitude":"51.604965","street":{"id":979943,"name":"On or near Nicholas Way"},"longitude":"-0.439433"},"context":"","outcome_status":{"category":"Status update unavailable","date":"2019-09"},"persistent_id":"696dfc6842381f33dc1b724390687d89d8faa43f419a7e98a2e08d1a4481c845","id":74306516,"location_subtype":"","month":"2019-05"},{"category":"vehicle-crime","location_type":"Force","location":{"latitude":"51.604833","street":{"id":980013,"name":"On or near Pinner Road"},"longitude":"-0.417503"},"context":"","outcome_status":{"category":"Status update unavailable","date":"2019-09"},"persistent_id":"bf42ce3d2e175e72357d8082796a251005337530260ac06da21e2c90f580b556","id":74353484,"location_subtype":"","month":"2019-05"},{"category":"vehicle-crime","location_type":"Force","location":{"latitude":"51.625114","street":{"id":788562,"name":"On or near Bishops Avenue"},"longitude":"-0.419094"},"context":"","outcome_status":{"category":"Investigation complete; no suspect identified","date":"2019-06"},"persistent_id":"63c2437b11727039796815d94bacb40e03bcde3e91e871d10885913c88ff111f","id":75221176,"location_subtype":"","month":"2019-05"},{"category":"vehicle-crime","location_type":"Force","location":{"latitude":"51.625114","street":{"id":788562,"name":"On or near Bishops Avenue"},"longitude":"-0.419094"},"context":"","outcome_status":{"category":"Investigation complete; no suspect identified","date":"2019-06"},"persistent_id":"85d3352a1ebbc9233c7ce11bba0ef505dca0f0c0241cbd692097416b13b33612","id":75221159,"location_subtype":"","month":"2019-05"},{"category":"vehicle-crime","location_type":"Force","location":{"latitude":"51.610261","street":{"id":979913,"name":"On or near Wychwood Way"},"longitude":"-0.419899"},"context":"","outcome_status":{"category":"Status update unavailable","date":"2019-09"},"persistent_id":"bceb17f6f97ee357e2fb00adc286e0d3c88ef26b3ec9ca0171c0efa25aac6303","id":74366769,"location_subtype":"","month":"2019-05"},{"category":"violent-crime","location_type":"Force","location":{"latitude":"51.601919","street":{"id":979754,"name":"On or near Oakdale Avenue"},"longitude":"-0.408781"},"context":"","outcome_status":{"category":"Offender given a caution","date":"2019-08"},"persistent_id":"bf552392ddf138e032f25d44f0a9461c19d6280e3edf5fcf8174641f80381f9d","id":74372727,"location_subtype":"","month":"2019-05"},{"category":"violent-crime","location_type":"Force","location":{"latitude":"51.601919","street":{"id":979754,"name":"On or near Oakdale Avenue"},"longitude":"-0.408781"},"context":"","outcome_status":{"category":"Status update unavailable","date":"2019-09"},"persistent_id":"0650cbdc6f2b9360cc2f7d9011dcb10000095004a912635aaca7b24ba48d7e82","id":74320838,"location_subtype":"","month":"2019-05"},{"category":"violent-crime","location_type":"Force","location":{"latitude":"51.617915","street":{"id":788509,"name":"On or near Adhara Road"},"longitude":"-0.412035"},"context":"","outcome_status":{"category":"Unable to prosecute suspect","date":"2019-06"},"persistent_id":"5a8039a2510448757d3998f06aa5afb75fd1a360644023bf3172fedbb219f9e5","id":75221225,"location_subtype":"","month":"2019-05"},{"category":"violent-crime","location_type":"Force","location":{"latitude":"51.619058","street":{"id":788537,"name":"On or near Kewferry Road"},"longitude":"-0.433548"},"context":"","outcome_status":{"category":"Unable to prosecute suspect","date":"2019-09"},"persistent_id":"5b3130bf00d07baba18d27be24fea593545c05fb11041a0a61cbd74667098b1c","id":75209411,"location_subtype":"","month":"2019-05"},{"category":"violent-crime","location_type":"Force","location":{"latitude":"51.613668","street":{"id":979907,"name":"On or near Trinity Close"},"longitude":"-0.425890"},"context":"","outcome_status":{"category":"Status update unavailable","date":"2019-09"},"persistent_id":"ab7822b788c77d30605c72e8a43f39ed91d02768815278dfe0a56252eec03d61","id":74344634,"location_subtype":"","month":"2019-05"},{"category":"violent-crime","location_type":"Force","location":{"latitude":"51.615163","street":{"id":979917,"name":"On or near Pines Close"},"longitude":"-0.420668"},"context":"","outcome_status":{"category":"Court result unavailable","date":"2020-04"},"persistent_id":"2848f6221df8b52f34de6350abfdedac7a3d6a4c974aa25556b7c1de8e59ac94","id":74329648,"location_subtype":"","month":"2019-05"},{"category":"violent-crime","location_type":"Force","location":{"latitude":"51.601919","street":{"id":979754,"name":"On or near Oakdale Avenue"},"longitude":"-0.408781"},"context":"","outcome_status":{"category":"Status update unavailable","date":"2019-09"},"persistent_id":"9e77a5403b10711312849f63fa8e26b601ccb2de2bc6f94ca5fab58b51716e15","id":74337080,"location_subtype":"","month":"2019-05"},{"category":"violent-crime","location_type":"Force","location":{"latitude":"51.609938","street":{"id":980059,"name":"On or near Bennett Close"},"longitude":"-0.416661"},"context":"","outcome_status":{"category":"Status update unavailable","date":"2019-09"},"persistent_id":"1ac4a21a4eea2782f9b821a922a7ed7ba4f1e2d0361c9791760d1bb830837b16","id":74356185,"location_subtype":"","month":"2019-05"},{"category":"violent-crime","location_type":"Force","location":{"latitude":"51.614916","street":{"id":979968,"name":"On or near Halland Way"},"longitude":"-0.429083"},"context":"","outcome_status":{"category":"Status update unavailable","date":"2019-09"},"persistent_id":"d582ee37887e6a11eaa2bd23151be6fb860ee5b6a4bce2dd0fdf40d81dd04f36","id":74321425,"location_subtype":"","month":"2019-05"},{"category":"violent-crime","location_type":"Force","location":{"latitude":"51.614916","street":{"id":979968,"name":"On or near Halland Way"},"longitude":"-0.429083"},"context":"","outcome_status":{"category":"Status update unavailable","date":"2019-09"},"persistent_id":"d582ee37887e6a11eaa2bd23151be6fb860ee5b6a4bce2dd0fdf40d81dd04f36","id":74322220,"location_subtype":"","month":"2019-05"},{"category":"violent-crime","location_type":"Force","location":{"latitude":"51.608232","street":{"id":923617,"name":"On or near Leaf Close"},"longitude":"-0.428158"},"context":"","outcome_status":{"category":"Status update unavailable","date":"2019-09"},"persistent_id":"eaa67090e6f60e70b5dfa6897a98d9e1b3b0d30ca56f35f4c8973545aff31b8c","id":74311960,"location_subtype":"","month":"2019-05"},{"category":"violent-crime","location_type":"Force","location":{"latitude":"51.610353","street":{"id":980022,"name":"On or near Wieland Road"},"longitude":"-0.408068"},"context":"","outcome_status":{"category":"Status update unavailable","date":"2019-09"},"persistent_id":"1e3dfed7428df3b04fc0a62ef3abc02221e24d77c922382b295f5dbaab414adc","id":74311068,"location_subtype":"","month":"2019-05"},{"category":"violent-crime","location_type":"Force","location":{"latitude":"51.609609","street":{"id":980055,"name":"On or near Chester Road"},"longitude":"-0.418232"},"context":"","outcome_status":{"category":"Status update unavailable","date":"2019-09"},"persistent_id":"7d4d09414427e0c5079eb804916885159581db3e027d7398d97cfc7300f08061","id":74323900,"location_subtype":"","month":"2019-05"},{"category":"violent-crime","location_type":"Force","location":{"latitude":"51.609609","street":{"id":980055,"name":"On or near Chester Road"},"longitude":"-0.418232"},"context":"","outcome_status":{"category":"Status update unavailable","date":"2019-09"},"persistent_id":"4d7eb9b56e7c815103db88adb88aefdedf160c3f1f424104ae330f54a85a9747","id":74294852,"location_subtype":"","month":"2019-05"},{"category":"violent-crime","location_type":"Force","location":{"latitude":"51.606509","street":{"id":980028,"name":"On or near Hillside Crescent"},"longitude":"-0.407076"},"context":"","outcome_status":{"category":"Status update unavailable","date":"2019-09"},"persistent_id":"78afbace51bb96c15b8dbcbf72ff7a67a9d5da3e7f444dfc018f67a969d74ec5","id":74292984,"location_subtype":"","month":"2019-05"},{"category":"violent-crime","location_type":"Force","location":{"latitude":"51.601919","street":{"id":979754,"name":"On or near Oakdale Avenue"},"longitude":"-0.408781"},"context":"","outcome_status":{"category":"Status update unavailable","date":"2019-09"},"persistent_id":"ff1de4939612db2bb9a3e7f187fcabbc61788fe60964af646f61daf1e51b3c2b","id":74353464,"location_subtype":"","month":"2019-05"},{"category":"violent-crime","location_type":"Force","location":{"latitude":"51.612704","street":{"id":980042,"name":"On or near Maycock Grove"},"longitude":"-0.417706"},"context":"","outcome_status":{"category":"Investigation complete; no suspect identified","date":"2020-03"},"persistent_id":"81627c04ec78aa920e9e9979996ccf56b3ca184e40fb9549a9fbb03772f1aa2e","id":74342948,"location_subtype":"","month":"2019-05"},{"category":"violent-crime","location_type":"Force","location":{"latitude":"51.601919","street":{"id":979754,"name":"On or near Oakdale Avenue"},"longitude":"-0.408781"},"context":"","outcome_status":{"category":"Investigation complete; no suspect identified","date":"2020-03"},"persistent_id":"b49587fd2c563a9d9ec8eebc37ffc93f64fee1a1875cb2570ba11c77b5d324b9","id":74315989,"location_subtype":"","month":"2019-05"},{"category":"violent-crime","location_type":"Force","location":{"latitude":"51.612750","street":{"id":979980,"name":"On or near Closemead Close"},"longitude":"-0.437231"},"context":"","outcome_status":{"category":"Status update unavailable","date":"2019-09"},"persistent_id":"526167cd9c70746bab6976f1d7e39f99acdb67ef77233c0a3078c76455129d3a","id":74344277,"location_subtype":"","month":"2019-05"},{"category":"violent-crime","location_type":"Force","location":{"latitude":"51.611156","street":{"id":979941,"name":"On or near Supermarket"},"longitude":"-0.424316"},"context":"","outcome_status":{"category":"Status update unavailable","date":"2019-09"},"persistent_id":"866eb0e9ec5d9fca5756b90df2239ecff2b3a918b3b1629372693a25abb97781","id":74339194,"location_subtype":"","month":"2019-05"},{"category":"other-crime","location_type":"Force","location":{"latitude":"51.602696","street":{"id":980068,"name":"On or near Pinner Road"},"longitude":"-0.409736"},"context":"","outcome_status":{"category":"Investigation complete; no suspect identified","date":"2020-03"},"persistent_id":"6ac34a05ad9df76b6f648b83b055430c343fd0972918a36a4b309fd2dd18bff6","id":74307577,"location_subtype":"","month":"2019-05"}]