[{"category":"anti-social-behaviour","location_type":"Force","location":{"latitude":"51.482422","street":{"id":949542,"name":"On or near Harleyford Street"},"longitude":"-0.112934"},"context":"","outcome_status":null,"persistent_id":"","id":74273658,"location_subtype":"","month":"2019-05"},{"category":"anti-social-behaviour","location_type":"Force","location":{"latitude":"51.470832","street":{"id":945721,"name":"On or near Mccall Close"},"longitude":"-0.128156"},"context":"","outcome_status":null,"persistent_id":"","id":74275253,"location_subtype":"","month":"2019-05"},{"category":"anti-social-behaviour","location_type":"Force","location":{"latitude":"51.483919","street":{"id":949484,"name":"On or near Ebbisham Drive"},"longitude":"-0.119310"},"context":"","outcome_status":null,"persistent_id":"","id":74274332,"location_subtype":"","month":"2019-05"},{"category":"anti-social-behaviour","location_type":"Force","location":{"latitude":"51.473774","street":{"id":945958,"name":"On or near Clapham Road"},"longitude":"-0.120951"},"context":"","outcome_status":null,"persistent_id":"","id":74274376,"location_subtype":"","month":"2019-05"},{"category":"anti-social-behaviour","location_type":"Force","location":{"latitude":"51.487473","street":{"id":949728,"name":"On or near Aylesford Street"},"longitude":"-0.133524"},"context":"","outcome_status":null,"persistent_id":"","id":74280558,"location_subtype":"","month":"2019-05"},{"category":"anti-social-behaviour","location_type":"Force","location":{"latitude":"51.473774","street":{"id":945958,"name":"On or near Clapham Road"},"longitude":"-0.120951"},"context":"","outcome_status":null,"persistent_id":"","id":74274375,"location_subtype":"","month":"2019-05"},{"category":"anti-social-behaviour","location_type":"Force","location":{"latitude":"51.487473","street":{"id":949728,"name":"On or near Aylesford Street"},"longitude":"-0.133524"},"context":"","outcome_status":null,"persistent_id":"","id":74280559,"location_subtype":"","month":"2019-05"},{"category":"anti-social-behaviour","location_type":"Force","location":{"latitude":"51.482089","street":{"id":949604,"name":"On or near Stanley Close"},"longitude":"-0.121286"},"context":"","outcome_status":null,"persistent_id":"","id":74274373,"location_subtype":"","month":"2019-05"},{"category":"anti-social-behaviour","location_type":"Force","location":{"latitude":"51.494293","street":{"id":953548,"name":"On or near Lambeth High Street"},"longitude":"-0.119661"},"context":"","outcome_status":null,"persistent_id":"","id":74274372,"location_subtype":"","month":"2019-05"},{"category":"anti-social-behaviour","location_type":"Force","location":{"latitude":"51.473217","street":{"id":945964,"name":"On or near Binfield Road"},"longitude":"-0.124315"},"context":"","outcome_status":null,"persistent_id":"","id":74275154,"location_subtype":"","month":"2019-05"},{"category":"anti-social-behaviour","location_type":"Force","location":{"latitude":"51.480082","street":{"id":949603,"name":"On or near Walton Close"},"longitude":"-0.125099"},"context":"","outcome_status":null,"persistent_id":"","id":74275167,"location_subtype":"","month":"2019-05"},{"category":"anti-social-behaviour","location_type":"Force","location":{"latitude":"51.491714","street":{"id":949459,"name":"On or near Parking Area"},"longitude":"-0.119220"},"context":"","outcome_status":null,"persistent_id":"","id":74274368,"location_subtype":"","month":"2019-05"},{"category":"anti-social-behaviour","location_type":"Force","location":{"latitude":"51.486456","street":{"id":949482,"name":"On or near Glyn Street"},"longitude":"-0.120516"},"context":"","outcome_status":null,"persistent_id":"","id":74274367,"location_subtype":"","month":"2019-05"},{"category":"anti-social-behaviour","location_type":"Force","location":{"latitude":"51.486456","street":{"id":949482,"name":"On or near Glyn Street"},"longitude":"-0.120516"},"context":"","outcome_status":null,"persistent_id":"","id":74274366,"location_subtype":"","month":"2019-05"},{"category":"anti-social-behaviour","location_type":"Force","location":{"latitude":"51.486456","street":{"id":949482,"name":"On or near Glyn Street"},"longitude":"-0.120516"},"context":"","outcome_status":null,"persistent_id":"","id":74274365,"location_subtype":"","month":"2019-05"},{"category":"anti-social-behaviour","location_type":"Force","location":{"latitude":"51.486456","street":{"id":949482,"name":"On or near Glyn Street"},"longitude":"-0.120516"},"context":"","outcome_status":null,"persistent_id":"","id":74274364,"location_subtype":"","month":"2019-05"},{"category":"anti-social-behaviour","location_type":"Force","location":{"latitude":"51.484452","street":{"id":949487,"name":"On or near Bonnington Square"},"longitude":"-0.120023"},"context":"","outcome_status":null,"persistent_id":"","id":74274359,"location_subtype":"","month":"2019-05"},{"category":"anti-social-behaviour","location_type":"Force","location":{"latitude":"51.479195","street":{"id":949434,"name":"On or near Bowyer Street"},"longitude":"-0.096318"},"context":"","outcome_status":null,"persistent_id":"","id":74272105,"location_subtype":"","month":"2019-05"},{"category":"anti-social-behaviour","location_type":"Force","location":{"latitude":"51.484452","street":{"id":949487,"name":"On or near Bonnington Square"},"longitude":"-0.120023"},"context":"","outcome_status":null,"persistent_id":"","id":74274358,"location_subtype":"","month":"2019-05"},{"category":"anti-social-behaviour","location_type":"Force","location":{"latitude":"51.484452","street":{"id":949487,"name":"On or near Bonnington Square"},"longitude":"-0.120023"},"context":"","outcome_status":null,"persistent_id":"","id":74274357,"location_subtype":"","month":"2019-05"},{"category":"anti-social-behaviour","location_type":"Force","location":{"latitude":"51.491714","street":{"id":949459,"name":"On or near Parking Area"},"longitude":"-0.119220"},"context":"","outcome_status":null,"persistent_id":"","id":74274353,"location_subtype":"","month":"2019-05"},{"category":"anti-social-behaviour","location_type":"Force","location":{"latitude":"51.491377","street":{"id":949475,"name":"On or near Lilac Place"},"longitude":"-0.118412"},"context":"","outcome_status":null,"persistent_id":"","id":74274338,"location_subtype":"","month":"2019-05"},{"category":"anti-social-behaviour","location_type":"Force","location":{"latitude":"51.491377","street":{"id":949475,"name":"On or near Lilac Place"},"longitude":"-0.118412"},"context":"","outcome_status":null,"persistent_id":"","id":74274336,"location_subtype":"","month":"2019-05"},{"category":"anti-social-behaviour","location_type":"Force","location":{"latitude":"51.470434","street":{"id":945925,"name":"On or near Stockwell Road"},"longitude":"-0.120671"},"context":"","outcome_status":null,"persistent_id":"","id":74274405,"location_subtype":"","month":"2019-05"},{"category":"anti-social-behaviour","location_type":"Force","location":{"latitude":"51.468380","street":{"id":945974,"name":"On or near Stockwell Green"},"longitude":"-0.119920"},"context":"","outcome_status":null,"persistent_id":"","id":74274335,"location_subtype":"","month":"2019-05"},{"category":"anti-social-behaviour","location_type":"Force","location":{"latitude":"51.490848","street":{"id":949345,"name":"On or near Ethel Street"},"longitude":"-0.096193"},"context":"","outcome_status":null,"persistent_id":"","id":74272128,"location_subtype":"","month":"2019-05"},{"category":"anti-social-behaviour","location_type":"Force","location":{"latitude":"51.489233","street":{"id":949305,"name":"On or near Police Station"},"longitude":"-0.097528"},"context":"","outcome_status":null,"persistent_id":"","id":74272132,"location_subtype":"","month":"2019-05"},{"category":"anti-social-behaviour","location_type":"Force","location":{"latitude":"51.473081","street":{"id":946089,"name":"On or near Warner Road"},"longitude":"-0.096386"},"context":"","outcome_status":null,"persistent_id":"","id":74272112,"location_subtype":"","month":"2019-05"},{"category":"anti-social-behaviour","location_type":"Force","location":{"latitude":"51.468380","street":{"id":945974,"name":"On or near Stockwell Green"},"longitude":"-0.119920"},"context":"","outcome_status":null,"persistent_id":"","id":74274334,"location_subtype":"","month":"2019-05"},{"category":"anti-social-behaviour","location_type":"Force","location":{"latitude":"51.484428","street":{"id":949488,"name":"On or near Bondway"},"longitude":"-0.124719"},"context":"","outcome_status":null,"persistent_id":"","id":74275178,"location_subtype":"","month":"2019-05"},{"category":"anti-social-behaviour","location_type":"Force","location":{"latitude":"51.481546","street":{"id":949601,"name":"On or near Wyvil Road"},"longitude":"-0.126133"},"context":"","outcome_status":null,"persistent_id":"","id":74275192,"location_subtype":"","month":"2019-05"},{"category":"anti-social-behaviour","location_type":"Force","location":{"latitude":"51.470892","street":{"id":945957,"name":"On or near Clarence Walk"},"longitude":"-0.126858"},"context":"","outcome_status":null,"persistent_id":"","id":74275201,"location_subtype":"","month":"2019-05"},{"category":"anti-social-behaviour","location_type":"Force","location":{"latitude":"51.484694","street":{"id":949693,"name":"On or near Nine Elms Lane"},"longitude":"-0.127272"},"context":"","outcome_status":null,"persistent_id":"","id":74275218,"location_subtype":"","month":"2019-05"},{"category":"anti-social-behaviour","location_type":"Force","location":{"latitude":"51.468380","street":{"id":945974,"name":"On or near Stockwell Green"},"longitude":"-0.119920"},"context":"","outcome_status":null,"persistent_id":"","id":74274333,"location_subtype":"","month":"2019-05"},{"category":"anti-social-behaviour","location_type":"Force","location":{"latitude":"51.473507","street":{"id":945722,"name":"On or near Larkhall Lane"},"longitude":"-0.127845"},"context":"","outcome_status":null,"persistent_id":"","id":74275249,"location_subtype":"","month":"2019-05"},{"category":"anti-social-behaviour","location_type":"Force","location":{"latitude":"51.483919","street":{"id":949484,"name":"On or near Ebbisham Drive"},"longitude":"-0.119310"},"context":"","outcome_status":null,"persistent_id":"","id":74274331,"location_subtype":"","month":"2019-05"},{"category":"anti-social-behaviour","location_type":"Force","location":{"latitude":"51.483919","street":{"id":949484,"name":"On or near Ebbisham Drive"},"longitude":"-0.119310"},"context":"","outcome_status":null,"persistent_id":"","id":74274328,"location_subtype":"","month":"2019-05"},{"category":"anti-social-behaviour","location_type":"Force","location":{"latitude":"51.478455","street":{"id":945915,"name":"On or near Walberswick Street"},"longitude":"-0.122905"},"context":"","outcome_status":null,"persistent_id":"","id":74275089,"location_subtype":"","month":"2019-05"},{"category":"anti-social-behaviour","location_type":"Force","location":{"latitude":"51.482207","street":{"id":949502,"name":"On or near Ashmole Street"},"longitude":"-0.116298"},"context":"","outcome_status":null,"persistent_id":"","id":74274326,"location_subtype":"","month":"2019-05"},{"category":"anti-social-behaviour","location_type":"Force","location":{"latitude":"51.481407","street":{"id":949611,"name":"On or near Meadow Mews"},"longitude":"-0.118607"},"context":"","outcome_status":null,"persistent_id":"","id":74274325,"location_subtype":"","month":"2019-05"},{"category":"anti-social-behaviour","location_type":"Force","location":{"latitude":"51.473863","street":{"id":945874,"name":"On or near Johnston Close"},"longitude":"-0.115836"},"context":"","outcome_status":null,"persistent_id":"","id":74274298,"location_subtype":"","month":"2019-05"},{"category":"anti-social-behaviour","location_type":"Force","location":{"latitude":"51.482198","street":{"id":949294,"name":"On or near Copley Close"},"longitude":"-0.100183"},"context":"","outcome_status":null,"persistent_id":"","id":74272158,"location_subtype":"","month":"2019-05"},{"category":"anti-social-behaviour","location_type":"Force","location":{"latitude":"51.470871","street":{"id":945924,"name":"On or near Stockwell Road"},"longitude":"-0.121042"},"context":"","outcome_status":null,"persistent_id":"","id":74274401,"location_subtype":"","month":"2019-05"},{"category":"anti-social-behaviour","location_type":"Force","location":{"latitude":"51.475611","street":{"id":945873,"name":"On or near Liberty Street"},"longitude":"-0.116613"},"context":"","outcome_status":null,"persistent_id":"","id":74274297,"location_subtype":"","month":"2019-05"},{"category":"anti-social-behaviour","location_type":"Force","location":{"latitude":"51.475611","street":{"id":945873,"name":"On or near Liberty Street"},"longitude":"-0.116613"},"context":"","outcome_status":null,"persistent_id":"","id":74274296,"location_subtype":"","month":"2019-05"},{"category":"anti-social-behaviour","location_type":"Force","location":{"latitude":"51.489256","street":{"id":949521,"name":"On or near Orsett Street"},"longitude":"-0.116267"},"context":"","outcome_status":null,"persistent_id":"","id":74274295,"location_subtype":"","month":"2019-05"},{"category":"anti-social-behaviour","location_type":"Force","location":{"latitude":"51.478522","street":{"id":945906,"name":"On or near Petrol Station"},"longitude":"-0.115341"},"context":"","outcome_status":null,"persistent_id":"","id":74273771,"location_subtype":"","month":"2019-05"},{"category":"anti-social-behaviour","location_type":"Force","location":{"latitude":"51.478522","street":{"id":945906,"name":"On or near Petrol Station"},"longitude":"-0.115341"},"context":"","outcome_status":null,"persistent_id":"","id":74273770,"location_subtype":"","month":"2019-05"},{"category":"anti-social-behaviour","location_type":"Force","location":{"latitude":"51.478555","street":{"id":949440,"name":"On or near Wyndham Road"},"longitude":"-0.097900"},"context":"","outcome_status":null,"persistent_id":"","id":74272120,"location_subtype":"","month":"2019-05"},{"category":"anti-social-behaviour","location_type":"Force","location":{"latitude":"51.489645","street":{"id":949710,"name":"On or near Drummond Gate"},"longitude":"-0.131563"},"context":"","outcome_status":null,"persistent_id":"","id":74283359,"location_subtype":"","month":"2019-05"},{"category":"anti-social-behaviour","location_type":"Force","location":{"latitude":"51.487484","street":{"id":949726,"name":"On or near Balvaird Place"},"longitude":"-0.131983"},"context":"","outcome_status":null,"persistent_id":"","id":74283399,"location_subtype":"","month":"2019-05"},{"category":"anti-social-behaviour","location_type":"Force","location":{"latitude":"51.488027","street":{"id":949724,"name":"On or near Bessborough Place"},"longitude":"-0.132162"},"context":"","outcome_status":null,"persistent_id":"","id":74283414,"location_subtype":"","month":"2019-05"},{"category":"anti-social-behaviour","location_type":"Force","location":{"latitude":"51.490190","street":{"id":949540,"name":"On or near Hotspur Street"},"longitude":"-0.112800"},"context":"","outcome_status":null,"persistent_id":"","id":74273649,"location_subtype":"","month":"2019-05"},{"category":"anti-social-behaviour","location_type":"Force","location":{"latitude":"51.480445","street":{"id":949578,"name":"On or near Offley Road"},"longitude":"-0.112468"},"context":"","outcome_status":null,"persistent_id":"","id":74273652,"location_subtype":"","month":"2019-05"},{"category":"anti-social-behaviour","location_type":"Force","location":{"latitude":"51.482422","street":{"id":949542,"name":"On or near Harleyford Street"},"longitude":"-0.112934"},"context":"","outcome_status":null,"persistent_id":"","id":74273687,"location_subtype":"","month":"2019-05"},{"category":"anti-social-behaviour","location_type":"Force","location":{"latitude":"51.486038","street":{"id":949523,"name":"On or near Montford Place"},"longitude":"-0.113562"},"context":"","outcome_status":null,"persistent_id":"","id":74273717,"location_subtype":"","month":"2019-05"},{"category":"anti-social-behaviour","location_type":"Force","location":{"latitude":"51.470806","street":{"id":945877,"name":"On or near Ingleborough Street"},"longitude":"-0.114723"},"context":"","outcome_status":null,"persistent_id":"","id":74273718,"location_subtype":"","month":"2019-05"},{"category":"anti-social-behaviour","location_type":"Force","location":{"latitude":"51.478288","street":{"id":945852,"name":"On or near South Island Place"},"longitude":"-0.114199"},"context":"","outcome_status":null,"persistent_id":"","id":74273719,"location_subtype":"","month":"2019-05"},{"category":"anti-social-behaviour","location_type":"Force","location":{"latitude":"51.468947","street":{"id":946001,"name":"On or near Parking Area"},"longitude":"-0.114915"},"context":"","outcome_status":null,"persistent_id":"","id":74273722,"location_subtype":"","month":"2019-05"},{"category":"anti-social-behaviour","location_type":"Force","location":{"latitude":"51.469403","street":{"id":945904,"name":"On or near Aytoun Place"},"longitude":"-0.115861"},"context":"","outcome_status":null,"persistent_id":"","id":74273745,"location_subtype":"","month":"2019-05"},{"category":"anti-social-behaviour","location_type":"Force","location":{"latitude":"51.478522","street":{"id":945906,"name":"On or near Petrol Station"},"longitude":"-0.115341"},"context":"","outcome_status":null,"persistent_id":"","id":74273760,"location_subtype":"","month":"2019-05"},{"category":"anti-social-behaviour","location_type":"Force","location":{"latitude":"51.473073","street":{"id":945883,"name":"On or near Groveway"},"longitude":"-0.114788"},"context":"","outcome_status":null,"persistent_id":"","id":74273761,"location_subtype":"","month":"2019-05"},{"category":"anti-social-behaviour","location_type":"Force","location":{"latitude":"51.467115","street":{"id":946017,"name":"On or near Rumsey Road"},"longitude":"-0.116186"},"context":"","outcome_status":null,"persistent_id":"","id":74273763,"location_subtype":"","month":"2019-05"},{"category":"anti-social-behaviour","location_type":"Force","location":{"latitude":"51.475097","street":{"id":945875,"name":"On or near Isabel Street"},"longitude":"-0.115972"},"context":"","outcome_status":null,"persistent_id":"","id":74273764,"location_subtype":"","month":"2019-05"},{"category":"anti-social-behaviour","location_type":"Force","location":{"latitude":"51.487667","street":{"id":949528,"name":"On or near Loughborough Street"},"longitude":"-0.115281"},"context":"","outcome_status":null,"persistent_id":"","id":74273766,"location_subtype":"","month":"2019-05"},{"category":"anti-social-behaviour","location_type":"Force","location":{"latitude":"51.489256","street":{"id":949521,"name":"On or near Orsett Street"},"longitude":"-0.116267"},"context":"","outcome_status":null,"persistent_id":"","id":74273767,"location_subtype":"","month":"2019-05"},{"category":"anti-social-behaviour","location_type":"Force","location":{"latitude":"51.489233","street":{"id":949305,"name":"On or near Police Station"},"longitude":"-0.097528"},"context":"","outcome_status":null,"persistent_id":"","id":74272123,"location_subtype":"","month":"2019-05"},{"category":"anti-social-behaviour","location_type":"Force","location":{"latitude":"51.471400","street":{"id":945929,"name":"On or near St Michael's Road"},"longitude":"-0.119782"},"context":"","outcome_status":null,"persistent_id":"","id":74274398,"location_subtype":"","month":"2019-05"},{"category":"anti-social-behaviour","location_type":"Force","location":{"latitude":"51.490193","street":{"id":949264,"name":"On or near Peacock Yard"},"longitude":"-0.100182"},"context":"","outcome_status":null,"persistent_id":"","id":74272170,"location_subtype":"","month":"2019-05"},{"category":"anti-social-behaviour","location_type":"Force","location":{"latitude":"51.480445","street":{"id":949578,"name":"On or near Offley Road"},"longitude":"-0.112468"},"context":"","outcome_status":null,"persistent_id":"","id":74273621,"location_subtype":"","month":"2019-05"},{"category":"anti-social-behaviour","location_type":"Force","location":{"latitude":"51.489390","street":{"id":949688,"name":"On or near Ponsonby Terrace"},"longitude":"-0.129672"},"context":"","outcome_status":null,"persistent_id":"","id":74282332,"location_subtype":"","month":"2019-05"},{"category":"anti-social-behaviour","location_type":"Force","location":{"latitude":"51.489390","street":{"id":949688,"name":"On or near Ponsonby Terrace"},"longitude":"-0.129672"},"context":"","outcome_status":null,"persistent_id":"","id":74282333,"location_subtype":"","month":"2019-05"},{"category":"anti-social-behaviour","location_type":"Force","location":{"latitude":"51.489233","street":{"id":949305,"name":"On or near Police Station"},"longitude":"-0.097528"},"context":"","outcome_status":null,"persistent_id":"","id":74272124,"location_subtype":"","month":"2019-05"},{"category":"anti-social-behaviour","location_type":"Force","location":{"latitude":"51.482422","street":{"id":949542,"name":"On or near Harleyford Street"},"longitude":"-0.112934"},"context":"","outcome_status":null,"persistent_id":"","id":74273657,"location_subtype":"","month":"2019-05"},{"category":"anti-social-behaviour","location_type":"Force","location":{"latitude":"51.485575","street":{"id":949485,"name":"On or near Durham Street"},"longitude":"-0.118839"},"context":"","outcome_status":null,"persistent_id":"","id":74274343,"location_subtype":"","month":"2019-05"},{"category":"anti-social-behaviour","location_type":"Force","location":{"latitude":"51.488642","street":{"id":949483,"name":"On or near Glasshouse Walk"},"longitude":"-0.121161"},"context":"","outcome_status":null,"persistent_id":"","id":74274406,"location_subtype":"","month":"2019-05"},{"category":"anti-social-behaviour","location_type":"Force","location":{"latitude":"51.479363","street":{"id":949617,"name":"On or near Dorset Road"},"longitude":"-0.120074"},"context":"","outcome_status":null,"persistent_id":"","id":74274374,"location_subtype":"","month":"2019-05"},{"category":"anti-social-behaviour","location_type":"Force","location":{"latitude":"51.490272","street":{"id":949321,"name":"On or near Walcorde Avenue"},"longitude":"-0.095093"},"context":"","outcome_status":null,"persistent_id":"","id":74272092,"location_subtype":"","month":"2019-05"},{"category":"anti-social-behaviour","location_type":"Force","location":{"latitude":"51.471407","street":{"id":945876,"name":"On or near Ingleton Street"},"longitude":"-0.112985"},"context":"","outcome_status":null,"persistent_id":"","id":74273623,"location_subtype":"","month":"2019-05"},{"category":"anti-social-behaviour","location_type":"Force","location":{"latitude":"51.492512","street":{"id":953580,"name":"On or near Fitzalan Street"},"longitude":"-0.111797"},"context":"","outcome_status":null,"persistent_id":"","id":74273618,"location_subtype":"","month":"2019-05"},{"category":"anti-social-behaviour","location_type":"Force","location":{"latitude":"51.475869","street":{"id":945902,"name":"On or near Brixton Road"},"longitude":"-0.112542"},"context":"","outcome_status":null,"persistent_id":"","id":74273629,"location_subtype":"","month":"2019-05"},{"category":"anti-social-behaviour","location_type":"Force","location":{"latitude":"51.485777","street":{"id":949530,"name":"On or near Kennington Road"},"longitude":"-0.111859"},"context":"","outcome_status":null,"persistent_id":"","id":74273617,"location_subtype":"","month":"2019-05"},{"category":"anti-social-behaviour","location_type":"Force","location":{"latitude":"51.482422","street":{"id":949542,"name":"On or near Harleyford Street"},"longitude":"-0.112934"},"context":"","outcome_status":null,"persistent_id":"","id":74273651,"location_subtype":"","month":"2019-05"},{"category":"anti-social-behaviour","location_type":"Force","location":{"latitude":"51.481621","street":{"id":949739,"name":"On or near Post Office Way"},"longitude":"-0.133663"},"context":"","outcome_status":null,"persistent_id":"","id":74269847,"location_subtype":"","month":"2019-05"},{"category":"anti-social-behaviour","location_type":"Force","location":{"latitude":"51.469303","street":{"id":945940,"name":"On or near Lingham Street"},"longitude":"-0.122517"},"context":"","outcome_status":null,"persistent_id":"","id":74275105,"location_subtype":"","month":"2019-05"},{"category":"anti-social-behaviour","location_type":"Force","location":{"latitude":"51.488027","street":{"id":949724,"name":"On or near Bessborough Place"},"longitude":"-0.132162"},"context":"","outcome_status":null,"persistent_id":"","id":74283413,"location_subtype":"","month":"2019-05"},{"category":"anti-social-behaviour","location_type":"Force","location":{"latitude":"51.490272","street":{"id":949321,"name":"On or near Walcorde Avenue"},"longitude":"-0.095093"},"context":"","outcome_status":null,"persistent_id":"","id":74272091,"location_subtype":"","month":"2019-05"},{"category":"anti-social-behaviour","location_type":"Force","location":{"latitude":"51.490272","street":{"id":949321,"name":"On or near Walcorde Avenue"},"longitude":"-0.095093"},"context":"","outcome_status":null,"persistent_id":"","id":74272090,"location_subtype":"","month":"2019-05"},{"category":"anti-social-behaviour","location_type":"Force","location":{"latitude":"51.492083","street":{"id":953769,"name":"On or near Howell Walk"},"longitude":"-0.100866"},"context":"","outcome_status":null,"persistent_id":"","id":74272639,"location_subtype":"","month":"2019-05"},{"category":"anti-social-behaviour","location_type":"Force","location":{"latitude":"51.491377","street":{"id":949475,"name":"On or near Lilac Place"},"longitude":"-0.118412"},"context":"","outcome_status":null,"persistent_id":"","id":74274337,"location_subtype":"","month":"2019-05"},{"category":"anti-social-behaviour","location_type":"Force","location":{"latitude":"51.485625","street":{"id":949285,"name":"On or near Frederick Road"},"longitude":"-0.101869"},"context":"","outcome_status":null,"persistent_id":"","id":74272640,"location_subtype":"","month":"2019-05"},{"category":"anti-social-behaviour","location_type":"Force","location":{"latitude":"51.493160","street":{"id":953762,"name":"On or near Pedestrian Subway"},"longitude":"-0.100706"},"context":"","outcome_status":null,"persistent_id":"","id":74272643,"location_subtype":"","month":"2019-05"},{"category":"anti-social-behaviour","location_type":"Force","location":{"latitude":"51.493160","street":{"id":953762,"name":"On or near Pedestrian Subway"},"longitude":"-0.100706"},"context":"","outcome_status":null,"persistent_id":"","id":74272644,"location_subtype":"","month":"2019-05"},{"category":"anti-social-behaviour","location_type":"Force","location":{"latitude":"51.485486","street":{"id":949469,"name":"On or near South Lambeth Place"},"longitude":"-0.123379"},"context":"","outcome_status":null,"persistent_id":"","id":74275111,"location_subtype":"","month":"2019-05"},{"category":"anti-social-behaviour","location_type":"Force","location":{"latitude":"51.491523","street":{"id":949279,"name":"On or near Kennington Lane"},"longitude":"-0.102935"},"context":"","outcome_status":null,"persistent_id":"","id":74272645,"location_subtype":"","month":"2019-05"},{"category":"anti-social-behaviour","location_type":"Force","location":{"latitude":"51.492278","street":{"id":953766,"name":"On or near Newington Butts"},"longitude":"-0.101766"},"context":"","outcome_status":null,"persistent_id":"","id":74272648,"location_subtype":"","month":"2019-05"},{"category":"anti-social-behaviour","location_type":"Force","location":{"latitude":"51.490272","street":{"id":949321,"name":"On or near Walcorde Avenue"},"longitude":"-0.095093"},"context":"","outcome_status":null,"persistent_id":"","id":74272089,"location_subtype":"","month":"2019-05"},{"category":"anti-social-behaviour","location_type":"Force","location":{"latitude":"51.492278","street":{"id":953766,"name":"On or near Newington Butts"},"longitude":"-0.101766"},"context":"","outcome_status":null,"persistent_id":"","id":74272650,"location_subtype":"","month":"2019-05"},{"category":"anti-social-behaviour","location_type":"Force","location":{"latitude":"51.483196","street":{"id":949295,"name":"On or near Cook's Road"},"longitude":"-0.102921"},"context":"","outcome_status":null,"persistent_id":"","id":74272657,"location_subtype":"","month":"2019-05"},{"category":"anti-social-behaviour","location_type":"Force","location":{"latitude":"51.489723","street":{"id":949281,"name":"On or near Iliffe Street"},"longitude":"-0.100576"},"context":"","outcome_status":null,"persistent_id":"","id":74272178,"location_subtype":"","month":"2019-05"},{"category":"anti-social-behaviour","location_type":"Force","location":{"latitude":"51.488035","street":{"id":949302,"name":"On or near Ambergate Street"},"longitude":"-0.102979"},"context":"","outcome_status":null,"persistent_id":"","id":74272665,"location_subtype":"","month":"2019-05"},{"category":"anti-social-behaviour","location_type":"Force","location":{"latitude":"51.484017","street":{"id":949348,"name":"On or near Dartford Street"},"longitude":"-0.095311"},"context":"","outcome_status":null,"persistent_id":"","id":74272088,"location_subtype":"","month":"2019-05"},{"category":"anti-social-behaviour","location_type":"Force","location":{"latitude":"51.490842","street":{"id":949562,"name":"On or near Petrol Station"},"longitude":"-0.111448"},"context":"","outcome_status":null,"persistent_id":"","id":74273335,"location_subtype":"","month":"2019-05"},{"category":"anti-social-behaviour","location_type":"Force","location":{"latitude":"51.486062","street":{"id":949291,"name":"On or near Doddington Grove"},"longitude":"-0.103868"},"context":"","outcome_status":null,"persistent_id":"","id":74272666,"location_subtype":"","month":"2019-05"},{"category":"anti-social-behaviour","location_type":"Force","location":{"latitude":"51.488911","street":{"id":949492,"name":"On or near Petrol Station"},"longitude":"-0.122792"},"context":"","outcome_status":null,"persistent_id":"","id":74275117,"location_subtype":"","month":"2019-05"},{"category":"anti-social-behaviour","location_type":"Force","location":{"latitude":"51.471036","street":{"id":945941,"name":"On or near Levehurst Way"},"longitude":"-0.125715"},"context":"","outcome_status":null,"persistent_id":"","id":74275123,"location_subtype":"","month":"2019-05"},{"category":"anti-social-behaviour","location_type":"Force","location":{"latitude":"51.490848","street":{"id":949345,"name":"On or near Ethel Street"},"longitude":"-0.096193"},"context":"","outcome_status":null,"persistent_id":"","id":74272129,"location_subtype":"","month":"2019-05"},{"category":"anti-social-behaviour","location_type":"Force","location":{"latitude":"51.483535","street":{"id":949260,"name":"On or near Royal Road"},"longitude":"-0.104995"},"context":"","outcome_status":null,"persistent_id":"","id":74272671,"location_subtype":"","month":"2019-05"},{"category":"anti-social-behaviour","location_type":"Force","location":{"latitude":"51.490193","street":{"id":949264,"name":"On or near Peacock Yard"},"longitude":"-0.100182"},"context":"","outcome_status":null,"persistent_id":"","id":74272167,"location_subtype":"","month":"2019-05"},{"category":"anti-social-behaviour","location_type":"Force","location":{"latitude":"51.474743","street":{"id":946092,"name":"On or near Station Terrace"},"longitude":"-0.096244"},"context":"","outcome_status":null,"persistent_id":"","id":74272102,"location_subtype":"","month":"2019-05"},{"category":"anti-social-behaviour","location_type":"Force","location":{"latitude":"51.480321","street":{"id":949454,"name":"On or near Bethwin Road"},"longitude":"-0.098100"},"context":"","outcome_status":null,"persistent_id":"","id":74272106,"location_subtype":"","month":"2019-05"},{"category":"anti-social-behaviour","location_type":"Force","location":{"latitude":"51.488264","street":{"id":949273,"name":"On or near Manor Place"},"longitude":"-0.099325"},"context":"","outcome_status":null,"persistent_id":"","id":74272165,"location_subtype":"","month":"2019-05"},{"category":"anti-social-behaviour","location_type":"Force","location":{"latitude":"51.490848","street":{"id":949345,"name":"On or near Ethel Street"},"longitude":"-0.096193"},"context":"","outcome_status":null,"persistent_id":"","id":74272130,"location_subtype":"","month":"2019-05"},{"category":"anti-social-behaviour","location_type":"Force","location":{"latitude":"51.487341","street":{"id":949299,"name":"On or near Borrett Close"},"longitude":"-0.099004"},"context":"","outcome_status":null,"persistent_id":"","id":74272156,"location_subtype":"","month":"2019-05"},{"category":"anti-social-behaviour","location_type":"Force","location":{"latitude":"51.489570","street":{"id":949301,"name":"On or near Amelia Street"},"longitude":"-0.098925"},"context":"","outcome_status":null,"persistent_id":"","id":74272166,"location_subtype":"","month":"2019-05"},{"category":"anti-social-behaviour","location_type":"Force","location":{"latitude":"51.489233","street":{"id":949305,"name":"On or near Police Station"},"longitude":"-0.097528"},"context":"","outcome_status":null,"persistent_id":"","id":74272131,"location_subtype":"","month":"2019-05"},{"category":"anti-social-behaviour","location_type":"Force","location":{"latitude":"51.483535","street":{"id":949260,"name":"On or near Royal Road"},"longitude":"-0.104995"},"context":"","outcome_status":null,"persistent_id":"","id":74272672,"location_subtype":"","month":"2019-05"},{"category":"anti-social-behaviour","location_type":"Force","location":{"latitude":"51.483073","street":{"id":949692,"name":"On or near Nine Elms Lane"},"longitude":"-0.133373"},"context":"","outcome_status":null,"persistent_id":"","id":74269848,"location_subtype":"","month":"2019-05"},{"category":"anti-social-behaviour","location_type":"Force","location":{"latitude":"51.473119","street":{"id":945865,"name":"On or near Melbourne Square"},"longitude":"-0.112598"},"context":"","outcome_status":null,"persistent_id":"","id":74273634,"location_subtype":"","month":"2019-05"},{"category":"anti-social-behaviour","location_type":"Force","location":{"latitude":"51.475304","street":{"id":945884,"name":"On or near Gosling Way"},"longitude":"-0.111514"},"context":"","outcome_status":null,"persistent_id":"","id":74273633,"location_subtype":"","month":"2019-05"},{"category":"anti-social-behaviour","location_type":"Force","location":{"latitude":"51.485000","street":{"id":949290,"name":"On or near Doddington Place"},"longitude":"-0.105510"},"context":"","outcome_status":null,"persistent_id":"","id":74272676,"location_subtype":"","month":"2019-05"},{"category":"anti-social-behaviour","location_type":"Force","location":{"latitude":"51.479147","street":{"id":949436,"name":"On or near Bowyer Place"},"longitude":"-0.093339"},"context":"","outcome_status":null,"persistent_id":"","id":74272062,"location_subtype":"","month":"2019-05"},{"category":"anti-social-behaviour","location_type":"Force","location":{"latitude":"51.475304","street":{"id":945884,"name":"On or near Gosling Way"},"longitude":"-0.111514"},"context":"","outcome_status":null,"persistent_id":"","id":74273632,"location_subtype":"","month":"2019-05"},{"category":"anti-social-behaviour","location_type":"Force","location":{"latitude":"51.479260","street":{"id":949453,"name":"On or near Camberwell New Road"},"longitude":"-0.105849"},"context":"","outcome_status":null,"persistent_id":"","id":74272677,"location_subtype":"","month":"2019-05"},{"category":"anti-social-behaviour","location_type":"Force","location":{"latitude":"51.489233","street":{"id":949305,"name":"On or near Police Station"},"longitude":"-0.097528"},"context":"","outcome_status":null,"persistent_id":"","id":74272133,"location_subtype":"","month":"2019-05"},{"category":"anti-social-behaviour","location_type":"Force","location":{"latitude":"51.489233","street":{"id":949305,"name":"On or near Police Station"},"longitude":"-0.097528"},"context":"","outcome_status":null,"persistent_id":"","id":74272134,"location_subtype":"","month":"2019-05"},{"category":"anti-social-behaviour","location_type":"Force","location":{"latitude":"51.479147","street":{"id":949436,"name":"On or near Bowyer Place"},"longitude":"-0.093339"},"context":"","outcome_status":null,"persistent_id":"","id":74272061,"location_subtype":"","month":"2019-05"},{"category":"anti-social-behaviour","location_type":"Force","location":{"latitude":"51.475304","street":{"id":945884,"name":"On or near Gosling Way"},"longitude":"-0.111514"},"context":"","outcome_status":null,"persistent_id":"","id":74273631,"location_subtype":"","month":"2019-05"},{"category":"anti-social-behaviour","location_type":"Force","location":{"latitude":"51.475403","street":{"id":946160,"name":"On or near County Grove"},"longitude":"-0.098722"},"context":"","outcome_status":null,"persistent_id":"","id":74272153,"location_subtype":"","month":"2019-05"},{"category":"anti-social-behaviour","location_type":"Force","location":{"latitude":"51.475869","street":{"id":945902,"name":"On or near Brixton Road"},"longitude":"-0.112542"},"context":"","outcome_status":null,"persistent_id":"","id":74273630,"location_subtype":"","month":"2019-05"},{"category":"anti-social-behaviour","location_type":"Force","location":{"latitude":"51.475403","street":{"id":946160,"name":"On or near County Grove"},"longitude":"-0.098722"},"context":"","outcome_status":null,"persistent_id":"","id":74272154,"location_subtype":"","month":"2019-05"},{"category":"anti-social-behaviour","location_type":"Force","location":{"latitude":"51.471407","street":{"id":945876,"name":"On or near Ingleton Street"},"longitude":"-0.112985"},"context":"","outcome_status":null,"persistent_id":"","id":74273624,"location_subtype":"","month":"2019-05"},{"category":"anti-social-behaviour","location_type":"Force","location":{"latitude":"51.484262","street":{"id":949289,"name":"On or near Draco Street"},"longitude":"-0.098786"},"context":"","outcome_status":null,"persistent_id":"","id":74272159,"location_subtype":"","month":"2019-05"},{"category":"anti-social-behaviour","location_type":"Force","location":{"latitude":"51.488636","street":{"id":949531,"name":"On or near Kennington Park Road"},"longitude":"-0.105662"},"context":"","outcome_status":null,"persistent_id":"","id":74272678,"location_subtype":"","month":"2019-05"},{"category":"anti-social-behaviour","location_type":"Force","location":{"latitude":"51.484262","street":{"id":949289,"name":"On or near Draco Street"},"longitude":"-0.098786"},"context":"","outcome_status":null,"persistent_id":"","id":74272160,"location_subtype":"","month":"2019-05"},{"category":"anti-social-behaviour","location_type":"Force","location":{"latitude":"51.486348","street":{"id":949337,"name":"On or near Liverpool Grove"},"longitude":"-0.092131"},"context":"","outcome_status":null,"persistent_id":"","id":74271500,"location_subtype":"","month":"2019-05"},{"category":"anti-social-behaviour","location_type":"Force","location":{"latitude":"51.495451","street":{"id":953446,"name":"On or near Kennington Road"},"longitude":"-0.111186"},"context":"","outcome_status":null,"persistent_id":"","id":74273622,"location_subtype":"","month":"2019-05"},{"category":"anti-social-behaviour","location_type":"Force","location":{"latitude":"51.478098","street":{"id":946113,"name":"On or near Broome Way"},"longitude":"-0.092461"},"context":"","outcome_status":null,"persistent_id":"","id":74272059,"location_subtype":"","month":"2019-05"},{"category":"anti-social-behaviour","location_type":"Force","location":{"latitude":"51.477919","street":{"id":946098,"name":"On or near Lomond Grove"},"longitude":"-0.091921"},"context":"","outcome_status":null,"persistent_id":"","id":74271506,"location_subtype":"","month":"2019-05"},{"category":"anti-social-behaviour","location_type":"Force","location":{"latitude":"51.477919","street":{"id":946098,"name":"On or near Lomond Grove"},"longitude":"-0.091921"},"context":"","outcome_status":null,"persistent_id":"","id":74271507,"location_subtype":"","month":"2019-05"},{"category":"anti-social-behaviour","location_type":"Force","location":{"latitude":"51.477919","street":{"id":946098,"name":"On or near Lomond Grove"},"longitude":"-0.091921"},"context":"","outcome_status":null,"persistent_id":"","id":74271508,"location_subtype":"","month":"2019-05"},{"category":"anti-social-behaviour","location_type":"Force","location":{"latitude":"51.471997","street":{"id":945726,"name":"On or near Jeffrey's Road"},"longitude":"-0.129001"},"context":"","outcome_status":null,"persistent_id":"","id":74275252,"location_subtype":"","month":"2019-05"},{"category":"anti-social-behaviour","location_type":"Force","location":{"latitude":"51.490130","street":{"id":949265,"name":"On or near Peacock Street"},"longitude":"-0.100717"},"context":"","outcome_status":null,"persistent_id":"","id":74272183,"location_subtype":"","month":"2019-05"},{"category":"anti-social-behaviour","location_type":"Force","location":{"latitude":"51.471997","street":{"id":945726,"name":"On or near Jeffrey's Road"},"longitude":"-0.129001"},"context":"","outcome_status":null,"persistent_id":"","id":74275251,"location_subtype":"","month":"2019-05"},{"category":"anti-social-behaviour","location_type":"Force","location":{"latitude":"51.484694","street":{"id":949693,"name":"On or near Nine Elms Lane"},"longitude":"-0.127272"},"context":"","outcome_status":null,"persistent_id":"","id":74275224,"location_subtype":"","month":"2019-05"},{"category":"anti-social-behaviour","location_type":"Force","location":{"latitude":"51.487152","street":{"id":949284,"name":"On or near Gaza Street"},"longitude":"-0.104528"},"context":"","outcome_status":null,"persistent_id":"","id":74272685,"location_subtype":"","month":"2019-05"},{"category":"anti-social-behaviour","location_type":"Force","location":{"latitude":"51.487152","street":{"id":949284,"name":"On or near Gaza Street"},"longitude":"-0.104528"},"context":"","outcome_status":null,"persistent_id":"","id":74272686,"location_subtype":"","month":"2019-05"},{"category":"anti-social-behaviour","location_type":"Force","location":{"latitude":"51.484694","street":{"id":949693,"name":"On or near Nine Elms Lane"},"longitude":"-0.127272"},"context":"","outcome_status":null,"persistent_id":"","id":74275223,"location_subtype":"","month":"2019-05"},{"category":"anti-social-behaviour","location_type":"Force","location":{"latitude":"51.487152","street":{"id":949284,"name":"On or near Gaza Street"},"longitude":"-0.104528"},"context":"","outcome_status":null,"persistent_id":"","id":74272687,"location_subtype":"","month":"2019-05"},{"category":"anti-social-behaviour","location_type":"Force","location":{"latitude":"51.484694","street":{"id":949693,"name":"On or near Nine Elms Lane"},"longitude":"-0.127272"},"context":"","outcome_status":null,"persistent_id":"","id":74275222,"location_subtype":"","month":"2019-05"},{"category":"anti-social-behaviour","location_type":"Force","location":{"latitude":"51.484694","street":{"id":949693,"name":"On or near Nine Elms Lane"},"longitude":"-0.127272"},"context":"","outcome_status":null,"persistent_id":"","id":74275221,"location_subtype":"","month":"2019-05"},{"category":"anti-social-behaviour","location_type":"Force","location":{"latitude":"51.482943","street":{"id":949278,"name":"On or near Kennington Park Gardens"},"longitude":"-0.105639"},"context":"","outcome_status":null,"persistent_id":"","id":74272688,"location_subtype":"","month":"2019-05"},{"category":"anti-social-behaviour","location_type":"Force","location":{"latitude":"51.484694","street":{"id":949693,"name":"On or near Nine Elms Lane"},"longitude":"-0.127272"},"context":"","outcome_status":null,"persistent_id":"","id":74275220,"location_subtype":"","month":"2019-05"},{"category":"anti-social-behaviour","location_type":"Force","location":{"latitude":"51.484282","street":{"id":949512,"name":"On or near St Agnes Place"},"longitude":"-0.106707"},"context":"","outcome_status":null,"persistent_id":"","id":74272690,"location_subtype":"","month":"2019-05"},{"category":"anti-social-behaviour","location_type":"Force","location":{"latitude":"51.494202","street":{"id":953559,"name":"On or near Walcot Square"},"longitude":"-0.108961"},"context":"","outcome_status":null,"persistent_id":"","id":74272704,"location_subtype":"","month":"2019-05"},{"category":"anti-social-behaviour","location_type":"Force","location":{"latitude":"51.483324","street":{"id":949535,"name":"On or near Kennington Park Gardens"},"longitude":"-0.106387"},"context":"","outcome_status":null,"persistent_id":"","id":74272699,"location_subtype":"","month":"2019-05"},{"category":"anti-social-behaviour","location_type":"Force","location":{"latitude":"51.480426","street":{"id":949597,"name":"On or near Bolton Crescent"},"longitude":"-0.107918"},"context":"","outcome_status":null,"persistent_id":"","id":74272700,"location_subtype":"","month":"2019-05"},{"category":"anti-social-behaviour","location_type":"Force","location":{"latitude":"51.495030","street":{"id":953455,"name":"On or near Brook Drive"},"longitude":"-0.109604"},"context":"","outcome_status":null,"persistent_id":"","id":74272710,"location_subtype":"","month":"2019-05"},{"category":"anti-social-behaviour","location_type":"Force","location":{"latitude":"51.478098","street":{"id":946113,"name":"On or near Broome Way"},"longitude":"-0.092461"},"context":"","outcome_status":null,"persistent_id":"","id":74272058,"location_subtype":"","month":"2019-05"},{"category":"anti-social-behaviour","location_type":"Force","location":{"latitude":"51.484694","street":{"id":949693,"name":"On or near Nine Elms Lane"},"longitude":"-0.127272"},"context":"","outcome_status":null,"persistent_id":"","id":74275219,"location_subtype":"","month":"2019-05"},{"category":"anti-social-behaviour","location_type":"Force","location":{"latitude":"51.482063","street":{"id":949620,"name":"On or near Nightclub"},"longitude":"-0.126415"},"context":"","outcome_status":null,"persistent_id":"","id":74275217,"location_subtype":"","month":"2019-05"},{"category":"anti-social-behaviour","location_type":"Force","location":{"latitude":"51.471744","street":{"id":945938,"name":"On or near Paradise Road"},"longitude":"-0.126146"},"context":"","outcome_status":null,"persistent_id":"","id":74275208,"location_subtype":"","month":"2019-05"},{"category":"anti-social-behaviour","location_type":"Force","location":{"latitude":"51.471744","street":{"id":945938,"name":"On or near Paradise Road"},"longitude":"-0.126146"},"context":"","outcome_status":null,"persistent_id":"","id":74275207,"location_subtype":"","month":"2019-05"},{"category":"anti-social-behaviour","location_type":"Force","location":{"latitude":"51.471162","street":{"id":946158,"name":"On or near Denmark Road"},"longitude":"-0.097833"},"context":"","outcome_status":null,"persistent_id":"","id":74272755,"location_subtype":"","month":"2019-05"},{"category":"anti-social-behaviour","location_type":"Force","location":{"latitude":"51.481546","street":{"id":949601,"name":"On or near Wyvil Road"},"longitude":"-0.126133"},"context":"","outcome_status":null,"persistent_id":"","id":74275205,"location_subtype":"","month":"2019-05"},{"category":"anti-social-behaviour","location_type":"Force","location":{"latitude":"51.481546","street":{"id":949601,"name":"On or near Wyvil Road"},"longitude":"-0.126133"},"context":"","outcome_status":null,"persistent_id":"","id":74275204,"location_subtype":"","month":"2019-05"},{"category":"anti-social-behaviour","location_type":"Force","location":{"latitude":"51.481546","street":{"id":949601,"name":"On or near Wyvil Road"},"longitude":"-0.126133"},"context":"","outcome_status":null,"persistent_id":"","id":74275203,"location_subtype":"","month":"2019-05"},{"category":"anti-social-behaviour","location_type":"Force","location":{"latitude":"51.481546","street":{"id":949601,"name":"On or near Wyvil Road"},"longitude":"-0.126133"},"context":"","outcome_status":null,"persistent_id":"","id":74275202,"location_subtype":"","month":"2019-05"},{"category":"anti-social-behaviour","location_type":"Force","location":{"latitude":"51.471162","street":{"id":946158,"name":"On or near Denmark Road"},"longitude":"-0.097833"},"context":"","outcome_status":null,"persistent_id":"","id":74272757,"location_subtype":"","month":"2019-05"},{"category":"anti-social-behaviour","location_type":"Force","location":{"latitude":"51.472459","street":{"id":945922,"name":"On or near Studley Road"},"longitude":"-0.125829"},"context":"","outcome_status":null,"persistent_id":"","id":74275196,"location_subtype":"","month":"2019-05"},{"category":"anti-social-behaviour","location_type":"Force","location":{"latitude":"51.470892","street":{"id":945957,"name":"On or near Clarence Walk"},"longitude":"-0.126858"},"context":"","outcome_status":null,"persistent_id":"","id":74275195,"location_subtype":"","month":"2019-05"},{"category":"anti-social-behaviour","location_type":"Force","location":{"latitude":"51.472459","street":{"id":945922,"name":"On or near Studley Road"},"longitude":"-0.125829"},"context":"","outcome_status":null,"persistent_id":"","id":74275181,"location_subtype":"","month":"2019-05"},{"category":"anti-social-behaviour","location_type":"Force","location":{"latitude":"51.484428","street":{"id":949488,"name":"On or near Bondway"},"longitude":"-0.124719"},"context":"","outcome_status":null,"persistent_id":"","id":74275177,"location_subtype":"","month":"2019-05"},{"category":"anti-social-behaviour","location_type":"Force","location":{"latitude":"51.484428","street":{"id":949488,"name":"On or near Bondway"},"longitude":"-0.124719"},"context":"","outcome_status":null,"persistent_id":"","id":74275176,"location_subtype":"","month":"2019-05"},{"category":"anti-social-behaviour","location_type":"Force","location":{"latitude":"51.469724","street":{"id":946135,"name":"On or near Redan Terrace"},"longitude":"-0.101176"},"context":"","outcome_status":null,"persistent_id":"","id":74272771,"location_subtype":"","month":"2019-05"},{"category":"anti-social-behaviour","location_type":"Force","location":{"latitude":"51.478098","street":{"id":946113,"name":"On or near Broome Way"},"longitude":"-0.092461"},"context":"","outcome_status":null,"persistent_id":"","id":74272057,"location_subtype":"","month":"2019-05"},{"category":"anti-social-behaviour","location_type":"Force","location":{"latitude":"51.482422","street":{"id":949542,"name":"On or near Harleyford Street"},"longitude":"-0.112934"},"context":"","outcome_status":null,"persistent_id":"","id":74273620,"location_subtype":"","month":"2019-05"},{"category":"anti-social-behaviour","location_type":"Force","location":{"latitude":"51.484428","street":{"id":949488,"name":"On or near Bondway"},"longitude":"-0.124719"},"context":"","outcome_status":null,"persistent_id":"","id":74275175,"location_subtype":"","month":"2019-05"},{"category":"anti-social-behaviour","location_type":"Force","location":{"latitude":"51.469724","street":{"id":946135,"name":"On or near Redan Terrace"},"longitude":"-0.101176"},"context":"","outcome_status":null,"persistent_id":"","id":74272772,"location_subtype":"","month":"2019-05"},{"category":"anti-social-behaviour","location_type":"Force","location":{"latitude":"51.475405","street":{"id":946153,"name":"On or near Flodden Road"},"longitude":"-0.100508"},"context":"","outcome_status":null,"persistent_id":"","id":74272773,"location_subtype":"","month":"2019-05"},{"category":"anti-social-behaviour","location_type":"Force","location":{"latitude":"51.476290","street":{"id":946130,"name":"On or near Tindal Street"},"longitude":"-0.104057"},"context":"","outcome_status":null,"persistent_id":"","id":74273226,"location_subtype":"","month":"2019-05"},{"category":"anti-social-behaviour","location_type":"Force","location":{"latitude":"51.484428","street":{"id":949488,"name":"On or near Bondway"},"longitude":"-0.124719"},"context":"","outcome_status":null,"persistent_id":"","id":74275174,"location_subtype":"","month":"2019-05"},{"category":"anti-social-behaviour","location_type":"Force","location":{"latitude":"51.490107","street":{"id":949268,"name":"On or near Opal Street"},"longitude":"-0.105414"},"context":"","outcome_status":null,"persistent_id":"","id":74273236,"location_subtype":"","month":"2019-05"},{"category":"anti-social-behaviour","location_type":"Force","location":{"latitude":"51.484452","street":{"id":949487,"name":"On or near Bonnington Square"},"longitude":"-0.120023"},"context":"","outcome_status":null,"persistent_id":"","id":74274360,"location_subtype":"","month":"2019-05"},{"category":"anti-social-behaviour","location_type":"Force","location":{"latitude":"51.482541","street":{"id":949365,"name":"On or near Albany Mews"},"longitude":"-0.093572"},"context":"","outcome_status":null,"persistent_id":"","id":74272051,"location_subtype":"","month":"2019-05"},{"category":"anti-social-behaviour","location_type":"Force","location":{"latitude":"51.484428","street":{"id":949488,"name":"On or near Bondway"},"longitude":"-0.124719"},"context":"","outcome_status":null,"persistent_id":"","id":74275173,"location_subtype":"","month":"2019-05"},{"category":"anti-social-behaviour","location_type":"Force","location":{"latitude":"51.480082","street":{"id":949603,"name":"On or near Walton Close"},"longitude":"-0.125099"},"context":"","outcome_status":null,"persistent_id":"","id":74275166,"location_subtype":"","month":"2019-05"},{"category":"anti-social-behaviour","location_type":"Force","location":{"latitude":"51.473783","street":{"id":946125,"name":"On or near Cormont Road"},"longitude":"-0.105313"},"context":"","outcome_status":null,"persistent_id":"","id":74273237,"location_subtype":"","month":"2019-05"},{"category":"anti-social-behaviour","location_type":"Force","location":{"latitude":"51.492472","street":{"id":953783,"name":"On or near Shopping Area"},"longitude":"-0.099309"},"context":"","outcome_status":null,"persistent_id":"","id":74272164,"location_subtype":"","month":"2019-05"},{"category":"anti-social-behaviour","location_type":"Force","location":{"latitude":"51.470434","street":{"id":945925,"name":"On or near Stockwell Road"},"longitude":"-0.120671"},"context":"","outcome_status":null,"persistent_id":"","id":74274404,"location_subtype":"","month":"2019-05"},{"category":"anti-social-behaviour","location_type":"Force","location":{"latitude":"51.491921","street":{"id":953565,"name":"On or near Renfrew Road"},"longitude":"-0.105814"},"context":"","outcome_status":null,"persistent_id":"","id":74273239,"location_subtype":"","month":"2019-05"},{"category":"anti-social-behaviour","location_type":"Force","location":{"latitude":"51.489553","street":{"id":949280,"name":"On or near Iliffe Yard"},"longitude":"-0.100107"},"context":"","outcome_status":null,"persistent_id":"","id":74272176,"location_subtype":"","month":"2019-05"},{"category":"anti-social-behaviour","location_type":"Force","location":{"latitude":"51.483919","street":{"id":949484,"name":"On or near Ebbisham Drive"},"longitude":"-0.119310"},"context":"","outcome_status":null,"persistent_id":"","id":74274327,"location_subtype":"","month":"2019-05"},{"category":"anti-social-behaviour","location_type":"Force","location":{"latitude":"51.483024","street":{"id":949354,"name":"On or near Camberwell Road"},"longitude":"-0.094531"},"context":"","outcome_status":null,"persistent_id":"","id":74272096,"location_subtype":"","month":"2019-05"},{"category":"anti-social-behaviour","location_type":"Force","location":{"latitude":"51.490193","street":{"id":949264,"name":"On or near Peacock Yard"},"longitude":"-0.100182"},"context":"","outcome_status":null,"persistent_id":"","id":74272171,"location_subtype":"","month":"2019-05"},{"category":"anti-social-behaviour","location_type":"Force","location":{"latitude":"51.482207","street":{"id":949502,"name":"On or near Ashmole Street"},"longitude":"-0.116298"},"context":"","outcome_status":null,"persistent_id":"","id":74274283,"location_subtype":"","month":"2019-05"},{"category":"anti-social-behaviour","location_type":"Force","location":{"latitude":"51.483664","street":{"id":949329,"name":"On or near Red Lion Row"},"longitude":"-0.093525"},"context":"","outcome_status":null,"persistent_id":"","id":74271533,"location_subtype":"","month":"2019-05"},{"category":"anti-social-behaviour","location_type":"Force","location":{"latitude":"51.488636","street":{"id":949531,"name":"On or near Kennington Park Road"},"longitude":"-0.105662"},"context":"","outcome_status":null,"persistent_id":"","id":74273240,"location_subtype":"","month":"2019-05"},{"category":"anti-social-behaviour","location_type":"Force","location":{"latitude":"51.480082","street":{"id":949603,"name":"On or near Walton Close"},"longitude":"-0.125099"},"context":"","outcome_status":null,"persistent_id":"","id":74275165,"location_subtype":"","month":"2019-05"},{"category":"anti-social-behaviour","location_type":"Force","location":{"latitude":"51.480082","street":{"id":949603,"name":"On or near Walton Close"},"longitude":"-0.125099"},"context":"","outcome_status":null,"persistent_id":"","id":74275164,"location_subtype":"","month":"2019-05"},{"category":"anti-social-behaviour","location_type":"Force","location":{"latitude":"51.481817","street":{"id":949605,"name":"On or near South Lambeth Road"},"longitude":"-0.124509"},"context":"","outcome_status":null,"persistent_id":"","id":74275163,"location_subtype":"","month":"2019-05"},{"category":"anti-social-behaviour","location_type":"Force","location":{"latitude":"51.481817","street":{"id":949605,"name":"On or near South Lambeth Road"},"longitude":"-0.124509"},"context":"","outcome_status":null,"persistent_id":"","id":74275162,"location_subtype":"","month":"2019-05"},{"category":"anti-social-behaviour","location_type":"Force","location":{"latitude":"51.488636","street":{"id":949531,"name":"On or near Kennington Park Road"},"longitude":"-0.105662"},"context":"","outcome_status":null,"persistent_id":"","id":74273241,"location_subtype":"","month":"2019-05"},{"category":"anti-social-behaviour","location_type":"Force","location":{"latitude":"51.468649","street":{"id":946187,"name":"On or near Loughborough Road"},"longitude":"-0.105914"},"context":"","outcome_status":null,"persistent_id":"","id":74273249,"location_subtype":"","month":"2019-05"},{"category":"anti-social-behaviour","location_type":"Force","location":{"latitude":"51.474819","street":{"id":946108,"name":"On or near Camberwell Green"},"longitude":"-0.093217"},"context":"","outcome_status":null,"persistent_id":"","id":74271527,"location_subtype":"","month":"2019-05"},{"category":"anti-social-behaviour","location_type":"Force","location":{"latitude":"51.481817","street":{"id":949605,"name":"On or near South Lambeth Road"},"longitude":"-0.124509"},"context":"","outcome_status":null,"persistent_id":"","id":74275161,"location_subtype":"","month":"2019-05"},{"category":"anti-social-behaviour","location_type":"Force","location":{"latitude":"51.484478","street":{"id":949497,"name":"On or near Nightclub"},"longitude":"-0.123910"},"context":"","outcome_status":null,"persistent_id":"","id":74275160,"location_subtype":"","month":"2019-05"},{"category":"anti-social-behaviour","location_type":"Force","location":{"latitude":"51.468649","street":{"id":946187,"name":"On or near Loughborough Road"},"longitude":"-0.105914"},"context":"","outcome_status":null,"persistent_id":"","id":74273250,"location_subtype":"","month":"2019-05"},{"category":"anti-social-behaviour","location_type":"Force","location":{"latitude":"51.471826","street":{"id":945921,"name":"On or near Swan Mews"},"longitude":"-0.122270"},"context":"","outcome_status":null,"persistent_id":"","id":74275083,"location_subtype":"","month":"2019-05"},{"category":"anti-social-behaviour","location_type":"Force","location":{"latitude":"51.479830","street":{"id":949608,"name":"On or near Old South Lambeth Road"},"longitude":"-0.123439"},"context":"","outcome_status":null,"persistent_id":"","id":74275153,"location_subtype":"","month":"2019-05"},{"category":"anti-social-behaviour","location_type":"Force","location":{"latitude":"51.481817","street":{"id":949605,"name":"On or near South Lambeth Road"},"longitude":"-0.124509"},"context":"","outcome_status":null,"persistent_id":"","id":74275182,"location_subtype":"","month":"2019-05"},{"category":"anti-social-behaviour","location_type":"Force","location":{"latitude":"51.471036","street":{"id":945941,"name":"On or near Levehurst Way"},"longitude":"-0.125715"},"context":"","outcome_status":null,"persistent_id":"","id":74275125,"location_subtype":"","month":"2019-05"},{"category":"anti-social-behaviour","location_type":"Force","location":{"latitude":"51.490130","street":{"id":949265,"name":"On or near Peacock Street"},"longitude":"-0.100717"},"context":"","outcome_status":null,"persistent_id":"","id":74272184,"location_subtype":"","month":"2019-05"},{"category":"anti-social-behaviour","location_type":"Force","location":{"latitude":"51.475137","street":{"id":946039,"name":"On or near Cromwell Road"},"longitude":"-0.107287"},"context":"","outcome_status":null,"persistent_id":"","id":74273251,"location_subtype":"","month":"2019-05"},{"category":"anti-social-behaviour","location_type":"Force","location":{"latitude":"51.475137","street":{"id":946039,"name":"On or near Cromwell Road"},"longitude":"-0.107287"},"context":"","outcome_status":null,"persistent_id":"","id":74273252,"location_subtype":"","month":"2019-05"},{"category":"anti-social-behaviour","location_type":"Force","location":{"latitude":"51.483324","street":{"id":949535,"name":"On or near Kennington Park Gardens"},"longitude":"-0.106387"},"context":"","outcome_status":null,"persistent_id":"","id":74273253,"location_subtype":"","month":"2019-05"},{"category":"anti-social-behaviour","location_type":"Force","location":{"latitude":"51.471036","street":{"id":945941,"name":"On or near Levehurst Way"},"longitude":"-0.125715"},"context":"","outcome_status":null,"persistent_id":"","id":74275124,"location_subtype":"","month":"2019-05"},{"category":"anti-social-behaviour","location_type":"Force","location":{"latitude":"51.476908","street":{"id":945892,"name":"On or near Elliott Road"},"longitude":"-0.106667"},"context":"","outcome_status":null,"persistent_id":"","id":74273254,"location_subtype":"","month":"2019-05"},{"category":"anti-social-behaviour","location_type":"Force","location":{"latitude":"51.471036","street":{"id":945941,"name":"On or near Levehurst Way"},"longitude":"-0.125715"},"context":"","outcome_status":null,"persistent_id":"","id":74275122,"location_subtype":"","month":"2019-05"},{"category":"anti-social-behaviour","location_type":"Force","location":{"latitude":"51.474819","street":{"id":946108,"name":"On or near Camberwell Green"},"longitude":"-0.093217"},"context":"","outcome_status":null,"persistent_id":"","id":74271526,"location_subtype":"","month":"2019-05"},{"category":"anti-social-behaviour","location_type":"Force","location":{"latitude":"51.484478","street":{"id":949497,"name":"On or near Nightclub"},"longitude":"-0.123910"},"context":"","outcome_status":null,"persistent_id":"","id":74275121,"location_subtype":"","month":"2019-05"},{"category":"anti-social-behaviour","location_type":"Force","location":{"latitude":"51.489271","street":{"id":949520,"name":"On or near Othello Close"},"longitude":"-0.106025"},"context":"","outcome_status":null,"persistent_id":"","id":74273257,"location_subtype":"","month":"2019-05"},{"category":"anti-social-behaviour","location_type":"Force","location":{"latitude":"51.484478","street":{"id":949497,"name":"On or near Nightclub"},"longitude":"-0.123910"},"context":"","outcome_status":null,"persistent_id":"","id":74275120,"location_subtype":"","month":"2019-05"},{"category":"anti-social-behaviour","location_type":"Force","location":{"latitude":"51.484478","street":{"id":949497,"name":"On or near Nightclub"},"longitude":"-0.123910"},"context":"","outcome_status":null,"persistent_id":"","id":74275119,"location_subtype":"","month":"2019-05"},{"category":"anti-social-behaviour","location_type":"Force","location":{"latitude":"51.483324","street":{"id":949535,"name":"On or near Kennington Park Gardens"},"longitude":"-0.106387"},"context":"","outcome_status":null,"persistent_id":"","id":74273259,"location_subtype":"","month":"2019-05"},{"category":"anti-social-behaviour","location_type":"Force","location":{"latitude":"51.484478","street":{"id":949497,"name":"On or near Nightclub"},"longitude":"-0.123910"},"context":"","outcome_status":null,"persistent_id":"","id":74275118,"location_subtype":"","month":"2019-05"},{"category":"anti-social-behaviour","location_type":"Force","location":{"latitude":"51.485486","street":{"id":949469,"name":"On or near South Lambeth Place"},"longitude":"-0.123379"},"context":"","outcome_status":null,"persistent_id":"","id":74275112,"location_subtype":"","month":"2019-05"},{"category":"anti-social-behaviour","location_type":"Force","location":{"latitude":"51.485486","street":{"id":949469,"name":"On or near South Lambeth Place"},"longitude":"-0.123379"},"context":"","outcome_status":null,"persistent_id":"","id":74275110,"location_subtype":"","month":"2019-05"},{"category":"anti-social-behaviour","location_type":"Force","location":{"latitude":"51.472351","street":{"id":945963,"name":"On or near Binfield Road"},"longitude":"-0.122450"},"context":"","outcome_status":null,"persistent_id":"","id":74275108,"location_subtype":"","month":"2019-05"},{"category":"anti-social-behaviour","location_type":"Force","location":{"latitude":"51.483324","street":{"id":949535,"name":"On or near Kennington Park Gardens"},"longitude":"-0.106387"},"context":"","outcome_status":null,"persistent_id":"","id":74273260,"location_subtype":"","month":"2019-05"},{"category":"anti-social-behaviour","location_type":"Force","location":{"latitude":"51.472351","street":{"id":945963,"name":"On or near Binfield Road"},"longitude":"-0.122450"},"context":"","outcome_status":null,"persistent_id":"","id":74275107,"location_subtype":"","month":"2019-05"},{"category":"anti-social-behaviour","location_type":"Force","location":{"latitude":"51.469303","street":{"id":945940,"name":"On or near Lingham Street"},"longitude":"-0.122517"},"context":"","outcome_status":null,"persistent_id":"","id":74275104,"location_subtype":"","month":"2019-05"},{"category":"anti-social-behaviour","location_type":"Force","location":{"latitude":"51.489768","street":{"id":949550,"name":"On or near Cottington Street"},"longitude":"-0.107301"},"context":"","outcome_status":null,"persistent_id":"","id":74273261,"location_subtype":"","month":"2019-05"},{"category":"anti-social-behaviour","location_type":"Force","location":{"latitude":"51.489768","street":{"id":949550,"name":"On or near Cottington Street"},"longitude":"-0.107301"},"context":"","outcome_status":null,"persistent_id":"","id":74273262,"location_subtype":"","month":"2019-05"},{"category":"anti-social-behaviour","location_type":"Force","location":{"latitude":"51.485486","street":{"id":949469,"name":"On or near South Lambeth Place"},"longitude":"-0.123379"},"context":"","outcome_status":null,"persistent_id":"","id":74275096,"location_subtype":"","month":"2019-05"},{"category":"anti-social-behaviour","location_type":"Force","location":{"latitude":"51.485486","street":{"id":949469,"name":"On or near South Lambeth Place"},"longitude":"-0.123379"},"context":"","outcome_status":null,"persistent_id":"","id":74275095,"location_subtype":"","month":"2019-05"},{"category":"anti-social-behaviour","location_type":"Force","location":{"latitude":"51.469713","street":{"id":945955,"name":"On or near Crossford Street"},"longitude":"-0.122256"},"context":"","outcome_status":null,"persistent_id":"","id":74275090,"location_subtype":"","month":"2019-05"},{"category":"anti-social-behaviour","location_type":"Force","location":{"latitude":"51.478455","street":{"id":945915,"name":"On or near Walberswick Street"},"longitude":"-0.122905"},"context":"","outcome_status":null,"persistent_id":"","id":74275088,"location_subtype":"","month":"2019-05"},{"category":"anti-social-behaviour","location_type":"Force","location":{"latitude":"51.471826","street":{"id":945921,"name":"On or near Swan Mews"},"longitude":"-0.122270"},"context":"","outcome_status":null,"persistent_id":"","id":74275084,"location_subtype":"","month":"2019-05"},{"category":"anti-social-behaviour","location_type":"Force","location":{"latitude":"51.471826","street":{"id":945921,"name":"On or near Swan Mews"},"longitude":"-0.122270"},"context":"","outcome_status":null,"persistent_id":"","id":74275082,"location_subtype":"","month":"2019-05"},{"category":"anti-social-behaviour","location_type":"Force","location":{"latitude":"51.472332","street":{"id":945845,"name":"On or near Urlwin Walk"},"longitude":"-0.107850"},"context":"","outcome_status":null,"persistent_id":"","id":74273266,"location_subtype":"","month":"2019-05"},{"category":"anti-social-behaviour","location_type":"Force","location":{"latitude":"51.476160","street":{"id":946112,"name":"On or near Bullace Row"},"longitude":"-0.093291"},"context":"","outcome_status":null,"persistent_id":"","id":74271523,"location_subtype":"","month":"2019-05"},{"category":"anti-social-behaviour","location_type":"Force","location":{"latitude":"51.471826","street":{"id":945921,"name":"On or near Swan Mews"},"longitude":"-0.122270"},"context":"","outcome_status":null,"persistent_id":"","id":74275081,"location_subtype":"","month":"2019-05"},{"category":"anti-social-behaviour","location_type":"Force","location":{"latitude":"51.471826","street":{"id":945921,"name":"On or near Swan Mews"},"longitude":"-0.122270"},"context":"","outcome_status":null,"persistent_id":"","id":74275080,"location_subtype":"","month":"2019-05"},{"category":"anti-social-behaviour","location_type":"Force","location":{"latitude":"51.494437","street":{"id":953551,"name":"On or near A3203"},"longitude":"-0.121960"},"context":"","outcome_status":null,"persistent_id":"","id":74275076,"location_subtype":"","month":"2019-05"},{"category":"anti-social-behaviour","location_type":"Force","location":{"latitude":"51.494437","street":{"id":953551,"name":"On or near A3203"},"longitude":"-0.121960"},"context":"","outcome_status":null,"persistent_id":"","id":74275075,"location_subtype":"","month":"2019-05"},{"category":"anti-social-behaviour","location_type":"Force","location":{"latitude":"51.474505","street":{"id":945932,"name":"On or near Spencer Mews"},"longitude":"-0.121670"},"context":"","outcome_status":null,"persistent_id":"","id":74275073,"location_subtype":"","month":"2019-05"},{"category":"anti-social-behaviour","location_type":"Force","location":{"latitude":"51.484737","street":{"id":949331,"name":"On or near Queen's Row"},"longitude":"-0.092040"},"context":"","outcome_status":null,"persistent_id":"","id":74271512,"location_subtype":"","month":"2019-05"},{"category":"anti-social-behaviour","location_type":"Force","location":{"latitude":"51.474505","street":{"id":945932,"name":"On or near Spencer Mews"},"longitude":"-0.121670"},"context":"","outcome_status":null,"persistent_id":"","id":74275072,"location_subtype":"","month":"2019-05"},{"category":"anti-social-behaviour","location_type":"Force","location":{"latitude":"51.474202","street":{"id":945889,"name":"On or near Eythorne Road"},"longitude":"-0.107830"},"context":"","outcome_status":null,"persistent_id":"","id":74273270,"location_subtype":"","month":"2019-05"},{"category":"anti-social-behaviour","location_type":"Force","location":{"latitude":"51.480907","street":{"id":949596,"name":"On or near Bolton Crescent"},"longitude":"-0.107610"},"context":"","outcome_status":null,"persistent_id":"","id":74273271,"location_subtype":"","month":"2019-05"},{"category":"anti-social-behaviour","location_type":"Force","location":{"latitude":"51.469262","street":{"id":945880,"name":"On or near Hilda Lockert Walk"},"longitude":"-0.108178"},"context":"","outcome_status":null,"persistent_id":"","id":74273272,"location_subtype":"","month":"2019-05"},{"category":"anti-social-behaviour","location_type":"Force","location":{"latitude":"51.473899","street":{"id":945885,"name":"On or near Fountain Place"},"longitude":"-0.108030"},"context":"","outcome_status":null,"persistent_id":"","id":74273276,"location_subtype":"","month":"2019-05"},{"category":"anti-social-behaviour","location_type":"Force","location":{"latitude":"51.473899","street":{"id":945885,"name":"On or near Fountain Place"},"longitude":"-0.108030"},"context":"","outcome_status":null,"persistent_id":"","id":74273277,"location_subtype":"","month":"2019-05"},{"category":"anti-social-behaviour","location_type":"Force","location":{"latitude":"51.493106","street":{"id":953547,"name":"On or near Lambeth High Street"},"longitude":"-0.120257"},"context":"","outcome_status":null,"persistent_id":"","id":74274435,"location_subtype":"","month":"2019-05"},{"category":"anti-social-behaviour","location_type":"Force","location":{"latitude":"51.470177","street":{"id":945887,"name":"On or near Fir Grove Road"},"longitude":"-0.109767"},"context":"","outcome_status":null,"persistent_id":"","id":74273278,"location_subtype":"","month":"2019-05"},{"category":"anti-social-behaviour","location_type":"Force","location":{"latitude":"51.470177","street":{"id":945887,"name":"On or near Fir Grove Road"},"longitude":"-0.109767"},"context":"","outcome_status":null,"persistent_id":"","id":74273279,"location_subtype":"","month":"2019-05"},{"category":"anti-social-behaviour","location_type":"Force","location":{"latitude":"51.480502","street":{"id":949614,"name":"On or near Heyford Avenue"},"longitude":"-0.122705"},"context":"","outcome_status":null,"persistent_id":"","id":74274434,"location_subtype":"","month":"2019-05"},{"category":"anti-social-behaviour","location_type":"Force","location":{"latitude":"51.489048","street":{"id":949507,"name":"On or near White Hart Street"},"longitude":"-0.108901"},"context":"","outcome_status":null,"persistent_id":"","id":74273288,"location_subtype":"","month":"2019-05"},{"category":"anti-social-behaviour","location_type":"Force","location":{"latitude":"51.471639","street":{"id":945850,"name":"On or near St Lawrence Way"},"longitude":"-0.110081"},"context":"","outcome_status":null,"persistent_id":"","id":74273294,"location_subtype":"","month":"2019-05"},{"category":"anti-social-behaviour","location_type":"Force","location":{"latitude":"51.481678","street":{"id":949598,"name":"On or near Sports\/recreation Area"},"longitude":"-0.109134"},"context":"","outcome_status":null,"persistent_id":"","id":74273295,"location_subtype":"","month":"2019-05"},{"category":"anti-social-behaviour","location_type":"Force","location":{"latitude":"51.481678","street":{"id":949598,"name":"On or near Sports\/recreation Area"},"longitude":"-0.109134"},"context":"","outcome_status":null,"persistent_id":"","id":74273296,"location_subtype":"","month":"2019-05"},{"category":"anti-social-behaviour","location_type":"Force","location":{"latitude":"51.486711","street":{"id":949518,"name":"On or near Radcot Street"},"longitude":"-0.108983"},"context":"","outcome_status":null,"persistent_id":"","id":74273298,"location_subtype":"","month":"2019-05"},{"category":"anti-social-behaviour","location_type":"Force","location":{"latitude":"51.480392","street":{"id":949599,"name":"On or near Theatre\/concert Hall"},"longitude":"-0.110252"},"context":"","outcome_status":null,"persistent_id":"","id":74273299,"location_subtype":"","month":"2019-05"},{"category":"anti-social-behaviour","location_type":"Force","location":{"latitude":"51.472529","street":{"id":945862,"name":"On or near Mostyn Road"},"longitude":"-0.110073"},"context":"","outcome_status":null,"persistent_id":"","id":74273312,"location_subtype":"","month":"2019-05"},{"category":"anti-social-behaviour","location_type":"Force","location":{"latitude":"51.471639","street":{"id":945850,"name":"On or near St Lawrence Way"},"longitude":"-0.110081"},"context":"","outcome_status":null,"persistent_id":"","id":74273313,"location_subtype":"","month":"2019-05"},{"category":"anti-social-behaviour","location_type":"Force","location":{"latitude":"51.471639","street":{"id":945850,"name":"On or near St Lawrence Way"},"longitude":"-0.110081"},"context":"","outcome_status":null,"persistent_id":"","id":74273314,"location_subtype":"","month":"2019-05"},{"category":"anti-social-behaviour","location_type":"Force","location":{"latitude":"51.471639","street":{"id":945850,"name":"On or near St Lawrence Way"},"longitude":"-0.110081"},"context":"","outcome_status":null,"persistent_id":"","id":74273315,"location_subtype":"","month":"2019-05"},{"category":"anti-social-behaviour","location_type":"Force","location":{"latitude":"51.493746","street":{"id":953555,"name":"On or near Conference\/exhibition Centre"},"longitude":"-0.120908"},"context":"","outcome_status":null,"persistent_id":"","id":74274413,"location_subtype":"","month":"2019-05"},{"category":"anti-social-behaviour","location_type":"Force","location":{"latitude":"51.474802","street":{"id":945897,"name":"On or near Cowley Road"},"longitude":"-0.110455"},"context":"","outcome_status":null,"persistent_id":"","id":74273318,"location_subtype":"","month":"2019-05"},{"category":"anti-social-behaviour","location_type":"Force","location":{"latitude":"51.479143","street":{"id":949619,"name":"On or near Bolney Street"},"longitude":"-0.120932"},"context":"","outcome_status":null,"persistent_id":"","id":74274410,"location_subtype":"","month":"2019-05"},{"category":"anti-social-behaviour","location_type":"Force","location":{"latitude":"51.468063","street":{"id":946019,"name":"On or near Peckford Place"},"longitude":"-0.110805"},"context":"","outcome_status":null,"persistent_id":"","id":74273321,"location_subtype":"","month":"2019-05"},{"category":"anti-social-behaviour","location_type":"Force","location":{"latitude":"51.486909","street":{"id":949524,"name":"On or near Milverton Street"},"longitude":"-0.110631"},"context":"","outcome_status":null,"persistent_id":"","id":74273323,"location_subtype":"","month":"2019-05"},{"category":"anti-social-behaviour","location_type":"Force","location":{"latitude":"51.467281","street":{"id":946005,"name":"On or near Villa Road"},"longitude":"-0.111370"},"context":"","outcome_status":null,"persistent_id":"","id":74273327,"location_subtype":"","month":"2019-05"},{"category":"anti-social-behaviour","location_type":"Force","location":{"latitude":"51.468830","street":{"id":946024,"name":"On or near George Mews"},"longitude":"-0.112674"},"context":"","outcome_status":null,"persistent_id":"","id":74273339,"location_subtype":"","month":"2019-05"},{"category":"anti-social-behaviour","location_type":"Force","location":{"latitude":"51.486456","street":{"id":949482,"name":"On or near Glyn Street"},"longitude":"-0.120516"},"context":"","outcome_status":null,"persistent_id":"","id":74274409,"location_subtype":"","month":"2019-05"},{"category":"anti-social-behaviour","location_type":"Force","location":{"latitude":"51.468830","street":{"id":946024,"name":"On or near George Mews"},"longitude":"-0.112674"},"context":"","outcome_status":null,"persistent_id":"","id":74273340,"location_subtype":"","month":"2019-05"},{"category":"anti-social-behaviour","location_type":"Force","location":{"latitude":"51.468830","street":{"id":946024,"name":"On or near George Mews"},"longitude":"-0.112674"},"context":"","outcome_status":null,"persistent_id":"","id":74273341,"location_subtype":"","month":"2019-05"},{"category":"anti-social-behaviour","location_type":"Force","location":{"latitude":"51.468830","street":{"id":946024,"name":"On or near George Mews"},"longitude":"-0.112674"},"context":"","outcome_status":null,"persistent_id":"","id":74273342,"location_subtype":"","month":"2019-05"},{"category":"anti-social-behaviour","location_type":"Force","location":{"latitude":"51.470832","street":{"id":945721,"name":"On or near Mccall Close"},"longitude":"-0.128156"},"context":"","outcome_status":null,"persistent_id":"","id":74275866,"location_subtype":"","month":"2019-05"},{"category":"anti-social-behaviour","location_type":"Force","location":{"latitude":"51.474488","street":{"id":945693,"name":"On or near Southville"},"longitude":"-0.131304"},"context":"","outcome_status":null,"persistent_id":"","id":74275896,"location_subtype":"","month":"2019-05"},{"category":"anti-social-behaviour","location_type":"Force","location":{"latitude":"51.486456","street":{"id":949482,"name":"On or near Glyn Street"},"longitude":"-0.120516"},"context":"","outcome_status":null,"persistent_id":"","id":74274408,"location_subtype":"","month":"2019-05"},{"category":"anti-social-behaviour","location_type":"Force","location":{"latitude":"51.482089","street":{"id":949604,"name":"On or near Stanley Close"},"longitude":"-0.121286"},"context":"","outcome_status":null,"persistent_id":"","id":74274407,"location_subtype":"","month":"2019-05"},{"category":"anti-social-behaviour","location_type":"Force","location":{"latitude":"51.474488","street":{"id":945693,"name":"On or near Southville"},"longitude":"-0.131304"},"context":"","outcome_status":null,"persistent_id":"","id":74275899,"location_subtype":"","month":"2019-05"},{"category":"anti-social-behaviour","location_type":"Force","location":{"latitude":"51.474488","street":{"id":945693,"name":"On or near Southville"},"longitude":"-0.131304"},"context":"","outcome_status":null,"persistent_id":"","id":74275900,"location_subtype":"","month":"2019-05"},{"category":"anti-social-behaviour","location_type":"Force","location":{"latitude":"51.474488","street":{"id":945693,"name":"On or near Southville"},"longitude":"-0.131304"},"context":"","outcome_status":null,"persistent_id":"","id":74275901,"location_subtype":"","month":"2019-05"},{"category":"anti-social-behaviour","location_type":"Force","location":{"latitude":"51.474488","street":{"id":945693,"name":"On or near Southville"},"longitude":"-0.131304"},"context":"","outcome_status":null,"persistent_id":"","id":74275902,"location_subtype":"","month":"2019-05"},{"category":"anti-social-behaviour","location_type":"Force","location":{"latitude":"51.482516","street":{"id":949566,"name":"On or near Theatre\/concert Hall"},"longitude":"-0.114255"},"context":"","outcome_status":null,"persistent_id":"","id":74273746,"location_subtype":"","month":"2019-05"},{"category":"anti-social-behaviour","location_type":"Force","location":{"latitude":"51.483073","street":{"id":949692,"name":"On or near Nine Elms Lane"},"longitude":"-0.133373"},"context":"","outcome_status":null,"persistent_id":"","id":74278426,"location_subtype":"","month":"2019-05"},{"category":"anti-social-behaviour","location_type":"Force","location":{"latitude":"51.490429","street":{"id":949731,"name":"On or near Further\/higher Educational Building"},"longitude":"-0.128276"},"context":"","outcome_status":null,"persistent_id":"","id":74280512,"location_subtype":"","month":"2019-05"},{"category":"anti-social-behaviour","location_type":"Force","location":{"latitude":"51.490429","street":{"id":949731,"name":"On or near Further\/higher Educational Building"},"longitude":"-0.128276"},"context":"","outcome_status":null,"persistent_id":"","id":74280513,"location_subtype":"","month":"2019-05"},{"category":"anti-social-behaviour","location_type":"Force","location":{"latitude":"51.470434","street":{"id":945925,"name":"On or near Stockwell Road"},"longitude":"-0.120671"},"context":"","outcome_status":null,"persistent_id":"","id":74274403,"location_subtype":"","month":"2019-05"},{"category":"anti-social-behaviour","location_type":"Force","location":{"latitude":"51.487259","street":{"id":949491,"name":"On or near A202"},"longitude":"-0.126317"},"context":"","outcome_status":null,"persistent_id":"","id":74280516,"location_subtype":"","month":"2019-05"},{"category":"anti-social-behaviour","location_type":"Force","location":{"latitude":"51.470871","street":{"id":945924,"name":"On or near Stockwell Road"},"longitude":"-0.121042"},"context":"","outcome_status":null,"persistent_id":"","id":74274402,"location_subtype":"","month":"2019-05"},{"category":"anti-social-behaviour","location_type":"Force","location":{"latitude":"51.487259","street":{"id":949491,"name":"On or near A202"},"longitude":"-0.126317"},"context":"","outcome_status":null,"persistent_id":"","id":74280517,"location_subtype":"","month":"2019-05"},{"category":"anti-social-behaviour","location_type":"Force","location":{"latitude":"51.487259","street":{"id":949491,"name":"On or near A202"},"longitude":"-0.126317"},"context":"","outcome_status":null,"persistent_id":"","id":74280518,"location_subtype":"","month":"2019-05"},{"category":"anti-social-behaviour","location_type":"Force","location":{"latitude":"51.473774","street":{"id":945958,"name":"On or near Clapham Road"},"longitude":"-0.120951"},"context":"","outcome_status":null,"persistent_id":"","id":74274377,"location_subtype":"","month":"2019-05"},{"category":"bicycle-theft","location_type":"Force","location":{"latitude":"51.485486","street":{"id":949469,"name":"On or near South Lambeth Place"},"longitude":"-0.123379"},"context":"","outcome_status":{"category":"Status update unavailable","date":"2019-09"},"persistent_id":"8111e6d2f7c97dc6fb14e8b7f9d966acd824ec8abbbe9f00d116a8f5d3645f87","id":74343083,"location_subtype":"","month":"2019-05"},{"category":"bicycle-theft","location_type":"Force","location":{"latitude":"51.481544","street":{"id":949747,"name":"On or near Petrol Station"},"longitude":"-0.128236"},"context":"","outcome_status":{"category":"Status update unavailable","date":"2019-09"},"persistent_id":"022818e74e3a4dc72297da9f9e63c7430d6cac3ac505840e20d9c37d0cb6a87a","id":74328479,"location_subtype":"","month":"2019-05"},{"category":"bicycle-theft","location_type":"Force","location":{"latitude":"51.475403","street":{"id":946160,"name":"On or near County Grove"},"longitude":"-0.098722"},"context":"","outcome_status":{"category":"Court result unavailable","date":"2020-02"},"persistent_id":"983b6b148c193cecd86eda8116eb89ef6c905d92a61edc7626d166631ce8367f","id":74366620,"location_subtype":"","month":"2019-05"},{"category":"bicycle-theft","location_type":"Force","location":{"latitude":"51.467243","street":{"id":946023,"name":"On or near Knowle Close"},"longitude":"-0.114064"},"context":"","outcome_status":{"category":"Status update unavailable","date":"2019-09"},"persistent_id":"8f28998098750248df3c4f1230bbab16bcb46d0c8c9c0d669ea53b7aa9fcae0c","id":74321979,"location_subtype":"","month":"2019-05"},{"category":"bicycle-theft","location_type":"Force","location":{"latitude":"51.486711","street":{"id":949518,"name":"On or near Radcot Street"},"longitude":"-0.108983"},"context":"","outcome_status":{"category":"Status update unavailable","date":"2019-09"},"persistent_id":"f3465c67d9d87189599667f3e4c8d598fb92497c27e8188338b3d10665ea8ac0","id":74294502,"location_subtype":"","month":"2019-05"},{"category":"bicycle-theft","location_type":"Force","location":{"latitude":"51.488280","street":{"id":949551,"name":"On or near Cleaver Street"},"longitude":"-0.110330"},"context":"","outcome_status":{"category":"Status update unavailable","date":"2019-09"},"persistent_id":"561fb99c814769ad4e3ddfa4eefb7ab0ae3a6a7841ac1550d5ffce46f01595ec","id":74294488,"location_subtype":"","month":"2019-05"},{"category":"bicycle-theft","location_type":"Force","location":{"latitude":"51.475093","street":{"id":946169,"name":"On or near Baldwin Crescent"},"longitude":"-0.099556"},"context":"","outcome_status":{"category":"Court result unavailable","date":"2020-02"},"persistent_id":"ed09da20f1cca3a484ab69948af0973acc07c72588da25f5e4a09449d70a46a2","id":74366578,"location_subtype":"","month":"2019-05"},{"category":"bicycle-theft","location_type":"Force","location":{"latitude":"51.485486","street":{"id":949469,"name":"On or near South Lambeth Place"},"longitude":"-0.123379"},"context":"","outcome_status":{"category":"Status update unavailable","date":"2019-09"},"persistent_id":"be3c323a76b7be8933f452d89af45765147e98dbac39375b5f55893b216bd8b8","id":74349705,"location_subtype":"","month":"2019-05"},{"category":"bicycle-theft","location_type":"Force","location":{"latitude":"51.483073","street":{"id":949692,"name":"On or near Nine Elms Lane"},"longitude":"-0.133373"},"context":"","outcome_status":{"category":"Status update unavailable","date":"2019-09"},"persistent_id":"8569a88da211cd1a6e07487cb9b9701e4f8296ba1e7998be2b2dddf6d329ad0f","id":74341256,"location_subtype":"","month":"2019-05"},{"category":"bicycle-theft","location_type":"Force","location":{"latitude":"51.472351","street":{"id":945963,"name":"On or near Binfield Road"},"longitude":"-0.122450"},"context":"","outcome_status":{"category":"Status update unavailable","date":"2019-09"},"persistent_id":"56e0923ea55965e0a26634051a9207f512d820373368b4d2e510d60f1aa53b96","id":74302628,"location_subtype":"","month":"2019-05"},{"category":"bicycle-theft","location_type":"Force","location":{"latitude":"51.478555","street":{"id":949440,"name":"On or near Wyndham Road"},"longitude":"-0.097900"},"context":"","outcome_status":{"category":"Status update unavailable","date":"2019-09"},"persistent_id":"abc7bc79581e9ec119282a520ae6dc5e5ada4eee2c87a2c09f57b97806d19306","id":74339666,"location_subtype":"","month":"2019-05"},{"category":"bicycle-theft","location_type":"Force","location":{"latitude":"51.490429","street":{"id":949731,"name":"On or near Further\/higher Educational Building"},"longitude":"-0.128276"},"context":"","outcome_status":{"category":"Status update unavailable","date":"2019-09"},"persistent_id":"afdba010fa2a723ea4ad4d0a8d8c02fdb662d15953a32ae22842dd926af6fe33","id":74317753,"location_subtype":"","month":"2019-05"},{"category":"bicycle-theft","location_type":"Force","location":{"latitude":"51.485764","street":{"id":949510,"name":"On or near Stannary Street"},"longitude":"-0.109915"},"context":"","outcome_status":{"category":"Status update unavailable","date":"2019-09"},"persistent_id":"07f1d065555d443dc6f279dc953385f11f456b7f7388b68b271219eb3c4abafe","id":74370892,"location_subtype":"","month":"2019-05"},{"category":"bicycle-theft","location_type":"Force","location":{"latitude":"51.476189","street":{"id":945959,"name":"On or near Clapham Road"},"longitude":"-0.118433"},"context":"","outcome_status":{"category":"Status update unavailable","date":"2019-09"},"persistent_id":"6d868629a65932b138691606ebd5c92f5df73160898e72c05abd025de09b0a31","id":74333628,"location_subtype":"","month":"2019-05"},{"category":"bicycle-theft","location_type":"Force","location":{"latitude":"51.479260","street":{"id":949453,"name":"On or near Camberwell New Road"},"longitude":"-0.105849"},"context":"","outcome_status":{"category":"Status update unavailable","date":"2019-09"},"persistent_id":"fb1828f13cfc96e300c67d8f64f010da16ecbcdb8a06dccebc43496a1eb7c4be","id":74308857,"location_subtype":"","month":"2019-05"},{"category":"bicycle-theft","location_type":"Force","location":{"latitude":"51.486062","street":{"id":949291,"name":"On or near Doddington Grove"},"longitude":"-0.103868"},"context":"","outcome_status":{"category":"Status update unavailable","date":"2019-09"},"persistent_id":"209615c953676cf11e863b4348c03f19fae9890dd0b76fe4bf2de469b72f7552","id":74299735,"location_subtype":"","month":"2019-05"},{"category":"bicycle-theft","location_type":"Force","location":{"latitude":"51.474743","street":{"id":946092,"name":"On or near Station Terrace"},"longitude":"-0.096244"},"context":"","outcome_status":{"category":"Status update unavailable","date":"2019-09"},"persistent_id":"4cc5eaffcaee133ec303784b01667a856a84e17234b837b761311c2eebd82513","id":74308748,"location_subtype":"","month":"2019-05"},{"category":"bicycle-theft","location_type":"Force","location":{"latitude":"51.486204","street":{"id":949494,"name":"On or near Nightclub"},"longitude":"-0.119360"},"context":"","outcome_status":{"category":"Status update unavailable","date":"2019-09"},"persistent_id":"e2e14393ff52397a5b45ee72285902120de2693e26fe0576b766e60f6e0d9a8f","id":74299943,"location_subtype":"","month":"2019-05"},{"category":"bicycle-theft","location_type":"Force","location":{"latitude":"51.483024","street":{"id":949354,"name":"On or near Camberwell Road"},"longitude":"-0.094531"},"context":"","outcome_status":{"category":"Status update unavailable","date":"2019-09"},"persistent_id":"fc444003a989dbb9de5aa6a9f3c506a52697dc3e0e7072b576d34f03f6d6bddd","id":74307464,"location_subtype":"","month":"2019-05"},{"category":"bicycle-theft","location_type":"Force","location":{"latitude":"51.485136","street":{"id":949481,"name":"On or near Harleyford Road"},"longitude":"-0.119490"},"context":"","outcome_status":{"category":"Status update unavailable","date":"2019-09"},"persistent_id":"29fc2a01e5e0f96df085f40ce9a546888e61bc1daca3ce028ca854dfa574e08c","id":74295596,"location_subtype":"","month":"2019-05"},{"category":"bicycle-theft","location_type":"Force","location":{"latitude":"51.476066","street":{"id":946096,"name":"On or near Medlar Street"},"longitude":"-0.095757"},"context":"","outcome_status":{"category":"Status update unavailable","date":"2019-09"},"persistent_id":"a6ac935b127fe7e647d0a0a7a05ac5005b15d62030a3907a1ae1e4a6fabc08d5","id":74341279,"location_subtype":"","month":"2019-05"},{"category":"bicycle-theft","location_type":"Force","location":{"latitude":"51.490543","street":{"id":949732,"name":"On or near Further\/higher Educational Building"},"longitude":"-0.129236"},"context":"","outcome_status":{"category":"Status update unavailable","date":"2019-09"},"persistent_id":"c6d2a16c5f4ffafc068a1f3ec46421c62b1b6b1baf25d917d5d4e981ddccec07","id":74311622,"location_subtype":"","month":"2019-05"},{"category":"bicycle-theft","location_type":"Force","location":{"latitude":"51.474743","street":{"id":946092,"name":"On or near Station Terrace"},"longitude":"-0.096244"},"context":"","outcome_status":{"category":"Status update unavailable","date":"2019-09"},"persistent_id":"ffa684c6d62783dc9bcf7db2a93f16b474c00dea63d990460004c72cf8679121","id":74315335,"location_subtype":"","month":"2019-05"},{"category":"bicycle-theft","location_type":"Force","location":{"latitude":"51.490190","street":{"id":949540,"name":"On or near Hotspur Street"},"longitude":"-0.112800"},"context":"","outcome_status":{"category":"Status update unavailable","date":"2019-09"},"persistent_id":"73698c859e7c647878cfeeb778dc328722f7bd2a77672f329c2b1d590dbe8cd9","id":74311615,"location_subtype":"","month":"2019-05"},{"category":"bicycle-theft","location_type":"Force","location":{"latitude":"51.490831","street":{"id":949471,"name":"On or near Randall Road"},"longitude":"-0.120826"},"context":"","outcome_status":{"category":"Status update unavailable","date":"2019-09"},"persistent_id":"317de28ca2c07496277cbf0a55651cc4f24705d11f829f50abfd6271956c7338","id":74305236,"location_subtype":"","month":"2019-05"},{"category":"bicycle-theft","location_type":"Force","location":{"latitude":"51.474743","street":{"id":946092,"name":"On or near Station Terrace"},"longitude":"-0.096244"},"context":"","outcome_status":{"category":"Status update unavailable","date":"2019-09"},"persistent_id":"372e249ea295dd98979dac84a17a6d1f1fa7c71df22d2cae25b68c9d2d16f0f8","id":74310170,"location_subtype":"","month":"2019-05"},{"category":"bicycle-theft","location_type":"Force","location":{"latitude":"51.487534","street":{"id":949370,"name":"On or near Supermarket"},"longitude":"-0.095899"},"context":"","outcome_status":{"category":"Status update unavailable","date":"2019-09"},"persistent_id":"5f07c6b0480fe91bb8c2d85c8f78f583445bf714e9ea7fb37ec586f2e3053d6f","id":74372448,"location_subtype":"","month":"2019-05"},{"category":"bicycle-theft","location_type":"Force","location":{"latitude":"51.477956","street":{"id":945928,"name":"On or near St Stephen's Terrace"},"longitude":"-0.121499"},"context":"","outcome_status":{"category":"Status update unavailable","date":"2019-09"},"persistent_id":"25f9477a140bb55088cbc93b4308bf595bccea294aa2b1c36dc427b4d48b6681","id":74344172,"location_subtype":"","month":"2019-05"},{"category":"bicycle-theft","location_type":"Force","location":{"latitude":"51.478455","street":{"id":945915,"name":"On or near Walberswick Street"},"longitude":"-0.122905"},"context":"","outcome_status":{"category":"Status update unavailable","date":"2019-09"},"persistent_id":"87775029571e85cc2250da376e4a81cd6e77513fed675e520e6df7bd4872eafe","id":74325461,"location_subtype":"","month":"2019-05"},{"category":"bicycle-theft","location_type":"Force","location":{"latitude":"51.485035","street":{"id":949534,"name":"On or near Kennington Park Place"},"longitude":"-0.106546"},"context":"","outcome_status":{"category":"Status update unavailable","date":"2019-09"},"persistent_id":"6942b9e4aa05e0f1078dac1d8880c0eadd34caae74f509e3c0c5aac2e5b448f6","id":74337781,"location_subtype":"","month":"2019-05"},{"category":"bicycle-theft","location_type":"Force","location":{"latitude":"51.481544","street":{"id":949747,"name":"On or near Petrol Station"},"longitude":"-0.128236"},"context":"","outcome_status":{"category":"Status update unavailable","date":"2019-09"},"persistent_id":"ebd6fbfdc23305f6e77a3ea6f5eed30b008a2668fb98c13670065b788d13d993","id":74296489,"location_subtype":"","month":"2019-05"},{"category":"bicycle-theft","location_type":"Force","location":{"latitude":"51.485486","street":{"id":949469,"name":"On or near South Lambeth Place"},"longitude":"-0.123379"},"context":"","outcome_status":{"category":"Status update unavailable","date":"2019-09"},"persistent_id":"2cddeb1bdbb0fcb7cafd250257b7aa94450cafe05d0ebe1843ee393cb3685c2e","id":74294656,"location_subtype":"","month":"2019-05"},{"category":"burglary","location_type":"Force","location":{"latitude":"51.483073","street":{"id":949692,"name":"On or near Nine Elms Lane"},"longitude":"-0.133373"},"context":"","outcome_status":{"category":"Status update unavailable","date":"2019-09"},"persistent_id":"7654fc980b87571d8eac2ee90cf9922e7eae8cbe425d2ca7ddb68bd982e9a910","id":74330041,"location_subtype":"","month":"2019-05"},{"category":"burglary","location_type":"Force","location":{"latitude":"51.488911","street":{"id":949492,"name":"On or near Petrol Station"},"longitude":"-0.122792"},"context":"","outcome_status":{"category":"Investigation complete; no suspect identified","date":"2020-03"},"persistent_id":"57df54186535ec80479a963f7bead7b29ab4616e62e17be0debe0b985aa4c35c","id":74337134,"location_subtype":"","month":"2019-05"},{"category":"burglary","location_type":"Force","location":{"latitude":"51.480746","street":{"id":949433,"name":"On or near Caldew Street"},"longitude":"-0.091559"},"context":"","outcome_status":{"category":"Status update unavailable","date":"2019-09"},"persistent_id":"d55e91ba0d531bdb32a1620a051578318858786d98d8d98357563cd574659c12","id":74328183,"location_subtype":"","month":"2019-05"},{"category":"burglary","location_type":"Force","location":{"latitude":"51.487849","street":{"id":949560,"name":"On or near Aveline Street"},"longitude":"-0.114309"},"context":"","outcome_status":{"category":"Status update unavailable","date":"2019-09"},"persistent_id":"24200e12566b0d53da5b2b192847206de1b5a17588597b50991deb0f35275801","id":74328519,"location_subtype":"","month":"2019-05"},{"category":"burglary","location_type":"Force","location":{"latitude":"51.471903","street":{"id":946131,"name":"On or near Templar Street"},"longitude":"-0.103576"},"context":"","outcome_status":{"category":"Status update unavailable","date":"2019-09"},"persistent_id":"c6072cace7e930fcff7dabb0811c7f082d74e88c3ae29606b2560da020b14549","id":74335574,"location_subtype":"","month":"2019-05"},{"category":"burglary","location_type":"Force","location":{"latitude":"51.488512","street":{"id":949623,"name":"On or near Kennings Way"},