[{"category":"anti-social-behaviour","location_type":"Force","location":{"latitude":"51.585318","street":{"id":973780,"name":"On or near Highfield Avenue"},"longitude":"-0.375859"},"context":"","outcome_status":null,"persistent_id":"","id":74272276,"location_subtype":"","month":"2019-05"},{"category":"anti-social-behaviour","location_type":"Force","location":{"latitude":"51.585318","street":{"id":973780,"name":"On or near Highfield Avenue"},"longitude":"-0.375859"},"context":"","outcome_status":null,"persistent_id":"","id":74272277,"location_subtype":"","month":"2019-05"},{"category":"anti-social-behaviour","location_type":"Force","location":{"latitude":"51.579960","street":{"id":973793,"name":"On or near Brunswick Close"},"longitude":"-0.377219"},"context":"","outcome_status":null,"persistent_id":"","id":74272278,"location_subtype":"","month":"2019-05"},{"category":"anti-social-behaviour","location_type":"Force","location":{"latitude":"51.598083","street":{"id":979583,"name":"On or near Moss Lane"},"longitude":"-0.376241"},"context":"","outcome_status":null,"persistent_id":"","id":74272282,"location_subtype":"","month":"2019-05"},{"category":"anti-social-behaviour","location_type":"Force","location":{"latitude":"51.606554","street":{"id":980095,"name":"On or near Littlecote Place"},"longitude":"-0.376892"},"context":"","outcome_status":null,"persistent_id":"","id":74272286,"location_subtype":"","month":"2019-05"},{"category":"anti-social-behaviour","location_type":"Force","location":{"latitude":"51.598014","street":{"id":979665,"name":"On or near Fairlawns"},"longitude":"-0.390841"},"context":"","outcome_status":null,"persistent_id":"","id":74272307,"location_subtype":"","month":"2019-05"},{"category":"anti-social-behaviour","location_type":"Force","location":{"latitude":"51.592266","street":{"id":979664,"name":"On or near Gilbert Road"},"longitude":"-0.389976"},"context":"","outcome_status":null,"persistent_id":"","id":74272306,"location_subtype":"","month":"2019-05"},{"category":"anti-social-behaviour","location_type":"Force","location":{"latitude":"51.582687","street":{"id":973703,"name":"On or near Sports\/recreation Area"},"longitude":"-0.386562"},"context":"","outcome_status":null,"persistent_id":"","id":74272305,"location_subtype":"","month":"2019-05"},{"category":"anti-social-behaviour","location_type":"Force","location":{"latitude":"51.582687","street":{"id":973703,"name":"On or near Sports\/recreation Area"},"longitude":"-0.386562"},"context":"","outcome_status":null,"persistent_id":"","id":74272304,"location_subtype":"","month":"2019-05"},{"category":"anti-social-behaviour","location_type":"Force","location":{"latitude":"51.594053","street":{"id":979629,"name":"On or near Westbury Lodge Close"},"longitude":"-0.386578"},"context":"","outcome_status":null,"persistent_id":"","id":74272303,"location_subtype":"","month":"2019-05"},{"category":"anti-social-behaviour","location_type":"Force","location":{"latitude":"51.591409","street":{"id":979667,"name":"On or near Dickson Fold"},"longitude":"-0.386541"},"context":"","outcome_status":null,"persistent_id":"","id":74272302,"location_subtype":"","month":"2019-05"},{"category":"anti-social-behaviour","location_type":"Force","location":{"latitude":"51.593987","street":{"id":979709,"name":"On or near Chapel Lane"},"longitude":"-0.383028"},"context":"","outcome_status":null,"persistent_id":"","id":74272297,"location_subtype":"","month":"2019-05"},{"category":"anti-social-behaviour","location_type":"Force","location":{"latitude":"51.593821","street":{"id":979674,"name":"On or near Chapel Lane"},"longitude":"-0.385402"},"context":"","outcome_status":null,"persistent_id":"","id":74272301,"location_subtype":"","month":"2019-05"},{"category":"anti-social-behaviour","location_type":"Force","location":{"latitude":"51.599406","street":{"id":979714,"name":"On or near Barrow Point Avenue"},"longitude":"-0.383486"},"context":"","outcome_status":null,"persistent_id":"","id":74272300,"location_subtype":"","month":"2019-05"},{"category":"anti-social-behaviour","location_type":"Force","location":{"latitude":"51.584175","street":{"id":973651,"name":"On or near Hill Road"},"longitude":"-0.383564"},"context":"","outcome_status":null,"persistent_id":"","id":74272299,"location_subtype":"","month":"2019-05"},{"category":"anti-social-behaviour","location_type":"Force","location":{"latitude":"51.592235","street":{"id":979694,"name":"On or near School Lane"},"longitude":"-0.381199"},"context":"","outcome_status":null,"persistent_id":"","id":74272298,"location_subtype":"","month":"2019-05"},{"category":"anti-social-behaviour","location_type":"Force","location":{"latitude":"51.581294","street":{"id":973659,"name":"On or near Cannon Lane"},"longitude":"-0.381401"},"context":"","outcome_status":null,"persistent_id":"","id":74272295,"location_subtype":"","month":"2019-05"},{"category":"anti-social-behaviour","location_type":"Force","location":{"latitude":"51.597759","street":{"id":979683,"name":"On or near Petrol Station"},"longitude":"-0.393868"},"context":"","outcome_status":null,"persistent_id":"","id":74272308,"location_subtype":"","month":"2019-05"},{"category":"anti-social-behaviour","location_type":"Force","location":{"latitude":"51.591850","street":{"id":979687,"name":"On or near Parking Area"},"longitude":"-0.378080"},"context":"","outcome_status":null,"persistent_id":"","id":74272290,"location_subtype":"","month":"2019-05"},{"category":"anti-social-behaviour","location_type":"Force","location":{"latitude":"51.591850","street":{"id":979687,"name":"On or near Parking Area"},"longitude":"-0.378080"},"context":"","outcome_status":null,"persistent_id":"","id":74272289,"location_subtype":"","month":"2019-05"},{"category":"anti-social-behaviour","location_type":"Force","location":{"latitude":"51.591850","street":{"id":979687,"name":"On or near Parking Area"},"longitude":"-0.378080"},"context":"","outcome_status":null,"persistent_id":"","id":74272288,"location_subtype":"","month":"2019-05"},{"category":"anti-social-behaviour","location_type":"Force","location":{"latitude":"51.584147","street":{"id":973773,"name":"On or near Lancaster Road"},"longitude":"-0.364700"},"context":"","outcome_status":null,"persistent_id":"","id":74272233,"location_subtype":"","month":"2019-05"},{"category":"anti-social-behaviour","location_type":"Force","location":{"latitude":"51.589224","street":{"id":979616,"name":"On or near Southfield Park"},"longitude":"-0.360548"},"context":"","outcome_status":null,"persistent_id":"","id":74272213,"location_subtype":"","month":"2019-05"},{"category":"anti-social-behaviour","location_type":"Force","location":{"latitude":"51.586955","street":{"id":973741,"name":"On or near Canterbury Road"},"longitude":"-0.361683"},"context":"","outcome_status":null,"persistent_id":"","id":74272219,"location_subtype":"","month":"2019-05"},{"category":"anti-social-behaviour","location_type":"Force","location":{"latitude":"51.589582","street":{"id":979620,"name":"On or near South Way"},"longitude":"-0.364952"},"context":"","outcome_status":null,"persistent_id":"","id":74272237,"location_subtype":"","month":"2019-05"},{"category":"anti-social-behaviour","location_type":"Force","location":{"latitude":"51.587864","street":{"id":973747,"name":"On or near Hooking Green"},"longitude":"-0.361088"},"context":"","outcome_status":null,"persistent_id":"","id":74272214,"location_subtype":"","month":"2019-05"},{"category":"anti-social-behaviour","location_type":"Force","location":{"latitude":"51.587864","street":{"id":973747,"name":"On or near Hooking Green"},"longitude":"-0.361088"},"context":"","outcome_status":null,"persistent_id":"","id":74272215,"location_subtype":"","month":"2019-05"},{"category":"anti-social-behaviour","location_type":"Force","location":{"latitude":"51.587864","street":{"id":973747,"name":"On or near Hooking Green"},"longitude":"-0.361088"},"context":"","outcome_status":null,"persistent_id":"","id":74272216,"location_subtype":"","month":"2019-05"},{"category":"anti-social-behaviour","location_type":"Force","location":{"latitude":"51.587864","street":{"id":973747,"name":"On or near Hooking Green"},"longitude":"-0.361088"},"context":"","outcome_status":null,"persistent_id":"","id":74272217,"location_subtype":"","month":"2019-05"},{"category":"anti-social-behaviour","location_type":"Force","location":{"latitude":"51.592893","street":{"id":979604,"name":"On or near Hillview Gardens"},"longitude":"-0.363837"},"context":"","outcome_status":null,"persistent_id":"","id":74272231,"location_subtype":"","month":"2019-05"},{"category":"burglary","location_type":"Force","location":{"latitude":"51.593902","street":{"id":979670,"name":"On or near Cuckoo Hill"},"longitude":"-0.396530"},"context":"","outcome_status":{"category":"Status update unavailable","date":"2019-09"},"persistent_id":"9c8a240ec6f687508edc56f6976f8640a50d454eea4a6d22966be46193938ad7","id":74337068,"location_subtype":"","month":"2019-05"},{"category":"burglary","location_type":"Force","location":{"latitude":"51.597476","street":{"id":979707,"name":"On or near East End Way"},"longitude":"-0.377866"},"context":"","outcome_status":{"category":"Status update unavailable","date":"2019-09"},"persistent_id":"556a969ffc75dea4ca1d90884ea222ba2b050cc59641608258ad4f78c0508f77","id":74303801,"location_subtype":"","month":"2019-05"},{"category":"burglary","location_type":"Force","location":{"latitude":"51.584992","street":{"id":973672,"name":"On or near Rosecroft Walk"},"longitude":"-0.386740"},"context":"","outcome_status":{"category":"Status update unavailable","date":"2019-09"},"persistent_id":"2430ca147133e3ed45e24063edf889ab43c4cec1123959aae11cc762e73ce01c","id":74341079,"location_subtype":"","month":"2019-05"},{"category":"burglary","location_type":"Force","location":{"latitude":"51.595610","street":{"id":979690,"name":"On or near Parking Area"},"longitude":"-0.381455"},"context":"","outcome_status":{"category":"Status update unavailable","date":"2019-09"},"persistent_id":"f0dccb2953fe6703e33ee3a0da88aebf0b81f37bb9be2cc530208dcc82d60a6c","id":74341080,"location_subtype":"","month":"2019-05"},{"category":"burglary","location_type":"Force","location":{"latitude":"51.584609","street":{"id":973680,"name":"On or near Lawrence Road"},"longitude":"-0.387720"},"context":"","outcome_status":{"category":"Status update unavailable","date":"2019-09"},"persistent_id":"0922ea6bf522e2c364c58c022e5a039ef7e3be385fa4c7cf3122cf9b4fef2c47","id":74356899,"location_subtype":"","month":"2019-05"},{"category":"burglary","location_type":"Force","location":{"latitude":"51.588145","street":{"id":973748,"name":"On or near Supermarket"},"longitude":"-0.363156"},"context":"","outcome_status":{"category":"Status update unavailable","date":"2019-09"},"persistent_id":"b3c5ca7d10f7b42e4c256ef8247a2f23bcc4cfbd9791a3b4cd389477c5032c78","id":74324652,"location_subtype":"","month":"2019-05"},{"category":"burglary","location_type":"Force","location":{"latitude":"51.596989","street":{"id":979726,"name":"On or near Supermarket"},"longitude":"-0.395425"},"context":"","outcome_status":{"category":"Status update unavailable","date":"2019-09"},"persistent_id":"1c8f7122205c63429f06748cefcf9f611e3d85a96f7abaacfd96e32705967194","id":74309768,"location_subtype":"","month":"2019-05"},{"category":"burglary","location_type":"Force","location":{"latitude":"51.582187","street":{"id":973789,"name":"On or near Church Avenue"},"longitude":"-0.376389"},"context":"","outcome_status":{"category":"Court result unavailable","date":"2019-12"},"persistent_id":"457e405d83a72d6d20a60d852851304ad63066fc1a9a783220763a6462c03227","id":74316499,"location_subtype":"","month":"2019-05"},{"category":"burglary","location_type":"Force","location":{"latitude":"51.587812","street":{"id":973639,"name":"On or near Vale Croft"},"longitude":"-0.382627"},"context":"","outcome_status":{"category":"Status update unavailable","date":"2019-09"},"persistent_id":"e356aa94d8c541a2e061c199796fc7db3d1b948aff92476deb98afe1ac9a2354","id":74318733,"location_subtype":"","month":"2019-05"},{"category":"burglary","location_type":"Force","location":{"latitude":"51.590404","street":{"id":979692,"name":"On or near Wentworth Way"},"longitude":"-0.384729"},"context":"","outcome_status":{"category":"Status update unavailable","date":"2019-09"},"persistent_id":"8c148cdc0a57cba3e8fb76ad853e65abf07b75477ad0afae532e198db180a082","id":74318845,"location_subtype":"","month":"2019-05"},{"category":"burglary","location_type":"Force","location":{"latitude":"51.601489","street":{"id":979711,"name":"On or near Burhill Grove"},"longitude":"-0.381304"},"context":"","outcome_status":{"category":"Status update unavailable","date":"2019-09"},"persistent_id":"c35805d7a2db953495d57fb45b5e21085425e3106a0362a68a39bbe914e6049a","id":74336641,"location_subtype":"","month":"2019-05"},{"category":"burglary","location_type":"Force","location":{"latitude":"51.605347","street":{"id":980175,"name":"On or near Wellington Avenue"},"longitude":"-0.373513"},"context":"","outcome_status":{"category":"Status update unavailable","date":"2019-09"},"persistent_id":"da52367cca62117d6572301928570b2b5d14e17262ffd939fad8163abf2112b8","id":74337069,"location_subtype":"","month":"2019-05"},{"category":"burglary","location_type":"Force","location":{"latitude":"51.584147","street":{"id":973773,"name":"On or near Lancaster Road"},"longitude":"-0.364700"},"context":"","outcome_status":{"category":"Status update unavailable","date":"2019-09"},"persistent_id":"475b378bae2e2d3ff075d01a7275171ce1beef0cb3d5f9a5783935f6a0f26246","id":74337155,"location_subtype":"","month":"2019-05"},{"category":"burglary","location_type":"Force","location":{"latitude":"51.593370","street":{"id":979718,"name":"On or near Supermarket"},"longitude":"-0.380711"},"context":"","outcome_status":{"category":"Status update unavailable","date":"2019-09"},"persistent_id":"cd10a21d5b0a22a6a3a53f01f89e59e139568c67d540ddd6a14ad44f3e0f5ff1","id":74342076,"location_subtype":"","month":"2019-05"},{"category":"burglary","location_type":"Force","location":{"latitude":"51.596832","street":{"id":979631,"name":"On or near West End Lane"},"longitude":"-0.389843"},"context":"","outcome_status":{"category":"Status update unavailable","date":"2019-09"},"persistent_id":"51cb4f290bf245c35161816a3cb4746e41487edeaa876e1123274f800697c05e","id":74344669,"location_subtype":"","month":"2019-05"},{"category":"burglary","location_type":"Force","location":{"latitude":"51.585317","street":{"id":973731,"name":"On or near Station Road"},"longitude":"-0.361569"},"context":"","outcome_status":{"category":"Status update unavailable","date":"2019-09"},"persistent_id":"3933e4d8ed91f669528cd6136c6558376a5b0de6c5645fc4f7f1fdb25de04095","id":74359961,"location_subtype":"","month":"2019-05"},{"category":"criminal-damage-arson","location_type":"Force","location":{"latitude":"51.596989","street":{"id":979726,"name":"On or near Supermarket"},"longitude":"-0.395425"},"context":"","outcome_status":{"category":"Court result unavailable","date":"2019-11"},"persistent_id":"6c443169156bffaceb8e13eac95ac6787a30ac4f2bac6461c547441d37a6d617","id":74371477,"location_subtype":"","month":"2019-05"},{"category":"criminal-damage-arson","location_type":"Force","location":{"latitude":"51.588484","street":{"id":979720,"name":"On or near Pinner Grove"},"longitude":"-0.379846"},"context":"","outcome_status":{"category":"Status update unavailable","date":"2019-09"},"persistent_id":"2fbcc45deae11b4cca7b9cc7c7bf1afe72792f00439b2b1bd95173024662db27","id":74315854,"location_subtype":"","month":"2019-05"},{"category":"criminal-damage-arson","location_type":"Force","location":{"latitude":"51.599680","street":{"id":979652,"name":"On or near Mill Farm Close"},"longitude":"-0.396875"},"context":"","outcome_status":{"category":"Investigation complete; no suspect identified","date":"2020-06"},"persistent_id":"c9ddf9b473f222b93839b5b5400781fcd2dea462ca3c6b287fc13c0d0df7c01e","id":74366947,"location_subtype":"","month":"2019-05"},{"category":"criminal-damage-arson","location_type":"Force","location":{"latitude":"51.593080","street":{"id":979771,"name":"On or near Wrenwood Way"},"longitude":"-0.401540"},"context":"","outcome_status":{"category":"Status update unavailable","date":"2019-09"},"persistent_id":"f9dde1be4d1f017eda53c0626b1fe79c194b214528dd3c90d5210d8781921cf4","id":74327223,"location_subtype":"","month":"2019-05"},{"category":"criminal-damage-arson","location_type":"Force","location":{"latitude":"51.601489","street":{"id":979711,"name":"On or near Burhill Grove"},"longitude":"-0.381304"},"context":"","outcome_status":{"category":"Investigation complete; no suspect identified","date":"2020-05"},"persistent_id":"7abe39429d1a4f2daa53dd976dc3434ecc9cbe427b78c156a180eddd4cba071b","id":74338116,"location_subtype":"","month":"2019-05"},{"category":"criminal-damage-arson","location_type":"Force","location":{"latitude":"51.591560","street":{"id":979589,"name":"On or near Copperfield Way"},"longitude":"-0.372735"},"context":"","outcome_status":{"category":"Status update unavailable","date":"2019-09"},"persistent_id":"4cc17a2d8a53eb767d8b58b9bbfad64003c4a1130b268bc6f0a742b09e553e35","id":74328011,"location_subtype":"","month":"2019-05"},{"category":"criminal-damage-arson","location_type":"Force","location":{"latitude":"51.582427","street":{"id":973756,"name":"On or near The Gardens"},"longitude":"-0.373566"},"context":"","outcome_status":{"category":"Status update unavailable","date":"2019-09"},"persistent_id":"8a45aa3b75c0ee09405220169ee7e07f6c3773fc8e251b9f24a5acc76cbac531","id":74348150,"location_subtype":"","month":"2019-05"},{"category":"criminal-damage-arson","location_type":"Force","location":{"latitude":"51.588788","street":{"id":979722,"name":"On or near Grove Avenue"},"longitude":"-0.379070"},"context":"","outcome_status":{"category":"Status update unavailable","date":"2019-09"},"persistent_id":"8356e30912bf6d3e475e331335426ab6f4410894bd068bb3d41ca76691c9c1ac","id":74360212,"location_subtype":"","month":"2019-05"},{"category":"drugs","location_type":"Force","location":{"latitude":"51.587371","street":{"id":973768,"name":"On or near Mount Drive"},"longitude":"-0.372177"},"context":"","outcome_status":{"category":"Offender given penalty notice","date":"2019-05"},"persistent_id":"ab3255e97161d08216a5ca6226573c34947d601072026f7b7c05c332dcce65de","id":74303439,"location_subtype":"","month":"2019-05"},{"category":"drugs","location_type":"Force","location":{"latitude":"51.605340","street":{"id":980085,"name":"On or near Uxbridge Road (hatch End)"},"longitude":"-0.379477"},"context":"","outcome_status":{"category":"Local resolution","date":"2019-05"},"persistent_id":"6993b54e5174b6fbb8c4e85120c77a6c90070305f913ef2f2d92d0f54c0f6c11","id":74315213,"location_subtype":"","month":"2019-05"},{"category":"drugs","location_type":"Force","location":{"latitude":"51.591138","street":{"id":979577,"name":"On or near The Chase"},"longitude":"-0.374699"},"context":"","outcome_status":{"category":"Court result unavailable","date":"2020-05"},"persistent_id":"5a534372f0070c7d4a03bbc4419e060add710727eb7f9894f3cbc422a31390a0","id":74313348,"location_subtype":"","month":"2019-05"},{"category":"drugs","location_type":"Force","location":{"latitude":"51.591409","street":{"id":979667,"name":"On or near Dickson Fold"},"longitude":"-0.386541"},"context":"","outcome_status":{"category":"Local resolution","date":"2019-06"},"persistent_id":"e6565f9518f33a99c4d2264998b4f4b7b81aece5fd70c91fcb04e27d096d09c3","id":74336454,"location_subtype":"","month":"2019-05"},{"category":"drugs","location_type":"Force","location":{"latitude":"51.589224","street":{"id":979616,"name":"On or near Southfield Park"},"longitude":"-0.360548"},"context":"","outcome_status":{"category":"Offender given penalty notice","date":"2019-05"},"persistent_id":"da07674d8684ba8f3f2b546c28b462835b078bb0231bce245136d2049ef0208a","id":74318081,"location_subtype":"","month":"2019-05"},{"category":"drugs","location_type":"Force","location":{"latitude":"51.584147","street":{"id":973773,"name":"On or near Lancaster Road"},"longitude":"-0.364700"},"context":"","outcome_status":{"category":"Local resolution","date":"2019-05"},"persistent_id":"fbebcbf76259e9e9beadfb8eea09043819de44d68b95482efaff4cd76c82b82e","id":74359611,"location_subtype":"","month":"2019-05"},{"category":"drugs","location_type":"Force","location":{"latitude":"51.589736","street":{"id":979615,"name":"On or near Southfield Park"},"longitude":"-0.363085"},"context":"","outcome_status":{"category":"Offender given penalty notice","date":"2019-05"},"persistent_id":"aa81dc68ef9b1f8dc849b76bd00f705878e6c675a5641169d5b35f5dd2c2f485","id":74364604,"location_subtype":"","month":"2019-05"},{"category":"other-theft","location_type":"Force","location":{"latitude":"51.596989","street":{"id":979726,"name":"On or near Supermarket"},"longitude":"-0.395425"},"context":"","outcome_status":{"category":"Investigation complete; no suspect identified","date":"2020-03"},"persistent_id":"7059680f421f5d73c74a4560fc177163231713a09099cc34f307bdb87569de55","id":74327138,"location_subtype":"","month":"2019-05"},{"category":"other-theft","location_type":"Force","location":{"latitude":"51.586955","street":{"id":973741,"name":"On or near Canterbury Road"},"longitude":"-0.361683"},"context":"","outcome_status":{"category":"Status update unavailable","date":"2019-09"},"persistent_id":"0e96c15546bdd85eeec8eb4d7c8d0772afd0060bb37de8263c56a57444cd9dc3","id":74295698,"location_subtype":"","month":"2019-05"},{"category":"other-theft","location_type":"Force","location":{"latitude":"51.590639","street":{"id":979581,"name":"On or near Pinner Road"},"longitude":"-0.368523"},"context":"","outcome_status":{"category":"Status update unavailable","date":"2019-09"},"persistent_id":"781b1536ff763ff4748ead214902af8f6e9d11b5add12334d0996c685af7d2ad","id":74293636,"location_subtype":"","month":"2019-05"},{"category":"other-theft","location_type":"Force","location":{"latitude":"51.586955","street":{"id":973741,"name":"On or near Canterbury Road"},"longitude":"-0.361683"},"context":"","outcome_status":{"category":"Status update unavailable","date":"2019-09"},"persistent_id":"72f3d46244b18f0dd12353494e8c5f0d2a86dd60143e275f3b993f5b08729a33","id":74294455,"location_subtype":"","month":"2019-05"},{"category":"other-theft","location_type":"Force","location":{"latitude":"51.596989","street":{"id":979726,"name":"On or near Supermarket"},"longitude":"-0.395425"},"context":"","outcome_status":{"category":"Status update unavailable","date":"2019-09"},"persistent_id":"25886eac37b27d230265d0e25f7a71e6ba912aaea5cce734a8c2bce47456cd2f","id":74362370,"location_subtype":"","month":"2019-05"},{"category":"other-theft","location_type":"Force","location":{"latitude":"51.593370","street":{"id":979718,"name":"On or near Supermarket"},"longitude":"-0.380711"},"context":"","outcome_status":{"category":"Status update unavailable","date":"2019-09"},"persistent_id":"49abda244fd7e4266cd4405d7c00a60b45f0fc1466c5b9490f308d72a0ee3f65","id":74324793,"location_subtype":"","month":"2019-05"},{"category":"other-theft","location_type":"BTP","location":{"latitude":"51.592800","street":{"id":1488633,"name":"Pinner (lu Station)"},"longitude":"-0.381032"},"context":"","outcome_status":{"category":"Status update unavailable","date":"2019-09"},"persistent_id":"","id":88717891,"location_subtype":"LU STATION","month":"2019-05"},{"category":"other-theft","location_type":"Force","location":{"latitude":"51.593370","street":{"id":979718,"name":"On or near Supermarket"},"longitude":"-0.380711"},"context":"","outcome_status":{"category":"Status update unavailable","date":"2019-09"},"persistent_id":"825198be252b6a133ff2c2de413675527a2b882ad3fc7019e74c7d528f7035df","id":74309177,"location_subtype":"","month":"2019-05"},{"category":"other-theft","location_type":"Force","location":{"latitude":"51.589582","street":{"id":979620,"name":"On or near South Way"},"longitude":"-0.364952"},"context":"","outcome_status":{"category":"Status update unavailable","date":"2019-09"},"persistent_id":"e5c7e3c5d3a29ca256f6ada28de5340d857968f8814b7f7fc0930faba7b8dffa","id":74334334,"location_subtype":"","month":"2019-05"},{"category":"other-theft","location_type":"Force","location":{"latitude":"51.582500","street":{"id":973772,"name":"On or near Lankers Drive"},"longitude":"-0.371716"},"context":"","outcome_status":{"category":"Status update unavailable","date":"2019-09"},"persistent_id":"fb2186917e8dcac2dc2ddcb77fc02a51d6bc67ca45fe367fe27b769543bc5b48","id":74328600,"location_subtype":"","month":"2019-05"},{"category":"other-theft","location_type":"Force","location":{"latitude":"51.586955","street":{"id":973741,"name":"On or near Canterbury Road"},"longitude":"-0.361683"},"context":"","outcome_status":{"category":"Status update unavailable","date":"2019-09"},"persistent_id":"e03ddd72978893799a40a17b721344e210db9abd036612eb81a7c8d8e2471f19","id":74317473,"location_subtype":"","month":"2019-05"},{"category":"other-theft","location_type":"Force","location":{"latitude":"51.595400","street":{"id":979685,"name":"On or near Supermarket"},"longitude":"-0.385144"},"context":"","outcome_status":{"category":"Status update unavailable","date":"2019-09"},"persistent_id":"0f9f2846256461cf90a734faba63620dda10cb87eeaa9f315695211854d3665e","id":74326957,"location_subtype":"","month":"2019-05"},{"category":"public-order","location_type":"Force","location":{"latitude":"51.599680","street":{"id":979652,"name":"On or near Mill Farm Close"},"longitude":"-0.396875"},"context":"","outcome_status":{"category":"Investigation complete; no suspect identified","date":"2020-05"},"persistent_id":"b73d2f27154bf91792941f7fd8d28fd7f0b17e0e29b4bbaa3e16d6af23cdc8f7","id":74333696,"location_subtype":"","month":"2019-05"},{"category":"public-order","location_type":"Force","location":{"latitude":"51.586604","street":{"id":973728,"name":"On or near Parking Area"},"longitude":"-0.362908"},"context":"","outcome_status":{"category":"Status update unavailable","date":"2019-09"},"persistent_id":"fd7e54cbeb739cfc727edc2b105ef20b9442fcf36c6b7eae971351f6c0e6a9b4","id":74350503,"location_subtype":"","month":"2019-05"},{"category":"public-order","location_type":"Force","location":{"latitude":"51.599184","street":{"id":979650,"name":"On or near Montesole Court"},"longitude":"-0.393485"},"context":"","outcome_status":{"category":"Status update unavailable","date":"2019-09"},"persistent_id":"dc1e24df330aad00effe54fc0275e44878cc280fc7fd994304732b66c8c45f31","id":74311813,"location_subtype":"","month":"2019-05"},{"category":"public-order","location_type":"Force","location":{"latitude":"51.596989","street":{"id":979726,"name":"On or near Supermarket"},"longitude":"-0.395425"},"context":"","outcome_status":{"category":"Status update unavailable","date":"2019-09"},"persistent_id":"d2672c64718c1e3bc18ff5714bad3594d72c26852b626eff17f3844c8c200d9f","id":74341756,"location_subtype":"","month":"2019-05"},{"category":"robbery","location_type":"Force","location":{"latitude":"51.580689","street":{"id":973784,"name":"On or near Dukes Avenue"},"longitude":"-0.370814"},"context":"","outcome_status":{"category":"Status update unavailable","date":"2019-09"},"persistent_id":"7d4306a44d0d3a0071aab822fb4b834c3ca982d5ccdefa5325ee9c4f0e5615ff","id":74343220,"location_subtype":"","month":"2019-05"},{"category":"robbery","location_type":"Force","location":{"latitude":"51.587809","street":{"id":973679,"name":"On or near Lloyd Court"},"longitude":"-0.386958"},"context":"","outcome_status":{"category":"Status update unavailable","date":"2019-09"},"persistent_id":"c40989f6ff064c23ec41d32f41d1af19f13dd2b860ee6c3e76a31d7b9a838aed","id":74337830,"location_subtype":"","month":"2019-05"},{"category":"robbery","location_type":"Force","location":{"latitude":"51.595905","street":{"id":979663,"name":"On or near Granville Place"},"longitude":"-0.386526"},"context":"","outcome_status":{"category":"Investigation complete; no suspect identified","date":"2020-03"},"persistent_id":"92dfe3131b54cfb3185396d6f39c87ffc15db8cb29d4b3b8c6eb76568e561c2f","id":74296034,"location_subtype":"","month":"2019-05"},{"category":"robbery","location_type":"Force","location":{"latitude":"51.601489","street":{"id":979711,"name":"On or near Burhill Grove"},"longitude":"-0.381304"},"context":"","outcome_status":{"category":"Status update unavailable","date":"2019-09"},"persistent_id":"9032bfb899e6e687393a87d2b097c7c9dc8a2db6084a84628a773de348d81988","id":74341337,"location_subtype":"","month":"2019-05"},{"category":"robbery","location_type":"Force","location":{"latitude":"51.597445","street":{"id":979681,"name":"On or near Ash Hill Drive"},"longitude":"-0.395207"},"context":"","outcome_status":{"category":"Status update unavailable","date":"2019-09"},"persistent_id":"acd2a75baf2213a4b7107cbb997904c90589f5eea1918233ac74940ef65e861a","id":74317725,"location_subtype":"","month":"2019-05"},{"category":"shoplifting","location_type":"Force","location":{"latitude":"51.596989","street":{"id":979726,"name":"On or near Supermarket"},"longitude":"-0.395425"},"context":"","outcome_status":{"category":"Status update unavailable","date":"2019-09"},"persistent_id":"cf27888aa44dbffb71483aeb6d550d94e043f44715f5625b79e66a4b2872a2c0","id":74317474,"location_subtype":"","month":"2019-05"},{"category":"shoplifting","location_type":"Force","location":{"latitude":"51.588145","street":{"id":973748,"name":"On or near Supermarket"},"longitude":"-0.363156"},"context":"","outcome_status":{"category":"Court result unavailable","date":"2020-04"},"persistent_id":"2ff9031eaf6f7cff2a8e7b20348e04f28382f508c1a3b9319539a4634e64556b","id":74324065,"location_subtype":"","month":"2019-05"},{"category":"shoplifting","location_type":"Force","location":{"latitude":"51.594712","street":{"id":979712,"name":"On or near Bridge Street"},"longitude":"-0.383479"},"context":"","outcome_status":{"category":"Status update unavailable","date":"2019-09"},"persistent_id":"c1a58b6b94f9ef4d7ba826ef84fce12890a8134c8a93c710303d7f77ee5c2b96","id":74313896,"location_subtype":"","month":"2019-05"},{"category":"shoplifting","location_type":"Force","location":{"latitude":"51.595400","street":{"id":979685,"name":"On or near Supermarket"},"longitude":"-0.385144"},"context":"","outcome_status":{"category":"Status update unavailable","date":"2019-09"},"persistent_id":"9ba412d58786cac8027eca42f4b33d831eacd30df88472fdb7ce6e995425aeef","id":74295699,"location_subtype":"","month":"2019-05"},{"category":"shoplifting","location_type":"Force","location":{"latitude":"51.596989","street":{"id":979726,"name":"On or near Supermarket"},"longitude":"-0.395425"},"context":"","outcome_status":{"category":"Status update unavailable","date":"2019-09"},"persistent_id":"729b5e65ab173a84c23cedc297f60c3aa0f0f10cbf3edadc5fe92e85737d8732","id":74337178,"location_subtype":"","month":"2019-05"},{"category":"shoplifting","location_type":"Force","location":{"latitude":"51.597759","street":{"id":979683,"name":"On or near Petrol Station"},"longitude":"-0.393868"},"context":"","outcome_status":{"category":"Status update unavailable","date":"2019-09"},"persistent_id":"2fd52cb9d744c1f07a39987a9cd0a833eacfc4ec5316d9a3edf79800d2fedeab","id":74337954,"location_subtype":"","month":"2019-05"},{"category":"shoplifting","location_type":"Force","location":{"latitude":"51.588145","street":{"id":973748,"name":"On or near Supermarket"},"longitude":"-0.363156"},"context":"","outcome_status":{"category":"Status update unavailable","date":"2019-09"},"persistent_id":"0b72e70add010ab1785adcf342cbf9d8f789c28969baa718901d4594eca871e4","id":74346234,"location_subtype":"","month":"2019-05"},{"category":"shoplifting","location_type":"Force","location":{"latitude":"51.596989","street":{"id":979726,"name":"On or near Supermarket"},"longitude":"-0.395425"},"context":"","outcome_status":{"category":"Status update unavailable","date":"2019-09"},"persistent_id":"e2d1179121e29cd94c67b504835b6e7868fdf5687fa5c4ea2630ec8066430598","id":74362961,"location_subtype":"","month":"2019-05"},{"category":"shoplifting","location_type":"Force","location":{"latitude":"51.593370","street":{"id":979718,"name":"On or near Supermarket"},"longitude":"-0.380711"},"context":"","outcome_status":{"category":"Status update unavailable","date":"2019-09"},"persistent_id":"7131fe737b308338860b5bfc34c6aa92f339e5e85b49a5274a15bd2ab0d6b284","id":74365181,"location_subtype":"","month":"2019-05"},{"category":"theft-from-the-person","location_type":"Force","location":{"latitude":"51.595400","street":{"id":979685,"name":"On or near Supermarket"},"longitude":"-0.385144"},"context":"","outcome_status":{"category":"Investigation complete; no suspect identified","date":"2020-03"},"persistent_id":"b3cdc04a24450ddd1d075eed3398aa31e9dbc4ce5861cb1ac35053b0d584b010","id":74333892,"location_subtype":"","month":"2019-05"},{"category":"theft-from-the-person","location_type":"Force","location":{"latitude":"51.602259","street":{"id":980128,"name":"On or near Jubilee Close"},"longitude":"-0.394792"},"context":"","outcome_status":{"category":"Status update unavailable","date":"2019-09"},"persistent_id":"3e3d41425fe222055f141e8d8eba4f55631f925555040820f82cc53579ddd2c6","id":74362250,"location_subtype":"","month":"2019-05"},{"category":"theft-from-the-person","location_type":"Force","location":{"latitude":"51.593987","street":{"id":979709,"name":"On or near Chapel Lane"},"longitude":"-0.383028"},"context":"","outcome_status":{"category":"Status update unavailable","date":"2019-09"},"persistent_id":"e8d813ff8016e8d51ec66aaec70e2781fff016190c5b855cf354ea6786a001d3","id":74333033,"location_subtype":"","month":"2019-05"},{"category":"theft-from-the-person","location_type":"Force","location":{"latitude":"51.598146","street":{"id":979644,"name":"On or near Pinner Green"},"longitude":"-0.393897"},"context":"","outcome_status":{"category":"Investigation complete; no suspect identified","date":"2020-03"},"persistent_id":"3d73508d44090d149859294e4b5e6db05796ab1158cb7c9f3fa2feb45711c8c9","id":74342079,"location_subtype":"","month":"2019-05"},{"category":"theft-from-the-person","location_type":"Force","location":{"latitude":"51.606554","street":{"id":980095,"name":"On or near Littlecote Place"},"longitude":"-0.376892"},"context":"","outcome_status":{"category":"Status update unavailable","date":"2019-09"},"persistent_id":"aa61d220ac4098e17dd164b1345275e8edd10aff3d0f1193a61633c25336fb7d","id":74336957,"location_subtype":"","month":"2019-05"},{"category":"theft-from-the-person","location_type":"Force","location":{"latitude":"51.591272","street":{"id":979717,"name":"On or near Petrol Station"},"longitude":"-0.381161"},"context":"","outcome_status":{"category":"Status update unavailable","date":"2019-09"},"persistent_id":"5fdfd56991b2d0db1d73c5dc5e2047e0b4a05bb0d52c62bfaef2a9250c096fae","id":74332489,"location_subtype":"","month":"2019-05"},{"category":"theft-from-the-person","location_type":"Force","location":{"latitude":"51.594712","street":{"id":979712,"name":"On or near Bridge Street"},"longitude":"-0.383479"},"context":"","outcome_status":{"category":"Status update unavailable","date":"2019-09"},"persistent_id":"78eaabbc61969e322c2f2d1472836c6126e490db5cf14fcd3b9ed890787b8521","id":74306032,"location_subtype":"","month":"2019-05"},{"category":"vehicle-crime","location_type":"Force","location":{"latitude":"51.585317","street":{"id":973731,"name":"On or near Station Road"},"longitude":"-0.361569"},"context":"","outcome_status":{"category":"Status update unavailable","date":"2019-09"},"persistent_id":"2e1a776d4e861fb6eb8fc14af51c35007fef5fe81e33c992e5ddcf061107d7b9","id":74340589,"location_subtype":"","month":"2019-05"},{"category":"vehicle-crime","location_type":"Force","location":{"latitude":"51.586620","street":{"id":973762,"name":"On or near Rayners Lane"},"longitude":"-0.375062"},"context":"","outcome_status":{"category":"Status update unavailable","date":"2019-09"},"persistent_id":"7c285dc1790dd45f7dc93d28eb91e88767d7faba72560e9f463ec3642d0cf0ec","id":74322761,"location_subtype":"","month":"2019-05"},{"category":"vehicle-crime","location_type":"Force","location":{"latitude":"51.599680","street":{"id":979652,"name":"On or near Mill Farm Close"},"longitude":"-0.396875"},"context":"","outcome_status":{"category":"Status update unavailable","date":"2019-09"},"persistent_id":"238777856baf43e3c409de1458a7c671b44bda39039417ca80003bdae2bbe773","id":74319684,"location_subtype":"","month":"2019-05"},{"category":"vehicle-crime","location_type":"Force","location":{"latitude":"51.583807","street":{"id":973790,"name":"On or near Chester Drive"},"longitude":"-0.368046"},"context":"","outcome_status":{"category":"Status update unavailable","date":"2019-09"},"persistent_id":"4a5cf1e3a7905e39955794c581e29f9621b3672e995394fdecb153a4e4bcd9f1","id":74340918,"location_subtype":"","month":"2019-05"},{"category":"vehicle-crime","location_type":"Force","location":{"latitude":"51.594748","street":{"id":979593,"name":"On or near Beechengrove"},"longitude":"-0.375667"},"context":"","outcome_status":{"category":"Status update unavailable","date":"2019-09"},"persistent_id":"6df897244d43e3f0647fda9cc56a75b7edfcb8d8514da59044754492f962baf8","id":74352577,"location_subtype":"","month":"2019-05"},{"category":"vehicle-crime","location_type":"Force","location":{"latitude":"51.586865","street":{"id":973792,"name":"On or near Cambridge Road"},"longitude":"-0.365497"},"context":"","outcome_status":{"category":"Status update unavailable","date":"2019-09"},"persistent_id":"f8919bac1eaa8c22de8623ec5a7fb048a917cafe47bffe52fc838fff80fc53ef","id":74328393,"location_subtype":"","month":"2019-05"},{"category":"vehicle-crime","location_type":"Force","location":{"latitude":"51.601832","street":{"id":980125,"name":"On or near Uxbridge Road (pinner)"},"longitude":"-0.388598"},"context":"","outcome_status":{"category":"Status update unavailable","date":"2019-09"},"persistent_id":"2b50d6c6bd9aa7946bd162b1e62d7805ef152c7bc9b103dc599afe3231884af2","id":74354682,"location_subtype":"","month":"2019-05"},{"category":"vehicle-crime","location_type":"Force","location":{"latitude":"51.579960","street":{"id":973793,"name":"On or near Brunswick Close"},"longitude":"-0.377219"},"context":"","outcome_status":{"category":"Status update unavailable","date":"2019-09"},"persistent_id":"3495f92438da1282f8afa7ff9a365c023b584bbdf6dd6f998fd8ede8d1ce04c6","id":74367974,"location_subtype":"","month":"2019-05"},{"category":"vehicle-crime","location_type":"Force","location":{"latitude":"51.598083","street":{"id":979583,"name":"On or near Moss Lane"},"longitude":"-0.376241"},"context":"","outcome_status":{"category":"Status update unavailable","date":"2019-09"},"persistent_id":"1857924d130ef2de76fad7de6cf41f059ba33f245e74b20d90c735ff473cc66a","id":74329655,"location_subtype":"","month":"2019-05"},{"category":"vehicle-crime","location_type":"Force","location":{"latitude":"51.587371","street":{"id":973768,"name":"On or near Mount Drive"},"longitude":"-0.372177"},"context":"","outcome_status":{"category":"Court result unavailable","date":"2019-11"},"persistent_id":"09c69ea67641305d5c1052d39f7574132ec2477f762f08859b51fb43a61b1cd9","id":74365811,"location_subtype":"","month":"2019-05"},{"category":"vehicle-crime","location_type":"Force","location":{"latitude":"51.602397","street":{"id":980130,"name":"On or near Woodhall Avenue"},"longitude":"-0.383249"},"context":"","outcome_status":{"category":"Status update unavailable","date":"2019-09"},"persistent_id":"fde2b7a9a3f3e0fd634cf56aaef6bd0866484321dedbb13e4e2242a472f5ca58","id":74364985,"location_subtype":"","month":"2019-05"},{"category":"vehicle-crime","location_type":"Force","location":{"latitude":"51.583575","street":{"id":973690,"name":"On or near East Towers"},"longitude":"-0.388984"},"context":"","outcome_status":{"category":"Status update unavailable","date":"2019-09"},"persistent_id":"a0f551cc485d7bbf62db95ca565d33bb507ba7ecb7395abcbe78323503e7fffd","id":74306407,"location_subtype":"","month":"2019-05"},{"category":"vehicle-crime","location_type":"Force","location":{"latitude":"51.581294","street":{"id":973659,"name":"On or near Cannon Lane"},"longitude":"-0.381401"},"context":"","outcome_status":{"category":"Status update unavailable","date":"2019-09"},"persistent_id":"768fcab49690737c0d84fb0aab53132c6f3f5676e47268203452b6c442b21ebe","id":74311444,"location_subtype":"","month":"2019-05"},{"category":"vehicle-crime","location_type":"Force","location":{"latitude":"51.604302","street":{"id":980111,"name":"On or near Latimer Close"},"longitude":"-0.394243"},"context":"","outcome_status":{"category":"Status update unavailable","date":"2019-09"},"persistent_id":"a2d0b17c9106723006afb9741c27ee325925b3ddfc226cd67b6433e29ae4d6c3","id":74311194,"location_subtype":"","month":"2019-05"},{"category":"vehicle-crime","location_type":"Force","location":{"latitude":"51.605340","street":{"id":980085,"name":"On or near Uxbridge Road (hatch End)"},"longitude":"-0.379477"},"context":"","outcome_status":{"category":"Investigation complete; no suspect identified","date":"2020-05"},"persistent_id":"71f57811dd6c1d81806c4e9351c6a1679d3da3fbb962c2f83b403f924c7cfa93","id":74324916,"location_subtype":"","month":"2019-05"},{"category":"vehicle-crime","location_type":"Force","location":{"latitude":"51.594903","street":{"id":979793,"name":"On or near Chamberlain Way"},"longitude":"-0.400032"},"context":"","outcome_status":{"category":"Status update unavailable","date":"2019-09"},"persistent_id":"8a4e73eb5091fd99c4906864e28490d2bbc1be1d9c4429462108cafa5b2000a8","id":74335354,"location_subtype":"","month":"2019-05"},{"category":"vehicle-crime","location_type":"Force","location":{"latitude":"51.601458","street":{"id":979656,"name":"On or near James Bedford Close"},"longitude":"-0.395426"},"context":"","outcome_status":{"category":"Status update unavailable","date":"2019-09"},"persistent_id":"d2802fbaae3856a3fdb68d05c2a915ffdb332aae627c7c0cee0bba365fa21b87","id":74339387,"location_subtype":"","month":"2019-05"},{"category":"vehicle-crime","location_type":"Force","location":{"latitude":"51.587864","street":{"id":973747,"name":"On or near Hooking Green"},"longitude":"-0.361088"},"context":"","outcome_status":{"category":"Status update unavailable","date":"2019-09"},"persistent_id":"d8a224ac614971956adfb513ea2b729c2f6fa61016b341aaffed7dd35fb3226b","id":74339520,"location_subtype":"","month":"2019-05"},{"category":"vehicle-crime","location_type":"Force","location":{"latitude":"51.590452","street":{"id":979800,"name":"On or near Rushmoor Close"},"longitude":"-0.399394"},"context":"","outcome_status":{"category":"Status update unavailable","date":"2019-09"},"persistent_id":"0bdf3a00b8ebeca2907056e53082f2879492cd9637f81c836ed78377ca1ff9b1","id":74340156,"location_subtype":"","month":"2019-05"},{"category":"violent-crime","location_type":"Force","location":{"latitude":"51.602596","street":{"id":980129,"name":"On or near Gippeswyck Close"},"longitude":"-0.386578"},"context":"","outcome_status":{"category":"Status update unavailable","date":"2019-09"},"persistent_id":"c66687cf9fda8111e680b8be8709cc519dd6a1305f6dffad2d3135fd7a3d79e8","id":74324838,"location_subtype":"","month":"2019-05"},{"category":"violent-crime","location_type":"Force","location":{"latitude":"51.584147","street":{"id":973773,"name":"On or near Lancaster Road"},"longitude":"-0.364700"},"context":"","outcome_status":{"category":"Status update unavailable","date":"2019-09"},"persistent_id":"88a1ded4112246eee71fa916dd2e3d370e239a91fed767a3d0be93f3512fa869","id":74360208,"location_subtype":"","month":"2019-05"},{"category":"violent-crime","location_type":"Force","location":{"latitude":"51.602596","street":{"id":980129,"name":"On or near Gippeswyck Close"},"longitude":"-0.386578"},"context":"","outcome_status":{"category":"Status update unavailable","date":"2019-09"},"persistent_id":"c66687cf9fda8111e680b8be8709cc519dd6a1305f6dffad2d3135fd7a3d79e8","id":74324837,"location_subtype":"","month":"2019-05"},{"category":"violent-crime","location_type":"Force","location":{"latitude":"51.600196","street":{"id":979789,"name":"On or near Deacons Close"},"longitude":"-0.399759"},"context":"","outcome_status":{"category":"Status update unavailable","date":"2019-09"},"persistent_id":"b953d73fa24de18f8211327c57a4e5b91222b80a70fa22522a2fa5c01ce5d0f5","id":74325883,"location_subtype":"","month":"2019-05"},{"category":"violent-crime","location_type":"Force","location":{"latitude":"51.587308","street":{"id":973732,"name":"On or near Station Road"},"longitude":"-0.359895"},"context":"","outcome_status":{"category":"Status update unavailable","date":"2019-09"},"persistent_id":"ba59a73505599a8ce3a974c08f5caa9ca23a47d5824cf46647fe11846ee00f03","id":74308214,"location_subtype":"","month":"2019-05"},{"category":"violent-crime","location_type":"Force","location":{"latitude":"51.588788","street":{"id":979722,"name":"On or near Grove Avenue"},"longitude":"-0.379070"},"context":"","outcome_status":{"category":"Status update unavailable","date":"2019-09"},"persistent_id":"04eb4ffc512860b617f1f9e4471004accd0d2ed7bbd124faba14870f54c2dc1b","id":74294268,"location_subtype":"","month":"2019-05"},{"category":"violent-crime","location_type":"Force","location":{"latitude":"51.594181","street":{"id":979705,"name":"On or near High Street"},"longitude":"-0.380856"},"context":"","outcome_status":{"category":"Status update unavailable","date":"2019-09"},"persistent_id":"7fa063b7b19c814fb9c87be3da3c9eaaa8c3763d42850fa3443da59bf7d15258","id":74367853,"location_subtype":"","month":"2019-05"},{"category":"violent-crime","location_type":"Force","location":{"latitude":"51.587812","street":{"id":973639,"name":"On or near Vale Croft"},"longitude":"-0.382627"},"context":"","outcome_status":{"category":"Status update unavailable","date":"2019-09"},"persistent_id":"177abd623f5342b95e33c72ae0ae7619455f86e8f568b1976319186d3b1c2a64","id":74304907,"location_subtype":"","month":"2019-05"},{"category":"violent-crime","location_type":"Force","location":{"latitude":"51.601509","street":{"id":979653,"name":"On or near Mercer Place"},"longitude":"-0.397172"},"context":"","outcome_status":{"category":"Status update unavailable","date":"2019-09"},"persistent_id":"6df621c97b66fc87a0b452d1364d02865cc02c5d9450c3aceca0286e02225d51","id":74302817,"location_subtype":"","month":"2019-05"},{"category":"violent-crime","location_type":"Force","location":{"latitude":"51.587308","street":{"id":973732,"name":"On or near Station Road"},"longitude":"-0.359895"},"context":"","outcome_status":{"category":"Status update unavailable","date":"2019-09"},"persistent_id":"1a7ac4ed8f3c7cc676e8d68e55e54d7f0ebc32e01ef0efffaf40d281cbfae3c7","id":74346414,"location_subtype":"","month":"2019-05"},{"category":"violent-crime","location_type":"Force","location":{"latitude":"51.579636","street":{"id":973650,"name":"On or near Lulworth Drive"},"longitude":"-0.384375"},"context":"","outcome_status":{"category":"Status update unavailable","date":"2019-09"},"persistent_id":"fb3b9388263efaa46d37035789c09bf1910203dafa75a24f1e5f2e578ea8d7a2","id":74318484,"location_subtype":"","month":"2019-05"},{"category":"violent-crime","location_type":"Force","location":{"latitude":"51.593940","street":{"id":979608,"name":"On or near Elmcroft Crescent"},"longitude":"-0.363424"},"context":"","outcome_status":{"category":"Status update unavailable","date":"2019-09"},"persistent_id":"d852dc3b507dfc453ca3a462eb07dc1a1b79a9fa5930bb93006b3129b35508f5","id":74359960,"location_subtype":"","month":"2019-05"},{"category":"violent-crime","location_type":"Force","location":{"latitude":"51.588484","street":{"id":979720,"name":"On or near Pinner Grove"},"longitude":"-0.379846"},"context":"","outcome_status":{"category":"Investigation complete; no suspect identified","date":"2020-03"},"persistent_id":"b88589dcba7171e85783eabbacf9738d1adf7f06b0925780321e501710db245b","id":74330158,"location_subtype":"","month":"2019-05"},{"category":"violent-crime","location_type":"Force","location":{"latitude":"51.600196","street":{"id":979789,"name":"On or near Deacons Close"},"longitude":"-0.399759"},"context":"","outcome_status":{"category":"Status update unavailable","date":"2019-09"},"persistent_id":"b1faa9ef02b9f6889d0931101ee2ad18c391ec3a45847769856071e567630cad","id":74329054,"location_subtype":"","month":"2019-05"},{"category":"violent-crime","location_type":"Force","location":{"latitude":"51.596989","street":{"id":979726,"name":"On or near Supermarket"},"longitude":"-0.395425"},"context":"","outcome_status":{"category":"Status update unavailable","date":"2019-09"},"persistent_id":"729b5e65ab173a84c23cedc297f60c3aa0f0f10cbf3edadc5fe92e85737d8732","id":74337037,"location_subtype":"","month":"2019-05"},{"category":"violent-crime","location_type":"Force","location":{"latitude":"51.601275","street":{"id":979791,"name":"On or near Crossway"},"longitude":"-0.399101"},"context":"","outcome_status":{"category":"Status update unavailable","date":"2019-09"},"persistent_id":"a564ca1077b907def17b7994c0d34e5ffa767dc3f13838d11ea4af6a1f5be8a8","id":74320972,"location_subtype":"","month":"2019-05"},{"category":"violent-crime","location_type":"Force","location":{"latitude":"51.586801","street":{"id":973649,"name":"On or near Lyncroft Avenue"},"longitude":"-0.383630"},"context":"","outcome_status":{"category":"Status update unavailable","date":"2019-09"},"persistent_id":"9190906d59ca65c0af5c41c783b03facb083769a2cd0e5618f1c0b61ef52083e","id":74315367,"location_subtype":"","month":"2019-05"},{"category":"violent-crime","location_type":"Force","location":{"latitude":"51.601275","street":{"id":979791,"name":"On or near Crossway"},"longitude":"-0.399101"},"context":"","outcome_status":{"category":"Investigation complete; no suspect identified","date":"2020-03"},"persistent_id":"a564ca1077b907def17b7994c0d34e5ffa767dc3f13838d11ea4af6a1f5be8a8","id":74320973,"location_subtype":"","month":"2019-05"},{"category":"violent-crime","location_type":"Force","location":{"latitude":"51.585317","street":{"id":973731,"name":"On or near Station Road"},"longitude":"-0.361569"},"context":"","outcome_status":{"category":"Status update unavailable","date":"2019-09"},"persistent_id":"c302043971d56dad5cfb8c2bc9232be1c2ece1355dfcc99eedc8bec8a5a52168","id":74295799,"location_subtype":"","month":"2019-05"},{"category":"violent-crime","location_type":"Force","location":{"latitude":"51.599680","street":{"id":979652,"name":"On or near Mill Farm Close"},"longitude":"-0.396875"},"context":"","outcome_status":{"category":"Status update unavailable","date":"2019-09"},"persistent_id":"a866a0848d12d554973ca1557ccb7a7f1db75b22b3b049408d3c7c1f4d189adf","id":74334445,"location_subtype":"","month":"2019-05"},{"category":"violent-crime","location_type":"Force","location":{"latitude":"51.600196","street":{"id":979789,"name":"On or near Deacons Close"},"longitude":"-0.399759"},"context":"","outcome_status":{"category":"Status update unavailable","date":"2019-09"},"persistent_id":"b953d73fa24de18f8211327c57a4e5b91222b80a70fa22522a2fa5c01ce5d0f5","id":74325884,"location_subtype":"","month":"2019-05"},{"category":"violent-crime","location_type":"Force","location":{"latitude":"51.601832","street":{"id":980125,"name":"On or near Uxbridge Road (pinner)"},"longitude":"-0.388598"},"context":"","outcome_status":{"category":"Status update unavailable","date":"2019-09"},"persistent_id":"536ce01ce89ac4eea9aac9f4ce3abd906606f807b293ade9be984092855b1cd7","id":74342008,"location_subtype":"","month":"2019-05"},{"category":"violent-crime","location_type":"Force","location":{"latitude":"51.595905","street":{"id":979663,"name":"On or near Granville Place"},"longitude":"-0.386526"},"context":"","outcome_status":{"category":"Status update unavailable","date":"2019-09"},"persistent_id":"fefdd661ac421178e774206fb100e1aa4da2c73abc5cdce17b76a07d6a957a33","id":74343742,"location_subtype":"","month":"2019-05"},{"category":"violent-crime","location_type":"Force","location":{"latitude":"51.583085","street":{"id":973671,"name":"On or near Rushdene Road"},"longitude":"-0.391989"},"context":"","outcome_status":{"category":"Investigation complete; no suspect identified","date":"2020-03"},"persistent_id":"63ac606093466cfa4c05ac80994a5c7ca8d46fd9d128756886c18f305b515b6b","id":74346593,"location_subtype":"","month":"2019-05"},{"category":"violent-crime","location_type":"Force","location":{"latitude":"51.585228","street":{"id":973730,"name":"On or near Station Road"},"longitude":"-0.361644"},"context":"","outcome_status":{"category":"Investigation complete; no suspect identified","date":"2020-03"},"persistent_id":"aa6cc3ad5c551fb9a0f25e8c0d843a270531e8cd42c195dadbfbb4d3d9233380","id":74313590,"location_subtype":"","month":"2019-05"},{"category":"violent-crime","location_type":"BTP","location":{"latitude":"51.592800","street":{"id":1488633,"name":"Pinner (lu Station)"},"longitude":"-0.381032"},"context":"","outcome_status":{"category":"Status update unavailable","date":"2019-09"},"persistent_id":"","id":88717890,"location_subtype":"LU STATION","month":"2019-05"},{"category":"violent-crime","location_type":"Force","location":{"latitude":"51.601832","street":{"id":980125,"name":"On or near Uxbridge Road (pinner)"},"longitude":"-0.388598"},"context":"","outcome_status":{"category":"Status update unavailable","date":"2019-09"},"persistent_id":"340c5449b95f397d4da38374573e0bf20682569a392321b73381b048f42a837f","id":74338890,"location_subtype":"","month":"2019-05"},{"category":"violent-crime","location_type":"Force","location":{"latitude":"51.595948","street":{"id":979588,"name":"On or near George V Avenue"},"longitude":"-0.367525"},"context":"","outcome_status":{"category":"Status update unavailable","date":"2019-09"},"persistent_id":"3d7be73dc8af4d0157c7ca10e403b08bbe9d741f84483dc108a87f6ea9258218","id":74356233,"location_subtype":"","month":"2019-05"},{"category":"violent-crime","location_type":"Force","location":{"latitude":"51.595948","street":{"id":979588,"name":"On or near George V Avenue"},"longitude":"-0.367525"},"context":"","outcome_status":{"category":"Status update unavailable","date":"2019-09"},"persistent_id":"3d7be73dc8af4d0157c7ca10e403b08bbe9d741f84483dc108a87f6ea9258218","id":74354955,"location_subtype":"","month":"2019-05"},{"category":"violent-crime","location_type":"Force","location":{"latitude":"51.584609","street":{"id":973680,"name":"On or near Lawrence Road"},"longitude":"-0.387720"},"context":"","outcome_status":{"category":"Status update unavailable","date":"2019-09"},"persistent_id":"37c8e67914bf9ffb6038bbb2e3b40e3a9da3d24dc08a2d8b2993312f3df4dac5","id":74344850,"location_subtype":"","month":"2019-05"},{"category":"violent-crime","location_type":"Force","location":{"latitude":"51.601275","street":{"id":979791,"name":"On or near Crossway"},"longitude":"-0.399101"},"context":"","outcome_status":{"category":"Status update unavailable","date":"2019-09"},"persistent_id":"a564ca1077b907def17b7994c0d34e5ffa767dc3f13838d11ea4af6a1f5be8a8","id":74320971,"location_subtype":"","month":"2019-05"},{"category":"violent-crime","location_type":"Force","location":{"latitude":"51.581942","street":{"id":973692,"name":"On or near Deane Croft Road"},"longitude":"-0.396489"},"context":"","outcome_status":{"category":"Status update unavailable","date":"2019-09"},"persistent_id":"636441c180d8dc4c7d10f87f310e7f00edd7d53ccbdaf171c768a925ff08a5b2","id":74321845,"location_subtype":"","month":"2019-05"},{"category":"violent-crime","location_type":"Force","location":{"latitude":"51.581490","street":{"id":973697,"name":"On or near Cannonbury Avenue"},"longitude":"-0.386489"},"context":"","outcome_status":{"category":"Status update unavailable","date":"2019-09"},"persistent_id":"a54b6dc15d64ffb41afa6f0312a5af7db42dea311e82940110d74ad53f0c5dc6","id":74322104,"location_subtype":"","month":"2019-05"},{"category":"violent-crime","location_type":"Force","location":{"latitude":"51.584147","street":{"id":973773,"name":"On or near Lancaster Road"},"longitude":"-0.364700"},"context":"","outcome_status":{"category":"Status update unavailable","date":"2019-09"},"persistent_id":"166031c0559a5f37aeb9232c95ab528ec3c5f102c04104cd408bcfb4c079a0e8","id":74347654,"location_subtype":"","month":"2019-05"},{"category":"violent-crime","location_type":"Force","location":{"latitude":"51.590729","street":{"id":979586,"name":"On or near Marsh Road"},"longitude":"-0.373746"},"context":"","outcome_status":{"category":"Status update unavailable","date":"2019-09"},"persistent_id":"03208295906f7fe4349eab57d65aa3a60a0cb02fe88eae8dae15133e01769845","id":74349430,"location_subtype":"","month":"2019-05"},{"category":"violent-crime","location_type":"Force","location":{"latitude":"51.602596","street":{"id":980129,"name":"On or near Gippeswyck Close"},"longitude":"-0.386578"},"context":"","outcome_status":{"category":"Court result unavailable","date":"2019-11"},"persistent_id":"c66687cf9fda8111e680b8be8709cc519dd6a1305f6dffad2d3135fd7a3d79e8","id":74324839,"location_subtype":"","month":"2019-05"},{"category":"violent-crime","location_type":"Force","location":{"latitude":"51.588484","street":{"id":979720,"name":"On or near Pinner Grove"},"longitude":"-0.379846"},"context":"","outcome_status":{"category":"Status update unavailable","date":"2019-09"},"persistent_id":"2fbcc45deae11b4cca7b9cc7c7bf1afe72792f00439b2b1bd95173024662db27","id":74317372,"location_subtype":"","month":"2019-05"},{"category":"violent-crime","location_type":"Force","location":{"latitude":"51.602259","street":{"id":980128,"name":"On or near Jubilee Close"},"longitude":"-0.394792"},"context":"","outcome_status":{"category":"Status update unavailable","date":"2019-09"},"persistent_id":"4caed3420a817199d3e8cb0de236318e57927723e032f1eb03e3a99823d391ae","id":74326649,"location_subtype":"","month":"2019-05"},{"category":"violent-crime","location_type":"Force","location":{"latitude":"51.602835","street":{"id":980132,"name":"On or near Holly Grove"},"longitude":"-0.377155"},"context":"","outcome_status":{"category":"Investigation complete; no suspect identified","date":"2020-03"},"persistent_id":"946382179ba710f9c98405e33665e1a78136e6a5662a3e9eff344a4f55b206bf","id":74334576,"location_subtype":"","month":"2019-05"},{"category":"violent-crime","location_type":"Force","location":{"latitude":"51.602259","street":{"id":980128,"name":"On or near Jubilee Close"},"longitude":"-0.394792"},"context":"","outcome_status":{"category":"Status update unavailable","date":"2019-09"},"persistent_id":"4caed3420a817199d3e8cb0de236318e57927723e032f1eb03e3a99823d391ae","id":74327003,"location_subtype":"","month":"2019-05"},{"category":"other-crime","location_type":"Force","location":{"latitude":"51.587371","street":{"id":973768,"name":"On or near Mount Drive"},"longitude":"-0.372177"},"context":"","outcome_status":{"category":"Status update unavailable","date":"2019-09"},"persistent_id":"d05558dcbed77b1956d183bea7ba2d04a81864af0d21b5d4d889f9caa887382f","id":74296190,"location_subtype":"","month":"2019-05"},{"category":"other-crime","location_type":"Force","location":{"latitude":"51.596989","street":{"id":979726,"name":"On or near Supermarket"},"longitude":"-0.395425"},"context":"","outcome_status":{"category":"Status update unavailable","date":"2019-09"},"persistent_id":"7f305609d8a5531cf09b3b97bf60e73e42e1f7180a5c1271ba7a62a89cb1ad1e","id":74364020,"location_subtype":"","month":"2019-05"}]