[{"category":"anti-social-behaviour","location_type":"Force","location":{"latitude":"51.517975","street":{"id":957090,"name":"On or near Junction Mews"},"longitude":"-0.168845"},"context":"","outcome_status":null,"persistent_id":"","id":74274663,"location_subtype":"","month":"2019-05"},{"category":"anti-social-behaviour","location_type":"Force","location":{"latitude":"51.514942","street":{"id":957233,"name":"On or near Garway Road"},"longitude":"-0.191854"},"context":"","outcome_status":null,"persistent_id":"","id":74276344,"location_subtype":"","month":"2019-05"},{"category":"anti-social-behaviour","location_type":"Force","location":{"latitude":"51.523657","street":{"id":960007,"name":"On or near Downfield Close"},"longitude":"-0.190802"},"context":"","outcome_status":null,"persistent_id":"","id":74276345,"location_subtype":"","month":"2019-05"},{"category":"anti-social-behaviour","location_type":"Force","location":{"latitude":"51.523657","street":{"id":960007,"name":"On or near Downfield Close"},"longitude":"-0.190802"},"context":"","outcome_status":null,"persistent_id":"","id":74276346,"location_subtype":"","month":"2019-05"},{"category":"anti-social-behaviour","location_type":"Force","location":{"latitude":"51.523657","street":{"id":960007,"name":"On or near Downfield Close"},"longitude":"-0.190802"},"context":"","outcome_status":null,"persistent_id":"","id":74276347,"location_subtype":"","month":"2019-05"},{"category":"anti-social-behaviour","location_type":"Force","location":{"latitude":"51.523657","street":{"id":960007,"name":"On or near Downfield Close"},"longitude":"-0.190802"},"context":"","outcome_status":null,"persistent_id":"","id":74276348,"location_subtype":"","month":"2019-05"},{"category":"anti-social-behaviour","location_type":"Force","location":{"latitude":"51.523657","street":{"id":960007,"name":"On or near Downfield Close"},"longitude":"-0.190802"},"context":"","outcome_status":null,"persistent_id":"","id":74276349,"location_subtype":"","month":"2019-05"},{"category":"anti-social-behaviour","location_type":"Force","location":{"latitude":"51.523657","street":{"id":960007,"name":"On or near Downfield Close"},"longitude":"-0.190802"},"context":"","outcome_status":null,"persistent_id":"","id":74276350,"location_subtype":"","month":"2019-05"},{"category":"anti-social-behaviour","location_type":"Force","location":{"latitude":"51.523657","street":{"id":960007,"name":"On or near Downfield Close"},"longitude":"-0.190802"},"context":"","outcome_status":null,"persistent_id":"","id":74276351,"location_subtype":"","month":"2019-05"},{"category":"anti-social-behaviour","location_type":"Force","location":{"latitude":"51.523657","street":{"id":960007,"name":"On or near Downfield Close"},"longitude":"-0.190802"},"context":"","outcome_status":null,"persistent_id":"","id":74276352,"location_subtype":"","month":"2019-05"},{"category":"anti-social-behaviour","location_type":"Force","location":{"latitude":"51.523657","street":{"id":960007,"name":"On or near Downfield Close"},"longitude":"-0.190802"},"context":"","outcome_status":null,"persistent_id":"","id":74276353,"location_subtype":"","month":"2019-05"},{"category":"anti-social-behaviour","location_type":"Force","location":{"latitude":"51.513343","street":{"id":957201,"name":"On or near Prince's Square"},"longitude":"-0.190793"},"context":"","outcome_status":null,"persistent_id":"","id":74276354,"location_subtype":"","month":"2019-05"},{"category":"anti-social-behaviour","location_type":"Force","location":{"latitude":"51.513343","street":{"id":957201,"name":"On or near Prince's Square"},"longitude":"-0.190793"},"context":"","outcome_status":null,"persistent_id":"","id":74276355,"location_subtype":"","month":"2019-05"},{"category":"anti-social-behaviour","location_type":"Force","location":{"latitude":"51.513343","street":{"id":957201,"name":"On or near Prince's Square"},"longitude":"-0.190793"},"context":"","outcome_status":null,"persistent_id":"","id":74276356,"location_subtype":"","month":"2019-05"},{"category":"anti-social-behaviour","location_type":"Force","location":{"latitude":"51.516086","street":{"id":957214,"name":"On or near Newton Road"},"longitude":"-0.191981"},"context":"","outcome_status":null,"persistent_id":"","id":74276362,"location_subtype":"","month":"2019-05"},{"category":"anti-social-behaviour","location_type":"Force","location":{"latitude":"51.516086","street":{"id":957214,"name":"On or near Newton Road"},"longitude":"-0.191981"},"context":"","outcome_status":null,"persistent_id":"","id":74276363,"location_subtype":"","month":"2019-05"},{"category":"anti-social-behaviour","location_type":"Force","location":{"latitude":"51.516086","street":{"id":957214,"name":"On or near Newton Road"},"longitude":"-0.191981"},"context":"","outcome_status":null,"persistent_id":"","id":74276364,"location_subtype":"","month":"2019-05"},{"category":"anti-social-behaviour","location_type":"Force","location":{"latitude":"51.516086","street":{"id":957214,"name":"On or near Newton Road"},"longitude":"-0.191981"},"context":"","outcome_status":null,"persistent_id":"","id":74276365,"location_subtype":"","month":"2019-05"},{"category":"anti-social-behaviour","location_type":"Force","location":{"latitude":"51.516086","street":{"id":957214,"name":"On or near Newton Road"},"longitude":"-0.191981"},"context":"","outcome_status":null,"persistent_id":"","id":74276366,"location_subtype":"","month":"2019-05"},{"category":"anti-social-behaviour","location_type":"Force","location":{"latitude":"51.521479","street":{"id":960145,"name":"On or near Cirencester Street"},"longitude":"-0.191811"},"context":"","outcome_status":null,"persistent_id":"","id":74276369,"location_subtype":"","month":"2019-05"},{"category":"anti-social-behaviour","location_type":"Force","location":{"latitude":"51.521479","street":{"id":960145,"name":"On or near Cirencester Street"},"longitude":"-0.191811"},"context":"","outcome_status":null,"persistent_id":"","id":74276370,"location_subtype":"","month":"2019-05"},{"category":"anti-social-behaviour","location_type":"Force","location":{"latitude":"51.520274","street":{"id":960143,"name":"On or near Torquay Street"},"longitude":"-0.191815"},"context":"","outcome_status":null,"persistent_id":"","id":74276371,"location_subtype":"","month":"2019-05"},{"category":"anti-social-behaviour","location_type":"Force","location":{"latitude":"51.520274","street":{"id":960143,"name":"On or near Torquay Street"},"longitude":"-0.191815"},"context":"","outcome_status":null,"persistent_id":"","id":74276372,"location_subtype":"","month":"2019-05"},{"category":"anti-social-behaviour","location_type":"Force","location":{"latitude":"51.520274","street":{"id":960143,"name":"On or near Torquay Street"},"longitude":"-0.191815"},"context":"","outcome_status":null,"persistent_id":"","id":74276373,"location_subtype":"","month":"2019-05"},{"category":"anti-social-behaviour","location_type":"Force","location":{"latitude":"51.518888","street":{"id":957287,"name":"On or near Elsie Lane Court"},"longitude":"-0.192375"},"context":"","outcome_status":null,"persistent_id":"","id":74276374,"location_subtype":"","month":"2019-05"},{"category":"anti-social-behaviour","location_type":"Force","location":{"latitude":"51.515174","street":{"id":957219,"name":"On or near Monmouth Road"},"longitude":"-0.192896"},"context":"","outcome_status":null,"persistent_id":"","id":74276375,"location_subtype":"","month":"2019-05"},{"category":"anti-social-behaviour","location_type":"Force","location":{"latitude":"51.522950","street":{"id":960017,"name":"On or near Amberley Road"},"longitude":"-0.192762"},"context":"","outcome_status":null,"persistent_id":"","id":74276376,"location_subtype":"","month":"2019-05"},{"category":"anti-social-behaviour","location_type":"Force","location":{"latitude":"51.522950","street":{"id":960017,"name":"On or near Amberley Road"},"longitude":"-0.192762"},"context":"","outcome_status":null,"persistent_id":"","id":74276377,"location_subtype":"","month":"2019-05"},{"category":"anti-social-behaviour","location_type":"Force","location":{"latitude":"51.522950","street":{"id":960017,"name":"On or near Amberley Road"},"longitude":"-0.192762"},"context":"","outcome_status":null,"persistent_id":"","id":74276378,"location_subtype":"","month":"2019-05"},{"category":"anti-social-behaviour","location_type":"Force","location":{"latitude":"51.522950","street":{"id":960017,"name":"On or near Amberley Road"},"longitude":"-0.192762"},"context":"","outcome_status":null,"persistent_id":"","id":74276379,"location_subtype":"","month":"2019-05"},{"category":"anti-social-behaviour","location_type":"Force","location":{"latitude":"51.515174","street":{"id":957219,"name":"On or near Monmouth Road"},"longitude":"-0.192896"},"context":"","outcome_status":null,"persistent_id":"","id":74276380,"location_subtype":"","month":"2019-05"},{"category":"anti-social-behaviour","location_type":"Force","location":{"latitude":"51.521479","street":{"id":960145,"name":"On or near Cirencester Street"},"longitude":"-0.191811"},"context":"","outcome_status":null,"persistent_id":"","id":74276381,"location_subtype":"","month":"2019-05"},{"category":"anti-social-behaviour","location_type":"Force","location":{"latitude":"51.521147","street":{"id":960146,"name":"On or near Alfred Road"},"longitude":"-0.194202"},"context":"","outcome_status":null,"persistent_id":"","id":74276382,"location_subtype":"","month":"2019-05"},{"category":"anti-social-behaviour","location_type":"Force","location":{"latitude":"51.515459","street":{"id":957231,"name":"On or near Hereford Mews"},"longitude":"-0.193894"},"context":"","outcome_status":null,"persistent_id":"","id":74276383,"location_subtype":"","month":"2019-05"},{"category":"anti-social-behaviour","location_type":"Force","location":{"latitude":"51.518082","street":{"id":957284,"name":"On or near St Stephen's Crescent"},"longitude":"-0.194338"},"context":"","outcome_status":null,"persistent_id":"","id":74276384,"location_subtype":"","month":"2019-05"},{"category":"anti-social-behaviour","location_type":"Force","location":{"latitude":"51.518082","street":{"id":957284,"name":"On or near St Stephen's Crescent"},"longitude":"-0.194338"},"context":"","outcome_status":null,"persistent_id":"","id":74276385,"location_subtype":"","month":"2019-05"},{"category":"anti-social-behaviour","location_type":"Force","location":{"latitude":"51.516581","street":{"id":957243,"name":"On or near Bridstow Place"},"longitude":"-0.194959"},"context":"","outcome_status":null,"persistent_id":"","id":74276386,"location_subtype":"","month":"2019-05"},{"category":"anti-social-behaviour","location_type":"Force","location":{"latitude":"51.516581","street":{"id":957243,"name":"On or near Bridstow Place"},"longitude":"-0.194959"},"context":"","outcome_status":null,"persistent_id":"","id":74276387,"location_subtype":"","month":"2019-05"},{"category":"anti-social-behaviour","location_type":"Force","location":{"latitude":"51.516581","street":{"id":957243,"name":"On or near Bridstow Place"},"longitude":"-0.194959"},"context":"","outcome_status":null,"persistent_id":"","id":74276389,"location_subtype":"","month":"2019-05"},{"category":"anti-social-behaviour","location_type":"Force","location":{"latitude":"51.519229","street":{"id":957280,"name":"On or near Westbourne Park Road"},"longitude":"-0.195821"},"context":"","outcome_status":null,"persistent_id":"","id":74276390,"location_subtype":"","month":"2019-05"},{"category":"anti-social-behaviour","location_type":"Force","location":{"latitude":"51.519229","street":{"id":957280,"name":"On or near Westbourne Park Road"},"longitude":"-0.195821"},"context":"","outcome_status":null,"persistent_id":"","id":74276391,"location_subtype":"","month":"2019-05"},{"category":"anti-social-behaviour","location_type":"Force","location":{"latitude":"51.521147","street":{"id":960146,"name":"On or near Alfred Road"},"longitude":"-0.194202"},"context":"","outcome_status":null,"persistent_id":"","id":74276392,"location_subtype":"","month":"2019-05"},{"category":"anti-social-behaviour","location_type":"Force","location":{"latitude":"51.518082","street":{"id":957284,"name":"On or near St Stephen's Crescent"},"longitude":"-0.194338"},"context":"","outcome_status":null,"persistent_id":"","id":74276393,"location_subtype":"","month":"2019-05"},{"category":"anti-social-behaviour","location_type":"Force","location":{"latitude":"51.521147","street":{"id":960146,"name":"On or near Alfred Road"},"longitude":"-0.194202"},"context":"","outcome_status":null,"persistent_id":"","id":74276404,"location_subtype":"","month":"2019-05"},{"category":"anti-social-behaviour","location_type":"Force","location":{"latitude":"51.517042","street":{"id":957238,"name":"On or near Chepstow Road"},"longitude":"-0.195720"},"context":"","outcome_status":null,"persistent_id":"","id":74276405,"location_subtype":"","month":"2019-05"},{"category":"anti-social-behaviour","location_type":"Force","location":{"latitude":"51.517042","street":{"id":957238,"name":"On or near Chepstow Road"},"longitude":"-0.195720"},"context":"","outcome_status":null,"persistent_id":"","id":74276406,"location_subtype":"","month":"2019-05"},{"category":"anti-social-behaviour","location_type":"Force","location":{"latitude":"51.517042","street":{"id":957238,"name":"On or near Chepstow Road"},"longitude":"-0.195720"},"context":"","outcome_status":null,"persistent_id":"","id":74276407,"location_subtype":"","month":"2019-05"},{"category":"anti-social-behaviour","location_type":"Force","location":{"latitude":"51.517042","street":{"id":957238,"name":"On or near Chepstow Road"},"longitude":"-0.195720"},"context":"","outcome_status":null,"persistent_id":"","id":74276408,"location_subtype":"","month":"2019-05"},{"category":"anti-social-behaviour","location_type":"Force","location":{"latitude":"51.522275","street":{"id":960147,"name":"On or near Admiral Walk"},"longitude":"-0.195642"},"context":"","outcome_status":null,"persistent_id":"","id":74276409,"location_subtype":"","month":"2019-05"},{"category":"anti-social-behaviour","location_type":"Force","location":{"latitude":"51.522275","street":{"id":960147,"name":"On or near Admiral Walk"},"longitude":"-0.195642"},"context":"","outcome_status":null,"persistent_id":"","id":74276410,"location_subtype":"","month":"2019-05"},{"category":"anti-social-behaviour","location_type":"Force","location":{"latitude":"51.523642","street":{"id":960009,"name":"On or near Chippenham Mews"},"longitude":"-0.196223"},"context":"","outcome_status":null,"persistent_id":"","id":74276412,"location_subtype":"","month":"2019-05"},{"category":"anti-social-behaviour","location_type":"Force","location":{"latitude":"51.518332","street":{"id":957283,"name":"On or near St Stephen's Gardens"},"longitude":"-0.195986"},"context":"","outcome_status":null,"persistent_id":"","id":74276413,"location_subtype":"","month":"2019-05"},{"category":"anti-social-behaviour","location_type":"Force","location":{"latitude":"51.518859","street":{"id":957279,"name":"On or near Westbourne Park Road"},"longitude":"-0.197450"},"context":"","outcome_status":null,"persistent_id":"","id":74276414,"location_subtype":"","month":"2019-05"},{"category":"anti-social-behaviour","location_type":"Force","location":{"latitude":"51.522468","street":{"id":960004,"name":"On or near Elmfield Way"},"longitude":"-0.197105"},"context":"","outcome_status":null,"persistent_id":"","id":74276415,"location_subtype":"","month":"2019-05"},{"category":"anti-social-behaviour","location_type":"Force","location":{"latitude":"51.522468","street":{"id":960004,"name":"On or near Elmfield Way"},"longitude":"-0.197105"},"context":"","outcome_status":null,"persistent_id":"","id":74276416,"location_subtype":"","month":"2019-05"},{"category":"anti-social-behaviour","location_type":"Force","location":{"latitude":"51.522468","street":{"id":960004,"name":"On or near Elmfield Way"},"longitude":"-0.197105"},"context":"","outcome_status":null,"persistent_id":"","id":74276417,"location_subtype":"","month":"2019-05"},{"category":"anti-social-behaviour","location_type":"Force","location":{"latitude":"51.522468","street":{"id":960004,"name":"On or near Elmfield Way"},"longitude":"-0.197105"},"context":"","outcome_status":null,"persistent_id":"","id":74276418,"location_subtype":"","month":"2019-05"},{"category":"anti-social-behaviour","location_type":"Force","location":{"latitude":"51.516305","street":{"id":957262,"name":"On or near Moorhouse Road"},"longitude":"-0.198040"},"context":"","outcome_status":null,"persistent_id":"","id":74276419,"location_subtype":"","month":"2019-05"},{"category":"anti-social-behaviour","location_type":"Force","location":{"latitude":"51.516305","street":{"id":957262,"name":"On or near Moorhouse Road"},"longitude":"-0.198040"},"context":"","outcome_status":null,"persistent_id":"","id":74276420,"location_subtype":"","month":"2019-05"},{"category":"anti-social-behaviour","location_type":"Force","location":{"latitude":"51.516305","street":{"id":957262,"name":"On or near Moorhouse Road"},"longitude":"-0.198040"},"context":"","outcome_status":null,"persistent_id":"","id":74276421,"location_subtype":"","month":"2019-05"},{"category":"anti-social-behaviour","location_type":"Force","location":{"latitude":"51.516305","street":{"id":957262,"name":"On or near Moorhouse Road"},"longitude":"-0.198040"},"context":"","outcome_status":null,"persistent_id":"","id":74276422,"location_subtype":"","month":"2019-05"},{"category":"anti-social-behaviour","location_type":"Force","location":{"latitude":"51.522468","street":{"id":960004,"name":"On or near Elmfield Way"},"longitude":"-0.197105"},"context":"","outcome_status":null,"persistent_id":"","id":74276423,"location_subtype":"","month":"2019-05"},{"category":"anti-social-behaviour","location_type":"Force","location":{"latitude":"51.522468","street":{"id":960004,"name":"On or near Elmfield Way"},"longitude":"-0.197105"},"context":"","outcome_status":null,"persistent_id":"","id":74276424,"location_subtype":"","month":"2019-05"},{"category":"anti-social-behaviour","location_type":"Force","location":{"latitude":"51.518859","street":{"id":957279,"name":"On or near Westbourne Park Road"},"longitude":"-0.197450"},"context":"","outcome_status":null,"persistent_id":"","id":74276425,"location_subtype":"","month":"2019-05"},{"category":"anti-social-behaviour","location_type":"Force","location":{"latitude":"51.516255","street":{"id":957269,"name":"On or near Courtnell Street"},"longitude":"-0.198864"},"context":"","outcome_status":null,"persistent_id":"","id":74276426,"location_subtype":"","month":"2019-05"},{"category":"anti-social-behaviour","location_type":"Force","location":{"latitude":"51.518859","street":{"id":957279,"name":"On or near Westbourne Park Road"},"longitude":"-0.197450"},"context":"","outcome_status":null,"persistent_id":"","id":74276427,"location_subtype":"","month":"2019-05"},{"category":"anti-social-behaviour","location_type":"Force","location":{"latitude":"51.518110","street":{"id":957274,"name":"On or near Dartmouth Close"},"longitude":"-0.199641"},"context":"","outcome_status":null,"persistent_id":"","id":74276431,"location_subtype":"","month":"2019-05"},{"category":"anti-social-behaviour","location_type":"Force","location":{"latitude":"51.520075","street":{"id":960121,"name":"On or near Tavistock Road"},"longitude":"-0.201711"},"context":"","outcome_status":null,"persistent_id":"","id":74276434,"location_subtype":"","month":"2019-05"},{"category":"anti-social-behaviour","location_type":"Force","location":{"latitude":"51.518990","street":{"id":957177,"name":"On or near Leamington Road Villas"},"longitude":"-0.201336"},"context":"","outcome_status":null,"persistent_id":"","id":74276441,"location_subtype":"","month":"2019-05"},{"category":"anti-social-behaviour","location_type":"Force","location":{"latitude":"51.520075","street":{"id":960121,"name":"On or near Tavistock Road"},"longitude":"-0.201711"},"context":"","outcome_status":null,"persistent_id":"","id":74276448,"location_subtype":"","month":"2019-05"},{"category":"anti-social-behaviour","location_type":"Force","location":{"latitude":"51.520487","street":{"id":960122,"name":"On or near Tavistock Crescent"},"longitude":"-0.202214"},"context":"","outcome_status":null,"persistent_id":"","id":74276453,"location_subtype":"","month":"2019-05"},{"category":"anti-social-behaviour","location_type":"Force","location":{"latitude":"51.520487","street":{"id":960122,"name":"On or near Tavistock Crescent"},"longitude":"-0.202214"},"context":"","outcome_status":null,"persistent_id":"","id":74276454,"location_subtype":"","month":"2019-05"},{"category":"anti-social-behaviour","location_type":"Force","location":{"latitude":"51.520019","street":{"id":960124,"name":"On or near St Luke's Road"},"longitude":"-0.203342"},"context":"","outcome_status":null,"persistent_id":"","id":74276461,"location_subtype":"","month":"2019-05"},{"category":"anti-social-behaviour","location_type":"Force","location":{"latitude":"51.500450","street":{"id":952939,"name":"On or near Hyde Park Gate Mews"},"longitude":"-0.181679"},"context":"","outcome_status":null,"persistent_id":"","id":74277228,"location_subtype":"","month":"2019-05"},{"category":"anti-social-behaviour","location_type":"Force","location":{"latitude":"51.497289","street":{"id":952909,"name":"On or near Gloucester Road"},"longitude":"-0.183649"},"context":"","outcome_status":null,"persistent_id":"","id":74277982,"location_subtype":"","month":"2019-05"},{"category":"anti-social-behaviour","location_type":"Force","location":{"latitude":"51.497289","street":{"id":952909,"name":"On or near Gloucester Road"},"longitude":"-0.183649"},"context":"","outcome_status":null,"persistent_id":"","id":74277983,"location_subtype":"","month":"2019-05"},{"category":"anti-social-behaviour","location_type":"Force","location":{"latitude":"51.497524","street":{"id":952902,"name":"On or near Kynance Place"},"longitude":"-0.184317"},"context":"","outcome_status":null,"persistent_id":"","id":74277988,"location_subtype":"","month":"2019-05"},{"category":"anti-social-behaviour","location_type":"Force","location":{"latitude":"51.496311","street":{"id":952900,"name":"On or near Osten Mews"},"longitude":"-0.187332"},"context":"","outcome_status":null,"persistent_id":"","id":74278002,"location_subtype":"","month":"2019-05"},{"category":"anti-social-behaviour","location_type":"Force","location":{"latitude":"51.502516","street":{"id":952936,"name":"On or near Kensington Road"},"longitude":"-0.188484"},"context":"","outcome_status":null,"persistent_id":"","id":74278009,"location_subtype":"","month":"2019-05"},{"category":"anti-social-behaviour","location_type":"Force","location":{"latitude":"51.502516","street":{"id":952936,"name":"On or near Kensington Road"},"longitude":"-0.188484"},"context":"","outcome_status":null,"persistent_id":"","id":74278010,"location_subtype":"","month":"2019-05"},{"category":"anti-social-behaviour","location_type":"Force","location":{"latitude":"51.496783","street":{"id":952884,"name":"On or near Thomas Place"},"longitude":"-0.189950"},"context":"","outcome_status":null,"persistent_id":"","id":74278026,"location_subtype":"","month":"2019-05"},{"category":"anti-social-behaviour","location_type":"Force","location":{"latitude":"51.496783","street":{"id":952884,"name":"On or near Thomas Place"},"longitude":"-0.189950"},"context":"","outcome_status":null,"persistent_id":"","id":74278027,"location_subtype":"","month":"2019-05"},{"category":"anti-social-behaviour","location_type":"Force","location":{"latitude":"51.496783","street":{"id":952884,"name":"On or near Thomas Place"},"longitude":"-0.189950"},"context":"","outcome_status":null,"persistent_id":"","id":74278028,"location_subtype":"","month":"2019-05"},{"category":"anti-social-behaviour","location_type":"Force","location":{"latitude":"51.500808","street":{"id":952731,"name":"On or near Kensington Square"},"longitude":"-0.190237"},"context":"","outcome_status":null,"persistent_id":"","id":74278032,"location_subtype":"","month":"2019-05"},{"category":"anti-social-behaviour","location_type":"Force","location":{"latitude":"51.500808","street":{"id":952731,"name":"On or near Kensington Square"},"longitude":"-0.190237"},"context":"","outcome_status":null,"persistent_id":"","id":74278033,"location_subtype":"","month":"2019-05"},{"category":"anti-social-behaviour","location_type":"Force","location":{"latitude":"51.501632","street":{"id":952733,"name":"On or near Kensington High Street"},"longitude":"-0.191790"},"context":"","outcome_status":null,"persistent_id":"","id":74278040,"location_subtype":"","month":"2019-05"},{"category":"anti-social-behaviour","location_type":"Force","location":{"latitude":"51.501632","street":{"id":952733,"name":"On or near Kensington High Street"},"longitude":"-0.191790"},"context":"","outcome_status":null,"persistent_id":"","id":74278041,"location_subtype":"","month":"2019-05"},{"category":"anti-social-behaviour","location_type":"Force","location":{"latitude":"51.500004","street":{"id":952682,"name":"On or near Wright's Lane"},"longitude":"-0.192935"},"context":"","outcome_status":null,"persistent_id":"","id":74278051,"location_subtype":"","month":"2019-05"},{"category":"anti-social-behaviour","location_type":"Force","location":{"latitude":"51.510150","street":{"id":957192,"name":"On or near Victoria Grove Mews"},"longitude":"-0.192519"},"context":"","outcome_status":null,"persistent_id":"","id":74278052,"location_subtype":"","month":"2019-05"},{"category":"anti-social-behaviour","location_type":"Force","location":{"latitude":"51.498768","street":{"id":952701,"name":"On or near Cheniston Gardens"},"longitude":"-0.192710"},"context":"","outcome_status":null,"persistent_id":"","id":74278053,"location_subtype":"","month":"2019-05"},{"category":"anti-social-behaviour","location_type":"Force","location":{"latitude":"51.509824","street":{"id":957245,"name":"On or near Bayswater Road"},"longitude":"-0.192402"},"context":"","outcome_status":null,"persistent_id":"","id":74278054,"location_subtype":"","month":"2019-05"},{"category":"anti-social-behaviour","location_type":"Force","location":{"latitude":"51.509824","street":{"id":957245,"name":"On or near Bayswater Road"},"longitude":"-0.192402"},"context":"","outcome_status":null,"persistent_id":"","id":74278055,"location_subtype":"","month":"2019-05"},{"category":"anti-social-behaviour","location_type":"Force","location":{"latitude":"51.496485","street":{"id":952690,"name":"On or near Radley Mews"},"longitude":"-0.193304"},"context":"","outcome_status":null,"persistent_id":"","id":74278056,"location_subtype":"","month":"2019-05"},{"category":"anti-social-behaviour","location_type":"Force","location":{"latitude":"51.501202","street":{"id":952727,"name":"On or near Phillimore Walk"},"longitude":"-0.194242"},"context":"","outcome_status":null,"persistent_id":"","id":74278057,"location_subtype":"","month":"2019-05"},{"category":"anti-social-behaviour","location_type":"Force","location":{"latitude":"51.501202","street":{"id":952727,"name":"On or near Phillimore Walk"},"longitude":"-0.194242"},"context":"","outcome_status":null,"persistent_id":"","id":74278058,"location_subtype":"","month":"2019-05"},{"category":"anti-social-behaviour","location_type":"Force","location":{"latitude":"51.506587","street":{"id":957310,"name":"On or near Berkeley Gardens"},"longitude":"-0.194130"},"context":"","outcome_status":null,"persistent_id":"","id":74278060,"location_subtype":"","month":"2019-05"},{"category":"anti-social-behaviour","location_type":"Force","location":{"latitude":"51.501202","street":{"id":952727,"name":"On or near Phillimore Walk"},"longitude":"-0.194242"},"context":"","outcome_status":null,"persistent_id":"","id":74278061,"location_subtype":"","month":"2019-05"},{"category":"anti-social-behaviour","location_type":"Force","location":{"latitude":"51.501202","street":{"id":952727,"name":"On or near Phillimore Walk"},"longitude":"-0.194242"},"context":"","outcome_status":null,"persistent_id":"","id":74278062,"location_subtype":"","month":"2019-05"},{"category":"anti-social-behaviour","location_type":"Force","location":{"latitude":"51.501202","street":{"id":952727,"name":"On or near Phillimore Walk"},"longitude":"-0.194242"},"context":"","outcome_status":null,"persistent_id":"","id":74278063,"location_subtype":"","month":"2019-05"},{"category":"anti-social-behaviour","location_type":"Force","location":{"latitude":"51.501202","street":{"id":952727,"name":"On or near Phillimore Walk"},"longitude":"-0.194242"},"context":"","outcome_status":null,"persistent_id":"","id":74278064,"location_subtype":"","month":"2019-05"},{"category":"anti-social-behaviour","location_type":"Force","location":{"latitude":"51.501202","street":{"id":952727,"name":"On or near Phillimore Walk"},"longitude":"-0.194242"},"context":"","outcome_status":null,"persistent_id":"","id":74278065,"location_subtype":"","month":"2019-05"},{"category":"anti-social-behaviour","location_type":"Force","location":{"latitude":"51.501202","street":{"id":952727,"name":"On or near Phillimore Walk"},"longitude":"-0.194242"},"context":"","outcome_status":null,"persistent_id":"","id":74278066,"location_subtype":"","month":"2019-05"},{"category":"anti-social-behaviour","location_type":"Force","location":{"latitude":"51.499502","street":{"id":952706,"name":"On or near Adam And Eve Mews"},"longitude":"-0.194828"},"context":"","outcome_status":null,"persistent_id":"","id":74278072,"location_subtype":"","month":"2019-05"},{"category":"anti-social-behaviour","location_type":"Force","location":{"latitude":"51.504165","street":{"id":952752,"name":"On or near Campden Grove"},"longitude":"-0.194557"},"context":"","outcome_status":null,"persistent_id":"","id":74278078,"location_subtype":"","month":"2019-05"},{"category":"anti-social-behaviour","location_type":"Force","location":{"latitude":"51.503087","street":{"id":952739,"name":"On or near Hornton Street"},"longitude":"-0.195161"},"context":"","outcome_status":null,"persistent_id":"","id":74278081,"location_subtype":"","month":"2019-05"},{"category":"anti-social-behaviour","location_type":"Force","location":{"latitude":"51.503087","street":{"id":952739,"name":"On or near Hornton Street"},"longitude":"-0.195161"},"context":"","outcome_status":null,"persistent_id":"","id":74278082,"location_subtype":"","month":"2019-05"},{"category":"anti-social-behaviour","location_type":"Force","location":{"latitude":"51.503087","street":{"id":952739,"name":"On or near Hornton Street"},"longitude":"-0.195161"},"context":"","outcome_status":null,"persistent_id":"","id":74278083,"location_subtype":"","month":"2019-05"},{"category":"anti-social-behaviour","location_type":"Force","location":{"latitude":"51.510297","street":{"id":957222,"name":"On or near Linden Gardens"},"longitude":"-0.194459"},"context":"","outcome_status":null,"persistent_id":"","id":74278084,"location_subtype":"","month":"2019-05"},{"category":"anti-social-behaviour","location_type":"Force","location":{"latitude":"51.510297","street":{"id":957222,"name":"On or near Linden Gardens"},"longitude":"-0.194459"},"context":"","outcome_status":null,"persistent_id":"","id":74278085,"location_subtype":"","month":"2019-05"},{"category":"anti-social-behaviour","location_type":"Force","location":{"latitude":"51.500546","street":{"id":952685,"name":"On or near Stafford Terrace"},"longitude":"-0.197178"},"context":"","outcome_status":null,"persistent_id":"","id":74278092,"location_subtype":"","month":"2019-05"},{"category":"anti-social-behaviour","location_type":"Force","location":{"latitude":"51.506862","street":{"id":957294,"name":"On or near Peel Street"},"longitude":"-0.196813"},"context":"","outcome_status":null,"persistent_id":"","id":74278093,"location_subtype":"","month":"2019-05"},{"category":"anti-social-behaviour","location_type":"Force","location":{"latitude":"51.506862","street":{"id":957294,"name":"On or near Peel Street"},"longitude":"-0.196813"},"context":"","outcome_status":null,"persistent_id":"","id":74278094,"location_subtype":"","month":"2019-05"},{"category":"anti-social-behaviour","location_type":"Force","location":{"latitude":"51.506862","street":{"id":957294,"name":"On or near Peel Street"},"longitude":"-0.196813"},"context":"","outcome_status":null,"persistent_id":"","id":74278095,"location_subtype":"","month":"2019-05"},{"category":"anti-social-behaviour","location_type":"Force","location":{"latitude":"51.506862","street":{"id":957294,"name":"On or near Peel Street"},"longitude":"-0.196813"},"context":"","outcome_status":null,"persistent_id":"","id":74278096,"location_subtype":"","month":"2019-05"},{"category":"anti-social-behaviour","location_type":"Force","location":{"latitude":"51.513493","street":{"id":957203,"name":"On or near Pembridge Villas"},"longitude":"-0.197056"},"context":"","outcome_status":null,"persistent_id":"","id":74278100,"location_subtype":"","month":"2019-05"},{"category":"anti-social-behaviour","location_type":"Force","location":{"latitude":"51.504301","street":{"id":952750,"name":"On or near Campden House Close"},"longitude":"-0.196381"},"context":"","outcome_status":null,"persistent_id":"","id":74278101,"location_subtype":"","month":"2019-05"},{"category":"anti-social-behaviour","location_type":"Force","location":{"latitude":"51.508338","street":{"id":957307,"name":"On or near Farmer Street"},"longitude":"-0.196870"},"context":"","outcome_status":null,"persistent_id":"","id":74278102,"location_subtype":"","month":"2019-05"},{"category":"anti-social-behaviour","location_type":"Force","location":{"latitude":"51.514600","street":{"id":957198,"name":"On or near Rosehart Mews"},"longitude":"-0.197113"},"context":"","outcome_status":null,"persistent_id":"","id":74278106,"location_subtype":"","month":"2019-05"},{"category":"anti-social-behaviour","location_type":"Force","location":{"latitude":"51.510234","street":{"id":957205,"name":"On or near Pembridge Road"},"longitude":"-0.197401"},"context":"","outcome_status":null,"persistent_id":"","id":74278107,"location_subtype":"","month":"2019-05"},{"category":"anti-social-behaviour","location_type":"Force","location":{"latitude":"51.510234","street":{"id":957205,"name":"On or near Pembridge Road"},"longitude":"-0.197401"},"context":"","outcome_status":null,"persistent_id":"","id":74278108,"location_subtype":"","month":"2019-05"},{"category":"anti-social-behaviour","location_type":"Force","location":{"latitude":"51.498696","street":{"id":952709,"name":"On or near Supermarket"},"longitude":"-0.197914"},"context":"","outcome_status":null,"persistent_id":"","id":74278112,"location_subtype":"","month":"2019-05"},{"category":"anti-social-behaviour","location_type":"Force","location":{"latitude":"51.514572","street":{"id":957188,"name":"On or near Westbourne Grove Mews"},"longitude":"-0.197662"},"context":"","outcome_status":null,"persistent_id":"","id":74278113,"location_subtype":"","month":"2019-05"},{"category":"anti-social-behaviour","location_type":"Force","location":{"latitude":"51.514572","street":{"id":957188,"name":"On or near Westbourne Grove Mews"},"longitude":"-0.197662"},"context":"","outcome_status":null,"persistent_id":"","id":74278114,"location_subtype":"","month":"2019-05"},{"category":"anti-social-behaviour","location_type":"Force","location":{"latitude":"51.509028","street":{"id":957319,"name":"On or near Supermarket"},"longitude":"-0.198529"},"context":"","outcome_status":null,"persistent_id":"","id":74278120,"location_subtype":"","month":"2019-05"},{"category":"anti-social-behaviour","location_type":"Force","location":{"latitude":"51.511338","street":{"id":957259,"name":"On or near Portobello Mews"},"longitude":"-0.198453"},"context":"","outcome_status":null,"persistent_id":"","id":74278124,"location_subtype":"","month":"2019-05"},{"category":"anti-social-behaviour","location_type":"Force","location":{"latitude":"51.509028","street":{"id":957319,"name":"On or near Supermarket"},"longitude":"-0.198529"},"context":"","outcome_status":null,"persistent_id":"","id":74278126,"location_subtype":"","month":"2019-05"},{"category":"anti-social-behaviour","location_type":"Force","location":{"latitude":"51.509028","street":{"id":957319,"name":"On or near Supermarket"},"longitude":"-0.198529"},"context":"","outcome_status":null,"persistent_id":"","id":74278127,"location_subtype":"","month":"2019-05"},{"category":"anti-social-behaviour","location_type":"Force","location":{"latitude":"51.510250","street":{"id":957268,"name":"On or near Horbury Crescent"},"longitude":"-0.199591"},"context":"","outcome_status":null,"persistent_id":"","id":74278128,"location_subtype":"","month":"2019-05"},{"category":"anti-social-behaviour","location_type":"Force","location":{"latitude":"51.514000","street":{"id":957264,"name":"On or near Ledbury Road"},"longitude":"-0.199025"},"context":"","outcome_status":null,"persistent_id":"","id":74278129,"location_subtype":"","month":"2019-05"},{"category":"anti-social-behaviour","location_type":"Force","location":{"latitude":"51.516286","street":{"id":957263,"name":"On or near Ledbury Road"},"longitude":"-0.199756"},"context":"","outcome_status":null,"persistent_id":"","id":74278133,"location_subtype":"","month":"2019-05"},{"category":"anti-social-behaviour","location_type":"Force","location":{"latitude":"51.516286","street":{"id":957263,"name":"On or near Ledbury Road"},"longitude":"-0.199756"},"context":"","outcome_status":null,"persistent_id":"","id":74278134,"location_subtype":"","month":"2019-05"},{"category":"anti-social-behaviour","location_type":"Force","location":{"latitude":"51.513535","street":{"id":957112,"name":"On or near Pencombe Mews"},"longitude":"-0.200384"},"context":"","outcome_status":null,"persistent_id":"","id":74278135,"location_subtype":"","month":"2019-05"},{"category":"anti-social-behaviour","location_type":"Force","location":{"latitude":"51.508850","street":{"id":957318,"name":"On or near Shopping Area"},"longitude":"-0.199819"},"context":"","outcome_status":null,"persistent_id":"","id":74278136,"location_subtype":"","month":"2019-05"},{"category":"anti-social-behaviour","location_type":"Force","location":{"latitude":"51.514133","street":{"id":957120,"name":"On or near Lambton Place"},"longitude":"-0.200057"},"context":"","outcome_status":null,"persistent_id":"","id":74278137,"location_subtype":"","month":"2019-05"},{"category":"anti-social-behaviour","location_type":"Force","location":{"latitude":"51.514133","street":{"id":957120,"name":"On or near Lambton Place"},"longitude":"-0.200057"},"context":"","outcome_status":null,"persistent_id":"","id":74278138,"location_subtype":"","month":"2019-05"},{"category":"anti-social-behaviour","location_type":"Force","location":{"latitude":"51.517193","street":{"id":957159,"name":"On or near Theatre\/concert Hall"},"longitude":"-0.200830"},"context":"","outcome_status":null,"persistent_id":"","id":74278139,"location_subtype":"","month":"2019-05"},{"category":"anti-social-behaviour","location_type":"Force","location":{"latitude":"51.517193","street":{"id":957159,"name":"On or near Theatre\/concert Hall"},"longitude":"-0.200830"},"context":"","outcome_status":null,"persistent_id":"","id":74279087,"location_subtype":"","month":"2019-05"},{"category":"anti-social-behaviour","location_type":"Force","location":{"latitude":"51.514832","street":{"id":957113,"name":"On or near Lonsdale Road"},"longitude":"-0.201673"},"context":"","outcome_status":null,"persistent_id":"","id":74279088,"location_subtype":"","month":"2019-05"},{"category":"anti-social-behaviour","location_type":"Force","location":{"latitude":"51.516117","street":{"id":957106,"name":"On or near Powis Square"},"longitude":"-0.201651"},"context":"","outcome_status":null,"persistent_id":"","id":74279089,"location_subtype":"","month":"2019-05"},{"category":"anti-social-behaviour","location_type":"Force","location":{"latitude":"51.516117","street":{"id":957106,"name":"On or near Powis Square"},"longitude":"-0.201651"},"context":"","outcome_status":null,"persistent_id":"","id":74279090,"location_subtype":"","month":"2019-05"},{"category":"anti-social-behaviour","location_type":"Force","location":{"latitude":"51.513798","street":{"id":957093,"name":"On or near Westbourne Grove"},"longitude":"-0.202261"},"context":"","outcome_status":null,"persistent_id":"","id":74279091,"location_subtype":"","month":"2019-05"},{"category":"anti-social-behaviour","location_type":"Force","location":{"latitude":"51.513798","street":{"id":957093,"name":"On or near Westbourne Grove"},"longitude":"-0.202261"},"context":"","outcome_status":null,"persistent_id":"","id":74279092,"location_subtype":"","month":"2019-05"},{"category":"anti-social-behaviour","location_type":"Force","location":{"latitude":"51.513798","street":{"id":957093,"name":"On or near Westbourne Grove"},"longitude":"-0.202261"},"context":"","outcome_status":null,"persistent_id":"","id":74279093,"location_subtype":"","month":"2019-05"},{"category":"anti-social-behaviour","location_type":"Force","location":{"latitude":"51.518416","street":{"id":957170,"name":"On or near St Lukes Road"},"longitude":"-0.202036"},"context":"","outcome_status":null,"persistent_id":"","id":74279094,"location_subtype":"","month":"2019-05"},{"category":"anti-social-behaviour","location_type":"Force","location":{"latitude":"51.518416","street":{"id":957170,"name":"On or near St Lukes Road"},"longitude":"-0.202036"},"context":"","outcome_status":null,"persistent_id":"","id":74279095,"location_subtype":"","month":"2019-05"},{"category":"anti-social-behaviour","location_type":"Force","location":{"latitude":"51.513798","street":{"id":957093,"name":"On or near Westbourne Grove"},"longitude":"-0.202261"},"context":"","outcome_status":null,"persistent_id":"","id":74279096,"location_subtype":"","month":"2019-05"},{"category":"anti-social-behaviour","location_type":"Force","location":{"latitude":"51.515632","street":{"id":957146,"name":"On or near Colville Square"},"longitude":"-0.203991"},"context":"","outcome_status":null,"persistent_id":"","id":74279097,"location_subtype":"","month":"2019-05"},{"category":"anti-social-behaviour","location_type":"Force","location":{"latitude":"51.515632","street":{"id":957146,"name":"On or near Colville Square"},"longitude":"-0.203991"},"context":"","outcome_status":null,"persistent_id":"","id":74279098,"location_subtype":"","month":"2019-05"},{"category":"anti-social-behaviour","location_type":"Force","location":{"latitude":"51.518394","street":{"id":957180,"name":"On or near All Saints Road"},"longitude":"-0.204098"},"context":"","outcome_status":null,"persistent_id":"","id":74279100,"location_subtype":"","month":"2019-05"},{"category":"anti-social-behaviour","location_type":"Force","location":{"latitude":"51.518394","street":{"id":957180,"name":"On or near All Saints Road"},"longitude":"-0.204098"},"context":"","outcome_status":null,"persistent_id":"","id":74279101,"location_subtype":"","month":"2019-05"},{"category":"anti-social-behaviour","location_type":"Force","location":{"latitude":"51.519010","street":{"id":957168,"name":"On or near Tavistock Road"},"longitude":"-0.204405"},"context":"","outcome_status":null,"persistent_id":"","id":74279102,"location_subtype":"","month":"2019-05"},{"category":"anti-social-behaviour","location_type":"Force","location":{"latitude":"51.519010","street":{"id":957168,"name":"On or near Tavistock Road"},"longitude":"-0.204405"},"context":"","outcome_status":null,"persistent_id":"","id":74279103,"location_subtype":"","month":"2019-05"},{"category":"anti-social-behaviour","location_type":"Force","location":{"latitude":"51.519010","street":{"id":957168,"name":"On or near Tavistock Road"},"longitude":"-0.204405"},"context":"","outcome_status":null,"persistent_id":"","id":74279104,"location_subtype":"","month":"2019-05"},{"category":"anti-social-behaviour","location_type":"Force","location":{"latitude":"51.519010","street":{"id":957168,"name":"On or near Tavistock Road"},"longitude":"-0.204405"},"context":"","outcome_status":null,"persistent_id":"","id":74279105,"location_subtype":"","month":"2019-05"},{"category":"anti-social-behaviour","location_type":"Force","location":{"latitude":"51.519010","street":{"id":957168,"name":"On or near Tavistock Road"},"longitude":"-0.204405"},"context":"","outcome_status":null,"persistent_id":"","id":74279106,"location_subtype":"","month":"2019-05"},{"category":"anti-social-behaviour","location_type":"Force","location":{"latitude":"51.519423","street":{"id":957169,"name":"On or near Tavistock Crescent"},"longitude":"-0.204922"},"context":"","outcome_status":null,"persistent_id":"","id":74279107,"location_subtype":"","month":"2019-05"},{"category":"anti-social-behaviour","location_type":"Force","location":{"latitude":"51.515999","street":{"id":957109,"name":"On or near Portobello Road"},"longitude":"-0.205057"},"context":"","outcome_status":null,"persistent_id":"","id":74279110,"location_subtype":"","month":"2019-05"},{"category":"anti-social-behaviour","location_type":"Force","location":{"latitude":"51.515999","street":{"id":957109,"name":"On or near Portobello Road"},"longitude":"-0.205057"},"context":"","outcome_status":null,"persistent_id":"","id":74279111,"location_subtype":"","month":"2019-05"},{"category":"anti-social-behaviour","location_type":"Force","location":{"latitude":"51.515999","street":{"id":957109,"name":"On or near Portobello Road"},"longitude":"-0.205057"},"context":"","outcome_status":null,"persistent_id":"","id":74279112,"location_subtype":"","month":"2019-05"},{"category":"anti-social-behaviour","location_type":"Force","location":{"latitude":"51.515999","street":{"id":957109,"name":"On or near Portobello Road"},"longitude":"-0.205057"},"context":"","outcome_status":null,"persistent_id":"","id":74279113,"location_subtype":"","month":"2019-05"},{"category":"anti-social-behaviour","location_type":"Force","location":{"latitude":"51.517729","street":{"id":957179,"name":"On or near Basing Street"},"longitude":"-0.205292"},"context":"","outcome_status":null,"persistent_id":"","id":74279115,"location_subtype":"","month":"2019-05"},{"category":"anti-social-behaviour","location_type":"Force","location":{"latitude":"51.517729","street":{"id":957179,"name":"On or near Basing Street"},"longitude":"-0.205292"},"context":"","outcome_status":null,"persistent_id":"","id":74279116,"location_subtype":"","month":"2019-05"},{"category":"anti-social-behaviour","location_type":"Force","location":{"latitude":"51.518429","street":{"id":957165,"name":"On or near Shopping Area"},"longitude":"-0.206360"},"context":"","outcome_status":null,"persistent_id":"","id":74279121,"location_subtype":"","month":"2019-05"},{"category":"anti-social-behaviour","location_type":"Force","location":{"latitude":"51.514592","street":{"id":957136,"name":"On or near Elgin Crescent"},"longitude":"-0.206568"},"context":"","outcome_status":null,"persistent_id":"","id":74279122,"location_subtype":"","month":"2019-05"},{"category":"anti-social-behaviour","location_type":"Force","location":{"latitude":"51.507531","street":{"id":957327,"name":"On or near Lansdowne Mews"},"longitude":"-0.206456"},"context":"","outcome_status":null,"persistent_id":"","id":74279123,"location_subtype":"","month":"2019-05"},{"category":"anti-social-behaviour","location_type":"Force","location":{"latitude":"51.517033","street":{"id":957134,"name":"On or near Hayden's Place"},"longitude":"-0.206256"},"context":"","outcome_status":null,"persistent_id":"","id":74279124,"location_subtype":"","month":"2019-05"},{"category":"anti-social-behaviour","location_type":"Force","location":{"latitude":"51.518429","street":{"id":957165,"name":"On or near Shopping Area"},"longitude":"-0.206360"},"context":"","outcome_status":null,"persistent_id":"","id":74279128,"location_subtype":"","month":"2019-05"},{"category":"anti-social-behaviour","location_type":"Force","location":{"latitude":"51.518429","street":{"id":957165,"name":"On or near Shopping Area"},"longitude":"-0.206360"},"context":"","outcome_status":null,"persistent_id":"","id":74279129,"location_subtype":"","month":"2019-05"},{"category":"anti-social-behaviour","location_type":"Force","location":{"latitude":"51.514592","street":{"id":957136,"name":"On or near Elgin Crescent"},"longitude":"-0.206568"},"context":"","outcome_status":null,"persistent_id":"","id":74279130,"location_subtype":"","month":"2019-05"},{"category":"anti-social-behaviour","location_type":"Force","location":{"latitude":"51.517545","street":{"id":957089,"name":"On or near Rainsford Street"},"longitude":"-0.169554"},"context":"","outcome_status":null,"persistent_id":"","id":74274688,"location_subtype":"","month":"2019-05"},{"category":"anti-social-behaviour","location_type":"Force","location":{"latitude":"51.517545","street":{"id":957089,"name":"On or near Rainsford Street"},"longitude":"-0.169554"},"context":"","outcome_status":null,"persistent_id":"","id":74274687,"location_subtype":"","month":"2019-05"},{"category":"anti-social-behaviour","location_type":"Force","location":{"latitude":"51.516296","street":{"id":957037,"name":"On or near Cambridge Square"},"longitude":"-0.168437"},"context":"","outcome_status":null,"persistent_id":"","id":74274679,"location_subtype":"","month":"2019-05"},{"category":"anti-social-behaviour","location_type":"Force","location":{"latitude":"51.513067","street":{"id":957034,"name":"On or near Clarendon Place"},"longitude":"-0.168998"},"context":"","outcome_status":null,"persistent_id":"","id":74274677,"location_subtype":"","month":"2019-05"},{"category":"anti-social-behaviour","location_type":"Force","location":{"latitude":"51.516296","street":{"id":957037,"name":"On or near Cambridge Square"},"longitude":"-0.168437"},"context":"","outcome_status":null,"persistent_id":"","id":74274676,"location_subtype":"","month":"2019-05"},{"category":"anti-social-behaviour","location_type":"Force","location":{"latitude":"51.517975","street":{"id":957090,"name":"On or near Junction Mews"},"longitude":"-0.168845"},"context":"","outcome_status":null,"persistent_id":"","id":74274660,"location_subtype":"","month":"2019-05"},{"category":"anti-social-behaviour","location_type":"Force","location":{"latitude":"51.517975","street":{"id":957090,"name":"On or near Junction Mews"},"longitude":"-0.168845"},"context":"","outcome_status":null,"persistent_id":"","id":74274659,"location_subtype":"","month":"2019-05"},{"category":"anti-social-behaviour","location_type":"Force","location":{"latitude":"51.517975","street":{"id":957090,"name":"On or near Junction Mews"},"longitude":"-0.168845"},"context":"","outcome_status":null,"persistent_id":"","id":74274658,"location_subtype":"","month":"2019-05"},{"category":"anti-social-behaviour","location_type":"Force","location":{"latitude":"51.517975","street":{"id":957090,"name":"On or near Junction Mews"},"longitude":"-0.168845"},"context":"","outcome_status":null,"persistent_id":"","id":74274657,"location_subtype":"","month":"2019-05"},{"category":"anti-social-behaviour","location_type":"Force","location":{"latitude":"51.517975","street":{"id":957090,"name":"On or near Junction Mews"},"longitude":"-0.168845"},"context":"","outcome_status":null,"persistent_id":"","id":74274656,"location_subtype":"","month":"2019-05"},{"category":"anti-social-behaviour","location_type":"Force","location":{"latitude":"51.508221","street":{"id":957321,"name":"On or near Princedale Road"},"longitude":"-0.209787"},"context":"","outcome_status":null,"persistent_id":"","id":74279136,"location_subtype":"","month":"2019-05"},{"category":"anti-social-behaviour","location_type":"Force","location":{"latitude":"51.517975","street":{"id":957090,"name":"On or near Junction Mews"},"longitude":"-0.168845"},"context":"","outcome_status":null,"persistent_id":"","id":74274661,"location_subtype":"","month":"2019-05"},{"category":"anti-social-behaviour","location_type":"Force","location":{"latitude":"51.517975","street":{"id":957090,"name":"On or near Junction Mews"},"longitude":"-0.168845"},"context":"","outcome_status":null,"persistent_id":"","id":74274664,"location_subtype":"","month":"2019-05"},{"category":"anti-social-behaviour","location_type":"Force","location":{"latitude":"51.519392","street":{"id":960324,"name":"On or near Harbet Road"},"longitude":"-0.170907"},"context":"","outcome_status":null,"persistent_id":"","id":74274723,"location_subtype":"","month":"2019-05"},{"category":"anti-social-behaviour","location_type":"Force","location":{"latitude":"51.519392","street":{"id":960324,"name":"On or near Harbet Road"},"longitude":"-0.170907"},"context":"","outcome_status":null,"persistent_id":"","id":74274722,"location_subtype":"","month":"2019-05"},{"category":"anti-social-behaviour","location_type":"Force","location":{"latitude":"51.516296","street":{"id":957037,"name":"On or near Cambridge Square"},"longitude":"-0.168437"},"context":"","outcome_status":null,"persistent_id":"","id":74274675,"location_subtype":"","month":"2019-05"},{"category":"anti-social-behaviour","location_type":"Force","location":{"latitude":"51.517975","street":{"id":957090,"name":"On or near Junction Mews"},"longitude":"-0.168845"},"context":"","outcome_status":null,"persistent_id":"","id":74274662,"location_subtype":"","month":"2019-05"},{"category":"anti-social-behaviour","location_type":"Force","location":{"latitude":"51.520526","street":{"id":960314,"name":"On or near St Mary's Square"},"longitude":"-0.176151"},"context":"","outcome_status":null,"persistent_id":"","id":74275585,"location_subtype":"","month":"2019-05"},{"category":"anti-social-behaviour","location_type":"Force","location":{"latitude":"51.516700","street":{"id":957054,"name":"On or near Praed Mews"},"longitude":"-0.172989"},"context":"","outcome_status":null,"persistent_id":"","id":74274755,"location_subtype":"","month":"2019-05"},{"category":"anti-social-behaviour","location_type":"Force","location":{"latitude":"51.513648","street":{"id":957068,"name":"On or near Craven Road"},"longitude":"-0.179121"},"context":"","outcome_status":null,"persistent_id":"","id":74275611,"location_subtype":"","month":"2019-05"},{"category":"anti-social-behaviour","location_type":"Force","location":{"latitude":"51.517199","street":{"id":957081,"name":"On or near Praed Street"},"longitude":"-0.172739"},"context":"","outcome_status":null,"persistent_id":"","id":74274753,"location_subtype":"","month":"2019-05"},{"category":"anti-social-behaviour","location_type":"Force","location":{"latitude":"51.516218","street":{"id":956999,"name":"On or near Cleveland Terrace"},"longitude":"-0.181930"},"context":"","outcome_status":null,"persistent_id":"","id":74275640,"location_subtype":"","month":"2019-05"},{"category":"anti-social-behaviour","location_type":"Force","location":{"latitude":"51.522096","street":{"id":960295,"name":"On or near Warwick Place"},"longitude":"-0.183484"},"context":"","outcome_status":null,"persistent_id":"","id":74275652,"location_subtype":"","month":"2019-05"},{"category":"anti-social-behaviour","location_type":"Force","location":{"latitude":"51.514721","street":{"id":957047,"name":"On or near Sussex Gardens"},"longitude":"-0.173544"},"context":"","outcome_status":null,"persistent_id":"","id":74274750,"location_subtype":"","month":"2019-05"},{"category":"anti-social-behaviour","location_type":"Force","location":{"latitude":"51.512603","street":{"id":956965,"name":"On or near Queensborough Mews"},"longitude":"-0.185403"},"context":"","outcome_status":null,"persistent_id":"","id":74275668,"location_subtype":"","month":"2019-05"},{"category":"anti-social-behaviour","location_type":"Force","location":{"latitude":"51.514721","street":{"id":957047,"name":"On or near Sussex Gardens"},"longitude":"-0.173544"},"context":"","outcome_status":null,"persistent_id":"","id":74274749,"location_subtype":"","month":"2019-05"},{"category":"anti-social-behaviour","location_type":"Force","location":{"latitude":"51.517199","street":{"id":957081,"name":"On or near Praed Street"},"longitude":"-0.172739"},"context":"","outcome_status":null,"persistent_id":"","id":74274736,"location_subtype":"","month":"2019-05"},{"category":"anti-social-behaviour","location_type":"Force","location":{"latitude":"51.511609","street":{"id":957012,"name":"On or near B411"},"longitude":"-0.186279"},"context":"","outcome_status":null,"persistent_id":"","id":74275676,"location_subtype":"","month":"2019-05"},{"category":"anti-social-behaviour","location_type":"Force","location":{"latitude":"51.516834","street":{"id":956951,"name":"On or near Parking Area"},"longitude":"-0.186273"},"context":"","outcome_status":null,"persistent_id":"","id":74275689,"location_subtype":"","month":"2019-05"},{"category":"anti-social-behaviour","location_type":"Force","location":{"latitude":"51.519929","street":{"id":960319,"name":"On or near Marylebone Flyover"},"longitude":"-0.172500"},"context":"","outcome_status":null,"persistent_id":"","id":74274734,"location_subtype":"","month":"2019-05"},{"category":"anti-social-behaviour","location_type":"Force","location":{"latitude":"51.513034","street":{"id":956961,"name":"On or near Queensway"},"longitude":"-0.187663"},"context":"","outcome_status":null,"persistent_id":"","id":74275701,"location_subtype":"","month":"2019-05"},{"category":"anti-social-behaviour","location_type":"Force","location":{"latitude":"51.516610","street":{"id":957051,"name":"On or near Southwick Mews"},"longitude":"-0.171263"},"context":"","outcome_status":null,"persistent_id":"","id":74274726,"location_subtype":"","month":"2019-05"},{"category":"anti-social-behaviour","location_type":"Force","location":{"latitude":"51.517975","street":{"id":957090,"name":"On or near Junction Mews"},"longitude":"-0.168845"},"context":"","outcome_status":null,"persistent_id":"","id":74289716,"location_subtype":"","month":"2019-05"},{"category":"anti-social-behaviour","location_type":"Force","location":{"latitude":"51.516700","street":{"id":957054,"name":"On or near Praed Mews"},"longitude":"-0.172989"},"context":"","outcome_status":null,"persistent_id":"","id":74274754,"location_subtype":"","month":"2019-05"},{"category":"anti-social-behaviour","location_type":"Force","location":{"latitude":"51.514540","street":{"id":957067,"name":"On or near Craven Road"},"longitude":"-0.177529"},"context":"","outcome_status":null,"persistent_id":"","id":74275600,"location_subtype":"","month":"2019-05"},{"category":"anti-social-behaviour","location_type":"Force","location":{"latitude":"51.521418","street":{"id":960327,"name":"On or near Church Street"},"longitude":"-0.173406"},"context":"","outcome_status":null,"persistent_id":"","id":74274752,"location_subtype":"","month":"2019-05"},{"category":"anti-social-behaviour","location_type":"Force","location":{"latitude":"51.514915","street":{"id":957091,"name":"On or near Southwick Place"},"longitude":"-0.169241"},"context":"","outcome_status":null,"persistent_id":"","id":74274678,"location_subtype":"","month":"2019-05"},{"category":"anti-social-behaviour","location_type":"Force","location":{"latitude":"51.521418","street":{"id":960327,"name":"On or near Church Street"},"longitude":"-0.173406"},"context":"","outcome_status":null,"persistent_id":"","id":74274751,"location_subtype":"","month":"2019-05"},{"category":"anti-social-behaviour","location_type":"Force","location":{"latitude":"51.514721","street":{"id":957047,"name":"On or near Sussex Gardens"},"longitude":"-0.173544"},"context":"","outcome_status":null,"persistent_id":"","id":74274748,"location_subtype":"","month":"2019-05"},{"category":"anti-social-behaviour","location_type":"Force","location":{"latitude":"51.516469","street":{"id":956962,"name":"On or near Queensway"},"longitude":"-0.188867"},"context":"","outcome_status":null,"persistent_id":"","id":74275728,"location_subtype":"","month":"2019-05"},{"category":"anti-social-behaviour","location_type":"Force","location":{"latitude":"51.514721","street":{"id":957047,"name":"On or near Sussex Gardens"},"longitude":"-0.173544"},"context":"","outcome_status":null,"persistent_id":"","id":74274747,"location_subtype":"","month":"2019-05"},{"category":"anti-social-behaviour","location_type":"Force","location":{"latitude":"51.514721","street":{"id":957047,"name":"On or near Sussex Gardens"},"longitude":"-0.173544"},"context":"","outcome_status":null,"persistent_id":"","id":74274746,"location_subtype":"","month":"2019-05"},{"category":"anti-social-behaviour","location_type":"Force","location":{"latitude":"51.514721","street":{"id":957047,"name":"On or near Sussex Gardens"},"longitude":"-0.173544"},"context":"","outcome_status":null,"persistent_id":"","id":74274745,"location_subtype":"","month":"2019-05"},{"category":"anti-social-behaviour","location_type":"Force","location":{"latitude":"51.514721","street":{"id":957047,"name":"On or near Sussex Gardens"},"longitude":"-0.173544"},"context":"","outcome_status":null,"persistent_id":"","id":74274744,"location_subtype":"","month":"2019-05"},{"category":"anti-social-behaviour","location_type":"Force","location":{"latitude":"51.514721","street":{"id":957047,"name":"On or near Sussex Gardens"},"longitude":"-0.173544"},"context":"","outcome_status":null,"persistent_id":"","id":74274743,"location_subtype":"","month":"2019-05"},{"category":"anti-social-behaviour","location_type":"Force","location":{"latitude":"51.514721","street":{"id":957047,"name":"On or near Sussex Gardens"},"longitude":"-0.173544"},"context":"","outcome_status":null,"persistent_id":"","id":74274742,"location_subtype":"","month":"2019-05"},{"category":"anti-social-behaviour","location_type":"Force","location":{"latitude":"51.514721","street":{"id":957047,"name":"On or near Sussex Gardens"},"longitude":"-0.173544"},"context":"","outcome_status":null,"persistent_id":"","id":74274741,"location_subtype":"","month":"2019-05"},{"category":"anti-social-behaviour","location_type":"Force","location":{"latitude":"51.517199","street":{"id":957081,"name":"On or near Praed Street"},"longitude":"-0.172739"},"context":"","outcome_status":null,"persistent_id":"","id":74274735,"location_subtype":"","month":"2019-05"},{"category":"anti-social-behaviour","location_type":"Force","location":{"latitude":"51.524193","street":{"id":960265,"name":"On or near Elnathan Mews"},"longitude":"-0.187681"},"context":"","outcome_status":null,"persistent_id":"","id":74275730,"location_subtype":"","month":"2019-05"},{"category":"anti-social-behaviour","location_type":"Force","location":{"latitude":"51.501667","street":{"id":952878,"name":"On or near Kensington Road"},"longitude":"-0.175478"},"context":"","outcome_status":null,"persistent_id":"","id":74282302,"location_subtype":"","month":"2019-05"},{"category":"anti-social-behaviour","location_type":"Force","location":{"latitude":"51.519929","street":{"id":960319,"name":"On or near Marylebone Flyover"},"longitude":"-0.172500"},"context":"","outcome_status":null,"persistent_id":"","id":74274733,"location_subtype":"","month":"2019-05"},{"category":"anti-social-behaviour","location_type":"Force","location":{"latitude":"51.516610","street":{"id":957051,"name":"On or near Southwick Mews"},"longitude":"-0.171263"},"context":"","outcome_status":null,"persistent_id":"","id":74274729,"location_subtype":"","month":"2019-05"},{"category":"anti-social-behaviour","location_type":"Force","location":{"latitude":"51.519392","street":{"id":960324,"name":"On or near Harbet Road"},"longitude":"-0.170907"},"context":"","outcome_status":null,"persistent_id":"","id":74274724,"location_subtype":"","month":"2019-05"},{"category":"anti-social-behaviour","location_type":"Force","location":{"latitude":"51.517892","street":{"id":957082,"name":"On or near Junction Place"},"longitude":"-0.171039"},"context":"","outcome_status":null,"persistent_id":"","id":74274721,"location_subtype":"","month":"2019-05"},{"category":"anti-social-behaviour","location_type":"Force","location":{"latitude":"51.516447","street":{"id":957029,"name":"On or near Southwick Street"},"longitude":"-0.170045"},"context":"","outcome_status":null,"persistent_id":"","id":74274714,"location_subtype":"","month":"2019-05"},{"category":"anti-social-behaviour","location_type":"Force","location":{"latitude":"51.516194","street":{"id":957344,"name":"On or near Hatherley Grove"},"longitude":"-0.189700"},"context":"","outcome_status":null,"persistent_id":"","id":74276317,"location_subtype":"","month":"2019-05"},{"category":"anti-social-behaviour","location_type":"Force","location":{"latitude":"51.515463","street":{"id":957030,"name":"On or near Somers Crescent"},"longitude":"-0.169810"},"context":"","outcome_status":null,"persistent_id":"","id":74274709,"location_subtype":"","month":"2019-05"},{"category":"anti-social-behaviour","location_type":"Force","location":{"latitude":"51.501202","street":{"id":952727,"name":"On or near Phillimore Walk"},"longitude":"-0.194242"},"context":"","outcome_status":null,"persistent_id":"","id":74278059,"location_subtype":"","month":"2019-05"},{"category":"anti-social-behaviour","location_type":"Force","location":{"latitude":"51.517545","street":{"id":957089,"name":"On or near Rainsford Street"},"longitude":"-0.169554"},"context":"","outcome_status":null,"persistent_id":"","id":74274690,"location_subtype":"","month":"2019-05"},{"category":"anti-social-behaviour","location_type":"Force","location":{"latitude":"51.517545","street":{"id":957089,"name":"On or near Rainsford Street"},"longitude":"-0.169554"},"context":"","outcome_status":null,"persistent_id":"","id":74274689,"location_subtype":"","month":"2019-05"},{"category":"anti-social-behaviour","location_type":"Force","location":{"latitude":"51.517199","street":{"id":957081,"name":"On or near Praed Street"},"longitude":"-0.172739"},"context":"","outcome_status":null,"persistent_id":"","id":74275557,"location_subtype":"","month":"2019-05"},{"category":"anti-social-behaviour","location_type":"Force","location":{"latitude":"51.520649","street":{"id":960317,"name":"On or near Paddington Green"},"longitude":"-0.173653"},"context":"","outcome_status":null,"persistent_id":"","id":74275565,"location_subtype":"","month":"2019-05"},{"category":"anti-social-behaviour","location_type":"Force","location":{"latitude":"51.515241","street":{"id":957069,"name":"On or near Conduit Place"},"longitude":"-0.175210"},"context":"","outcome_status":null,"persistent_id":"","id":74275567,"location_subtype":"","month":"2019-05"},{"category":"anti-social-behaviour","location_type":"Force","location":{"latitude":"51.515957","street":{"id":957058,"name":"On or near London Street"},"longitude":"-0.174979"},"context":"","outcome_status":null,"persistent_id":"","id":74275568,"location_subtype":"","month":"2019-05"},{"category":"anti-social-behaviour","location_type":"Force","location":{"latitude":"51.515957","street":{"id":957058,"name":"On or near London Street"},"longitude":"-0.174979"},"context":"","outcome_status":null,"persistent_id":"","id":74275569,"location_subtype":"","month":"2019-05"},{"category":"anti-social-behaviour","location_type":"Force","location":{"latitude":"51.515957","street":{"id":957058,"name":"On or near London Street"},"longitude":"-0.174979"},"context":"","outcome_status":null,"persistent_id":"","id":74275570,"location_subtype":"","month":"2019-05"},{"category":"anti-social-behaviour","location_type":"Force","location":{"latitude":"51.515241","street":{"id":957069,"name":"On or near Conduit Place"},"longitude":"-0.175210"},"context":"","outcome_status":null,"persistent_id":"","id":74275571,"location_subtype":"","month":"2019-05"},{"category":"anti-social-behaviour","location_type":"Force","location":{"latitude":"51.514617","street":{"id":957050,"name":"On or near Spring Street"},"longitude":"-0.175552"},"context":"","outcome_status":null,"persistent_id":"","id":74275576,"location_subtype":"","month":"2019-05"},{"category":"anti-social-behaviour","location_type":"Force","location":{"latitude":"51.512258","street":{"id":957060,"name":"On or near Lancaster Terrace"},"longitude":"-0.175920"},"context":"","outcome_status":null,"persistent_id":"","id":74275579,"location_subtype":"","month":"2019-05"},{"category":"anti-social-behaviour","location_type":"Force","location":{"latitude":"51.512258","street":{"id":957060,"name":"On or near Lancaster Terrace"},"longitude":"-0.175920"},"context":"","outcome_status":null,"persistent_id":"","id":74275580,"location_subtype":"","month":"2019-05"},{"category":"anti-social-behaviour","location_type":"Force","location":{"latitude":"51.522958","street":{"id":960177,"name":"On or near Hall Place"},"longitude":"-0.175838"},"context":"","outcome_status":null,"persistent_id":"","id":74275581,"location_subtype":"","month":"2019-05"},{"category":"anti-social-behaviour","location_type":"Force","location":{"latitude":"51.522958","street":{"id":960177,"name":"On or near Hall Place"},"longitude":"-0.175838"},"context":"","outcome_status":null,"persistent_id":"","id":74275582,"location_subtype":"","month":"2019-05"},{"category":"anti-social-behaviour","location_type":"Force","location":{"latitude":"51.522958","street":{"id":960177,"name":"On or near Hall Place"},"longitude":"-0.175838"},"context":"","outcome_status":null,"persistent_id":"","id":74275583,"location_subtype":"","month":"2019-05"},{"category":"anti-social-behaviour","location_type":"Force","location":{"latitude":"51.520526","street":{"id":960314,"name":"On or near St Mary's Square"},"longitude":"-0.176151"},"context":"","outcome_status":null,"persistent_id":"","id":74275584,"location_subtype":"","month":"2019-05"},{"category":"anti-social-behaviour","location_type":"Force","location":{"latitude":"51.520526","street":{"id":960314,"name":"On or near St Mary's Square"},"longitude":"-0.176151"},"context":"","outcome_status":null,"persistent_id":"","id":74275586,"location_subtype":"","month":"2019-05"},{"category":"anti-social-behaviour","location_type":"Force","location":{"latitude":"51.521777","street":{"id":960315,"name":"On or near St Mary's Mansions"},"longitude":"-0.177413"},"context":"","outcome_status":null,"persistent_id":"","id":74275592,"location_subtype":"","month":"2019-05"},{"category":"anti-social-behaviour","location_type":"Force","location":{"latitude":"51.514413","street":{"id":957070,"name":"On or near Conduit Mews"},"longitude":"-0.176266"},"context":"","outcome_status":null,"persistent_id":"","id":74275593,"location_subtype":"","month":"2019-05"},{"category":"anti-social-behaviour","location_type":"Force","location":{"latitude":"51.514413","street":{"id":957070,"name":"On or near Conduit Mews"},"longitude":"-0.176266"},"context":"","outcome_status":null,"persistent_id":"","id":74275594,"location_subtype":"","month":"2019-05"},{"category":"anti-social-behaviour","location_type":"Force","location":{"latitude":"51.514413","street":{"id":957070,"name":"On or near Conduit Mews"},"longitude":"-0.176266"},"context":"","outcome_status":null,"persistent_id":"","id":74275595,"location_subtype":"","month":"2019-05"},{"category":"anti-social-behaviour","location_type":"Force","location":{"latitude":"51.511816","street":{"id":957066,"name":"On or near Elms Mews"},"longitude":"-0.177004"},"context":"","outcome_status":null,"persistent_id":"","id":74275599,"location_subtype":"","month":"2019-05"},{"category":"anti-social-behaviour","location_type":"Force","location":{"latitude":"51.514540","street":{"id":957067,"name":"On or near Craven Road"},"longitude":"-0.177529"},"context":"","outcome_status":null,"persistent_id":"","id":74275601,"location_subtype":"","month":"2019-05"},{"category":"anti-social-behaviour","location_type":"Force","location":{"latitude":"51.517497","street":{"id":957085,"name":"On or near Bus\/coach Station"},"longitude":"-0.177454"},"context":"","outcome_status":null,"persistent_id":"","id":74275602,"location_subtype":"","month":"2019-05"},{"category":"anti-social-behaviour","location_type":"Force","location":{"latitude":"51.513204","street":{"id":957075,"name":"On or near Brook Mews North"},"longitude":"-0.178375"},"context":"","outcome_status":null,"persistent_id":"","id":74275603,"location_subtype":"","month":"2019-05"},{"category":"anti-social-behaviour","location_type":"Force","location":{"latitude":"51.516575","street":{"id":956993,"name":"On or near Eastbourne Mews"},"longitude":"-0.179437"},"context":"","outcome_status":null,"persistent_id":"","id":74275607,"location_subtype":"","month":"2019-05"},{"category":"anti-social-behaviour","location_type":"Force","location":{"latitude":"51.520303","street":{"id":960292,"name":"On or near Pedestrian Subway"},"longitude":"-0.179202"},"context":"","outcome_status":null,"persistent_id":"","id":74275608,"location_subtype":"","month":"2019-05"},{"category":"anti-social-behaviour","location_type":"Force","location":{"latitude":"51.513648","street":{"id":957068,"name":"On or near Craven Road"},"longitude":"-0.179121"},"context":"","outcome_status":null,"persistent_id":"","id":74275609,"location_subtype":"","month":"2019-05"},{"category":"anti-social-behaviour","location_type":"Force","location":{"latitude":"51.513648","street":{"id":957068,"name":"On or near Craven Road"},"longitude":"-0.179121"},"context":"","outcome_status":null,"persistent_id":"","id":74275610,"location_subtype":"","month":"2019-05"},{"category":"anti-social-behaviour","location_type":"Force","location":{"latitude":"51.513648","street":{"id":957068,"name":"On or near Craven Road"},"longitude":"-0.179121"},"context":"","outcome_status":null,"persistent_id":"","id":74275612,"location_subtype":"","month":"2019-05"},{"category":"anti-social-behaviour","location_type":"Force","location":{"latitude":"51.513648","street":{"id":957068,"name":"On or near Craven Road"},"longitude":"-0.179121"},"context":"","outcome_status":null,"persistent_id":"","id":74275613,"location_subtype":"","month":"2019-05"},{"category":"anti-social-behaviour","location_type":"Force","location":{"latitude":"51.513648","street":{"id":957068,"name":"On or near Craven Road"},"longitude":"-0.179121"},"context":"","outcome_status":null,"persistent_id":"","id":74275614,"location_subtype":"","month":"2019-05"},{"category":"anti-social-behaviour","location_type":"Force","location":{"latitude":"51.513648","street":{"id":957068,"name":"On or near Craven Road"},"longitude":"-0.179121"},"context":"","outcome_status":null,"persistent_id":"","id":74275615,"location_subtype":"","month":"2019-05"},{"category":"anti-social-behaviour","location_type":"Force","location":{"latitude":"51.521196","street":{"id":960321,"name":"On or near John Aird Court"},"longitude":"-0.178806"},"context":"","outcome_status":null,"persistent_id":"","id":74275617,"location_subtype":"","month":"2019-05"},{"category":"anti-social-behaviour","location_type":"Force","location":{"latitude":"51.521196","street":{"id":960321,"name":"On or near John Aird Court"},"longitude":"-0.178806"},"context":"","outcome_status":null,"persistent_id":"","id":74275618,"location_subtype":"","month":"2019-05"},{"category":"anti-social-behaviour","location_type":"Force","location":{"latitude":"51.521196","street":{"id":960321,"name":"On or near John Aird Court"},"longitude":"-0.178806"},"context":"","outcome_status":null,"persistent_id":"","id":74275619,"location_subtype":"","month":"2019-05"},{"category":"anti-social-behaviour","location_type":"Force","location":{"latitude":"51.518430","street":{"id":957026,"name":"On or near Bishop's Bridge Road"},"longitude":"-0.179608"},"context":"","outcome_status":null,"persistent_id":"","id":74275626,"location_subtype":"","month":"2019-05"},{"category":"anti-social-behaviour","location_type":"Force","location":{"latitude":"51.511691","street":{"id":956981,"name":"On or near Lancaster Gate"},"longitude":"-0.180511"},"context":"","outcome_status":null,"persistent_id":"","id":74275630,"location_subtype":"","month":"2019-05"},{"category":"anti-social-behaviour","location_type":"Force","location":{"latitude":"51.513630","street":{"id":956995,"name":"On or near Craven Hill Mews"},"longitude":"-0.180866"},"context":"","outcome_status":null,"persistent_id":"","id":74275631,"location_subtype":"","month":"2019-05"},{"category":"anti-social-behaviour","location_type":"Force","location":{"latitude":"51.511734","street":{"id":956979,"name":"On or near Leinster Mews"},"longitude":"-0.182166"},"context":"","outcome_status":null,"persistent_id":"","id":74275635,"location_subtype":"","month":"2019-05"},{"category":"anti-social-behaviour","location_type":"Force","location":{"latitude":"51.517051","street":{"id":956956,"name":"On or near Westbourne Terrace"},"longitude":"-0.181695"},"context":"","outcome_status":null,"persistent_id":"","id":74275636,"location_subtype":"","month":"2019-05"},{"category":"anti-social-behaviour","location_type":"Force","location":{"latitude":"51.517051","street":{"id":956956,"name":"On or near Westbourne Terrace"},"longitude":"-0.181695"},"context":"","outcome_status":null,"persistent_id":"","id":74275637,"location_subtype":"","month":"2019-05"},{"category":"anti-social-behaviour","location_type":"Force","location":{"latitude":"51.517051","street":{"id":956956,"name":"On or near Westbourne Terrace"},"longitude":"-0.181695"},"context":"","outcome_status":null,"persistent_id":"","id":74275638,"location_subtype":"","month":"2019-05"},{"category":"anti-social-behaviour","location_type":"Force","location":{"latitude":"51.517051","street":{"id":956956,"name":"On or near Westbourne Terrace"},"longitude":"-0.181695"},"context":"","outcome_status":null,"persistent_id":"","id":74275639,"location_subtype":"","month":"2019-05"},{"category":"anti-social-behaviour","location_type":"Force","location":{"latitude":"51.517051","street":{"id":956956,"name":"On or near Westbourne Terrace"},"longitude":"-0.181695"},"context":"","outcome_status":null,"persistent_id":"","id":74275641,"location_subtype":"","month":"2019-05"},{"category":"anti-social-behaviour","location_type":"Force","location":{"latitude":"51.511425","street":{"id":956977,"name":"On or near Leinster Terrace"},"longitude":"-0.183058"},"context":"","outcome_status":null,"persistent_id":"","id":74275642,"location_subtype":"","month":"2019-05"},{"category":"anti-social-behaviour","location_type":"Force","location":{"latitude":"51.511425","street":{"id":956977,"name":"On or near Leinster Terrace"},"longitude":"-0.183058"},"context":"","outcome_status":null,"persistent_id":"","id":74275643,"location_subtype":"","month":"2019-05"},{"category":"anti-social-behaviour","location_type":"Force","location":{"latitude":"51.511734","street":{"id":956979,"name":"On or near Leinster Mews"},"longitude":"-0.182166"},"context":"","outcome_status":null,"persistent_id":"","id":74275645,"location_subtype":"","month":"2019-05"},{"category":"anti-social-behaviour","location_type":"Force","location":{"latitude":"51.520870","street":{"id":960296,"name":"On or near Warwick Crescent"},"longitude":"-0.182696"},"context":"","outcome_status":null,"persistent_id":"","id":74275646,"location_subtype":"","month":"2019-05"},{"category":"anti-social-behaviour","location_type":"Force","location":{"latitude":"51.520870","street":{"id":960296,"name":"On or near Warwick Crescent"},"longitude":"-0.182696"},"context":"","outcome_status":null,"persistent_id":"","id":74275647,"location_subtype":"","month":"2019-05"},{"category":"anti-social-behaviour","location_type":"Force","location":{"latitude":"51.513819","street":{"id":956980,"name":"On or near Leinster Gardens"},"longitude":"-0.183798"},"context":"","outcome_status":null,"persistent_id":"","id":74275650,"location_subtype":"","month":"2019-05"},{"category":"anti-social-behaviour","location_type":"Force","location":{"latitude":"51.516965","street":{"id":956990,"name":"On or near Gloucester Gardens"},"longitude":"-0.184870"},"context":"","outcome_status":null,"persistent_id":"","id":74275651,"location_subtype":"","month":"2019-05"},{"category":"anti-social-behaviour","location_type":"Force","location":{"latitude":"51.519786","street":{"id":960291,"name":"On or near Pedestrian Subway"},"longitude":"-0.184729"},"context":"","outcome_status":null,"persistent_id":"","id":74275653,"location_subtype":"","month":"2019-05"},{"category":"anti-social-behaviour","location_type":"Force","location":{"latitude":"51.512461","street":{"id":956969,"name":"On or near Porchester Terrace"},"longitude":"-0.184357"},"context":"","outcome_status":null,"persistent_id":"","id":74275654,"location_subtype":"","month":"2019-05"},{"category":"anti-social-behaviour","location_type":"Force","location":{"latitude":"51.512461","street":{"id":956969,"name":"On or near Porchester Terrace"},"longitude":"-0.184357"},"context":"","outcome_status":null,"persistent_id":"","id":74275655,"location_subtype":"","month":"2019-05"},{"category":"anti-social-behaviour","location_type":"Force","location":{"latitude":"51.512461","street":{"id":956969,"name":"On or near Porchester Terrace"},"longitude":"-0.184357"},"context":"","outcome_status":null,"persistent_id":"","id":74275656,"location_subtype":"","month":"2019-05"},{"category":"anti-social-behaviour","location_type":"Force","location":{"latitude":"51.512461","street":{"id":956969,"name":"On or near Porchester Terrace"},"longitude":"-0.184357"},"context":"","outcome_status":null,"persistent_id":"","id":74275657,"location_subtype":"","month":"2019-05"},{"category":"anti-social-behaviour","location_type":"Force","location":{"latitude":"51.516965","street":{"id":956990,"name":"On or near Gloucester Gardens"},"longitude":"-0.184870"},"context":"","outcome_status":null,"persistent_id":"","id":74275658,"location_subtype":"","month":"2019-05"},{"category":"anti-social-behaviour","location_type":"Force","location":{"latitude":"51.514298","street":{"id":956978,"name":"On or near Leinster Place"},"longitude":"-0.184529"},"context":"","outcome_status":null,"persistent_id":"","id":74275659,"location_subtype":"","month":"2019-05"},{"category":"anti-social-behaviour","location_type":"Force","location":{"latitude":"51.517645","street":{"id":957021,"name":"On or near Orsett Terrace"},"longitude":"-0.184655"},"context":"","outcome_status":null,"persistent_id":"","id":74275661,"location_subtype":"","month":"2019-05"},{"category":"anti-social-behaviour","location_type":"Force","location":{"latitude":"51.511291","street":{"id":956982,"name":"On or near Inverness Terrace"},"longitude":"-0.186061"},"context":"","outcome_status":null,"persistent_id":"","id":74275662,"location_subtype":"","month":"2019-05"},{"category":"anti-social-behaviour","location_type":"Force","location":{"latitude":"51.511291","street":{"id":956982,"name":"On or near Inverness Terrace"},"longitude":"-0.186061"},"context":"","outcome_status":null,"persistent_id":"","id":74275663,"location_subtype":"","month":"2019-05"},{"category":"anti-social-behaviour","location_type":"Force","location":{"latitude":"51.512603","street":{"id":956965,"name":"On or near Queensborough Mews"},"longitude":"-0.185403"},"context":"","outcome_status":null,"persistent_id":"","id":74275666,"location_subtype":"","month":"2019-05"},{"category":"anti-social-behaviour","location_type":"Force","location":{"latitude":"51.512603","street":{"id":956965,"name":"On or near Queensborough Mews"},"longitude":"-0.185403"},"context":"","outcome_status":null,"persistent_id":"","id":74275667,"location_subtype":"","month":"2019-05"},{"category":"anti-social-behaviour","location_type":"Force","location":{"latitude":"51.511609","street":{"id":957012,"name":"On or near B411"},"longitude":"-0.186279"},"context":"","outcome_status":null,"persistent_id":"","id":74275670,"location_subtype":"","month":"2019-05"},{"category":"anti-social-behaviour","location_type":"Force","location":{"latitude":"51.511609","street":{"id":957012,"name":"On or near B411"},"longitude":"-0.186279"},"context":"","outcome_status":null,"persistent_id":"","id":74275671,"location_subtype":"","month":"2019-05"},{"category":"anti-social-behaviour","location_type":"Force","location":{"latitude":"51.511609","street":{"id":957012,"name":"On or near B411"},"longitude":"-0.186279"},"context":"","outcome_status":null,"persistent_id":"","id":74275672,"location_subtype":"","month":"2019-05"},{"category":"anti-social-behaviour","location_type":"Force","location":{"latitude":"51.511609","street":{"id":957012,"name":"On or near B411"},"longitude":"-0.186279"},"context":"","outcome_status":null,"persistent_id":"","id":74275673,"location_subtype":"","month":"2019-05"},{"category":"anti-social-behaviour","location_type":"Force","location":{"latitude":"51.511609","street":{"id":957012,"name":"On or near B411"},"longitude":"-0.186279"},"context":"","outcome_status":null,"persistent_id":"","id":74275674,"location_subtype":"","month":"2019-05"},{"category":"anti-social-behaviour","location_type":"Force","location":{"latitude":"51.511609","street":{"id":957012,"name":"On or near B411"},"longitude":"-0.186279"},"context":"","outcome_status":null,"persistent_id":"","id":74275675,"location_subtype":"","month":"2019-05"},{"category":"anti-social-behaviour","location_type":"Force","location":{"latitude":"51.511609","street":{"id":957012,"name":"On or near B411"},"longitude":"-0.186279"},"context":"","outcome_status":null,"persistent_id":"","id":74275677,"location_subtype":"","month":"2019-05"},{"category":"anti-social-behaviour","location_type":"Force","location":{"latitude":"51.521675","street":{"id":960303,"name":"On or near Delamere Terrace"},"longitude":"-0.185922"},"context":"","outcome_status":null,"persistent_id":"","id":74275680,"location_subtype":"","month":"2019-05"},{"category":"anti-social-behaviour","location_type":"Force","location":{"latitude":"51.521092","street":{"id":960305,"name":"On or near Chichester Road"},"longitude":"-0.186608"},"context":"","outcome_status":null,"persistent_id":"","id":74275682,"location_subtype":"","month":"2019-05"},{"category":"anti-social-behaviour","location_type":"Force","location":{"latitude":"51.521092","street":{"id":960305,"name":"On or near Chichester Road"},"longitude":"-0.186608"},"context":"","outcome_status":null,"persistent_id":"","id":74275683,"location_subtype":"","month":"2019-05"},{"category":"anti-social-behaviour","location_type":"Force","location":{"latitude":"51.521092","street":{"id":960305,"name":"On or near Chichester Road"},"longitude":"-0.186608"},"context":"","outcome_status":null,"persistent_id":"","id":74275684,"location_subtype":"","month":"2019-05"},{"category":"anti-social-behaviour","location_type":"Force","location":{"latitude":"51.521092","street":{"id":960305,"name":"On or near Chichester Road"},"longitude":"-0.186608"},"context":"","outcome_status":null,"persistent_id":"","id":74275685,"location_subtype":"","month":"2019-05"},{"category":"anti-social-behaviour","location_type":"Force","location":{"latitude":"51.521092","street":{"id":960305,"name":"On or near Chichester Road"},"longitude":"-0.186608"},"context":"","outcome_status":null,"persistent_id":"","id":74275686,"location_subtype":"","month":"2019-05"},{"category":"anti-social-behaviour","location_type":"Force","location":{"latitude":"51.516834","street":{"id":956951,"name":"On or near Parking Area"},"longitude":"-0.186273"},"context":"","outcome_status":null,"persistent_id":"","id":74275687,"location_subtype":"","month":"2019-05"},{"category":"anti-social-behaviour","location_type":"Force","location":{"latitude":"51.516834","street":{"id":956951,"name":"On or near Parking Area"},"longitude":"-0.186273"},"context":"","outcome_status":null,"persistent_id":"","id":74275688,"location_subtype":"","month":"2019-05"},{"category":"anti-social-behaviour","location_type":"Force","location":{"latitude":"51.516834","street":{"id":956951,"name":"On or near Parking Area"},"longitude":"-0.186273"},"context":"","outcome_status":null,"persistent_id":"","id":74275690,"location_subtype":"","month":"2019-05"},{"category":"anti-social-behaviour","location_type":"Force","location":{"latitude":"51.513825","street":{"id":956971,"name":"On or near Porchester Gardens"},"longitude":"-0.187084"},"context":"","outcome_status":null,"persistent_id":"","id":74275691,"location_subtype":"","month":"2019-05"},{"category":"anti-social-behaviour","location_type":"Force","location":{"latitude":"51.523654","street":{"id":960262,"name":"On or near Formosa Street"},"longitude":"-0.186506"},"context":"","outcome_status":null,"persistent_id":"","id":74275692,"location_subtype":"","month":"2019-05"},{"category":"anti-social-behaviour","location_type":"Force","location":{"latitude":"51.510946","street":{"id":956952,"name":"On or near Parking Area"},"longitude":"-0.186968"},"context":"","outcome_status":null,"persistent_id":"","id":74275693,"location_subtype":"","month":"2019-05"},{"category":"anti-social-behaviour","location_type":"Force","location":{"latitude":"51.510946","street":{"id":956952,"name":"On or near Parking Area"},"longitude":"-0.186968"},"context":"","outcome_status":null,"persistent_id":"","id":74275694,"location_subtype":"","month":"2019-05"},{"category":"anti-social-behaviour","location_type":"Force","location":{"latitude":"51.515399","street":{"id":956986,"name":"On or near Inver Court"},"longitude":"-0.187713"},"context":"","outcome_status":null,"persistent_id":"","id":74275696,"location_subtype":"","month":"2019-05"},{"category":"anti-social-behaviour","location_type":"Force","location":{"latitude":"51.510946","street":{"id":956952,"name":"On or near Parking Area"},"longitude":"-0.186968"},"context":"","outcome_status":null,"persistent_id":"","id":74275697,"location_subtype":"","month":"2019-05"},{"category":"anti-social-behaviour","location_type":"Force","location":{"latitude":"51.510946","street":{"id":956952,"name":"On or near Parking Area"},"longitude":"-0.186968"},"context":"","outcome_status":null,"persistent_id":"","id":74275698,"location_subtype":"","month":"2019-05"},{"category":"anti-social-behaviour","location_type":"Force","location":{"latitude":"51.510946","street":{"id":956952,"name":"On or near Parking Area"},"longitude":"-0.186968"},"context":"","outcome_status":null,"persistent_id":"","id":74275699,"location_subtype":"","month":"2019-05"},{"category":"anti-social-behaviour","location_type":"Force","location":{"latitude":"51.510946","street":{"id":956952,"name":"On or near Parking Area"},"longitude":"-0.186968"},"context":"","outcome_status":null,"persistent_id":"","id":74275700,"location_subtype":"","month":"2019-05"},{"category":"anti-social-behaviour","location_type":"Force","location":{"latitude":"51.519664","street":{"id":960290,"name":"On or near Pedestrian Subway"},"longitude":"-0.189043"},"context":"","outcome_status":null,"persistent_id":"","id":74275703,"location_subtype":"","month":"2019-05"},{"category":"anti-social-behaviour","location_type":"Force","location":{"latitude":"51.513034","street":{"id":956961,"name":"On or near Queensway"},"longitude":"-0.187663"},"context":"","outcome_status":null,"persistent_id":"","id":74275704,"location_subtype":"","month":"2019-05"},{"category":"anti-social-behaviour","location_type":"Force","location":{"latitude":"51.513034","street":{"id":956961,"name":"On or near Queensway"},"longitude":"-0.187663"},"context":"","outcome_status":null,"persistent_id":"","id":74275705,"location_subtype":"","month":"2019-05"},{"category":"anti-social-behaviour","location_type":"Force","location":{"latitude":"51.513034","street":{"id":956961,"name":"On or near Queensway"},"longitude":"-0.187663"},"context":"","outcome_status":null,"persistent_id":"","id":74275706,"location_subtype":"","month":"2019-05"},{"category":"anti-social-behaviour","location_type":"Force","location":{"latitude":"51.513034","street":{"id":956961,"name":"On or near Queensway"},"longitude":"-0.187663"},"context":"","outcome_status":null,"persistent_id":"","id":74275707,"location_subtype":"","month":"2019-05"},{"category":"anti-social-behaviour","location_type":"Force","location":{"latitude":"51.513034","street":{"id":956961,"name":"On or near Queensway"},"longitude":"-0.187663"},"context":"","outcome_status":null,"persistent_id":"","id":74275708,"location_subtype":"","month":"2019-05"},{"category":"anti-social-behaviour","location_type":"Force","location":{"latitude":"51.513034","street":{"id":956961,"name":"On or near Queensway"},"longitude":"-0.187663"},"context":"","outcome_status":null,"persistent_id":"","id":74275709,"location_subtype":"","month":"2019-05"},{"category":"anti-social-behaviour","location_type":"Force","location":{"latitude":"51.513034","street":{"id":956961,"name":"On or near Queensway"},"longitude":"-0.187663"},"context":"","outcome_status":null,"persistent_id":"","id":74275710,"location_subtype":"","month":"2019-05"},{"category":"anti-social-behaviour","location_type":"Force","location":{"latitude":"51.513034","street":{"id":956961,"name":"On or near Queensway"},"longitude":"-0.187663"},"context":"","outcome_status":null,"persistent_id":"","id":74275711,"location_subtype":"","month":"2019-05"},{"category":"anti-social-behaviour","location_type":"Force","location":{"latitude":"51.513034","street":{"id":956961,"name":"On or near Queensway"},"longitude":"-0.187663"},"context":"","outcome_status":null,"persistent_id":"","id":74275712,"location_subtype":"","month":"2019-05"},{"category":"anti-social-behaviour","location_type":"Force","location":{"latitude":"51.513034","street":{"id":956961,"name":"On or near Queensway"},"longitude":"-0.187663"},"context":"","outcome_status":null,"persistent_id":"","id":74275713,"location_subtype":"","month":"2019-05"},{"category":"anti-social-behaviour","location_type":"Force","location":{"latitude":"51.510499","street":{"id":957008,"name":"On or near Caroline Close"},"longitude":"-0.188355"},"context":"","outcome_status":null,"persistent_id":"","id":74275714,"location_subtype":"","month":"2019-05"},{"category":"anti-social-behaviour","location_type":"Force","location":{"latitude":"51.510499","street":{"id":957008,"name":"On or near Caroline Close"},"longitude":"-0.188355"},"context":"","outcome_status":null,"persistent_id":"","id":74275715,"location_subtype":"","month":"2019-05"},{"category":"anti-social-behaviour","location_type":"Force","location":{"latitude":"51.511768","street":{"id":956972,"name":"On or near Poplar Place"},"longitude":"-0.188391"},"context":"","outcome_status":null,"persistent_id":"","id":74275719,"location_subtype":"","month":"2019-05"},{"category":"anti-social-behaviour","location_type":"Force","location":{"latitude":"51.516151","street":{"id":956973,"name":"On or near Pickering Mews"},"longitude":"-0.188087"},"context":"","outcome_status":null,"persistent_id":"","id":74275720,"location_subtype":"","month":"2019-05"},{"category":"anti-social-behaviour","location_type":"Force","location":{"latitude":"51.516151","street":{"id":956973,"name":"On or near Pickering Mews"},"longitude":"-0.188087"},"context":"","outcome_status":null,"persistent_id":"","id":74275721,"location_subtype":"","month":"2019-05"},{"category":"anti-social-behaviour","location_type":"Force","location":{"latitude":"51.516151","street":{"id":956973,"name":"On or near Pickering Mews"},"longitude":"-0.188087"},"context":"","outcome_status":null,"persistent_id":"","id":74275722,"location_subtype":"","month":"2019-05"},{"category":"anti-social-behaviour","location_type":"Force","location":{"latitude":"51.517496","street":{"id":957019,"name":"On or near Porchester Square"},"longitude":"-0.187227"},"context":"","outcome_status":null,"persistent_id":"","id":74275723,"location_subtype":"","month":"2019-05"},{"category":"anti-social-behaviour","location_type":"Force","location":{"latitude":"51.517496","street":{"id":957019,"name":"On or near Porchester Square"},"longitude":"-0.187227"},"context":"","outcome_status":null,"persistent_id":"","id":74275724,"location_subtype":"","month":"2019-05"},{"category":"anti-social-behaviour","location_type":"Force","location":{"latitude":"51.517496","street":{"id":957019,"name":"On or near Porchester Square"},"longitude":"-0.187227"},"context":"","outcome_status":null,"persistent_id":"","id":74275725,"location_subtype":"","month":"2019-05"},{"category":"anti-social-behaviour","location_type":"Force","location":{"latitude":"51.517496","street":{"id":957019,"name":"On or near Porchester Square"},"longitude":"-0.187227"},"context":"","outcome_status":null,"persistent_id":"","id":74275726,"location_subtype":"","month":"2019-05"},{"category":"anti-social-behaviour","location_type":"Force","location":{"latitude":"51.523009","street":{"id":960264,"name":"On or near Formosa Street"},"longitude":"-0.187253"},"context":"","outcome_status":null,"persistent_id":"","id":74275727,"location_subtype":"","month":"2019-05"},{"category":"anti-social-behaviour","location_type":"Force","location":{"latitude":"51.516469","street":{"id":956962,"name":"On or near Queensway"},"longitude":"-0.188867"},"context":"","outcome_status":null,"persistent_id":"","id":74275729,"location_subtype":"","month":"2019-05"},{"category":"anti-social-behaviour","location_type":"Force","location":{"latitude":"51.512997","street":{"id":956960,"name":"On or near Salem Road"},"longitude":"-0.188760"},"context":"","outcome_status":null,"persistent_id":"","id":74276302,"location_subtype":"","month":"2019-05"},{"category":"anti-social-behaviour","location_type":"Force","location":{"latitude":"51.511768","street":{"id":956972,"name":"On or near Poplar Place"},"longitude":"-0.188391"},"context":"","outcome_status":null,"persistent_id":"","id":74276303,"location_subtype":"","month":"2019-05"},{"category":"anti-social-behaviour","location_type":"Force","location":{"latitude":"51.511768","street":{"id":956972,"name":"On or near Poplar Place"},"longitude":"-0.188391"},"context":"","outcome_status":null,"persistent_id":"","id":74276304,"location_subtype":"","month":"2019-05"},{"category":"anti-social-behaviour","location_type":"Force","location":{"latitude":"51.523566","street":{"id":960274,"name":"On or near Clearwell Drive"},"longitude":"-0.188369"},"context":"","outcome_status":null,"persistent_id":"","id":74276305,"location_subtype":"","month":"2019-05"},{"category":"anti-social-behaviour","location_type":"Force","location":{"latitude":"51.517652","street":{"id":957020,"name":"On or near Porchester Road"},"longitude":"-0.188575"},"context":"","outcome_status":null,"persistent_id":"","id":74276306,"location_subtype":"","month":"2019-05"},{"category":"anti-social-behaviour","location_type":"Force","location":{"latitude":"51.519664","street":{"id":960290,"name":"On or near Pedestrian Subway"},"longitude":"-0.189043"},"context":"","outcome_status":null,"persistent_id":"","id":74276307,"location_subtype":"","month":"2019-05"},{"category":"anti-social-behaviour","location_type":"Force","location":{"latitude":"51.519664","street":{"id":960290,"name":"On or near Pedestrian Subway"},"longitude":"-0.189043"},"context":"","outcome_status":null,"persistent_id":"","id":74276308,"location_subtype":"","month":"2019-05"},{"category":"anti-social-behaviour","location_type":"Force","location":{"latitude":"51.519664","street":{"id":960290,"name":"On or near Pedestrian Subway"},"longitude":"-0.189043"},"context":"","outcome_status":null,"persistent_id":"","id":74276309,"location_subtype":"","month":"2019-05"},{"category":"anti-social-behaviour","location_type":"Force","location":{"latitude":"51.519664","street":{"id":960290,"name":"On or near Pedestrian Subway"},"longitude":"-0.189043"},"context":"","outcome_status":null,"persistent_id":"","id":74276310,"location_subtype":"","month":"2019-05"},