[{"category":"anti-social-behaviour","location_type":"Force","location":{"latitude":"51.577473","street":{"id":976466,"name":"On or near Shopping Area"},"longitude":"0.182166"},"context":"","outcome_status":null,"persistent_id":"","id":74277829,"location_subtype":"","month":"2019-05"},{"category":"anti-social-behaviour","location_type":"Force","location":{"latitude":"51.570215","street":{"id":976395,"name":"On or near The Maltings"},"longitude":"0.186090"},"context":"","outcome_status":null,"persistent_id":"","id":74277030,"location_subtype":"","month":"2019-05"},{"category":"anti-social-behaviour","location_type":"Force","location":{"latitude":"51.576591","street":{"id":976559,"name":"On or near Hamilton Road"},"longitude":"0.201940"},"context":"","outcome_status":null,"persistent_id":"","id":74276938,"location_subtype":"","month":"2019-05"},{"category":"anti-social-behaviour","location_type":"Force","location":{"latitude":"51.566895","street":{"id":976509,"name":"On or near South Street"},"longitude":"0.186652"},"context":"","outcome_status":null,"persistent_id":"","id":74277031,"location_subtype":"","month":"2019-05"},{"category":"anti-social-behaviour","location_type":"Force","location":{"latitude":"51.566895","street":{"id":976509,"name":"On or near South Street"},"longitude":"0.186652"},"context":"","outcome_status":null,"persistent_id":"","id":74277032,"location_subtype":"","month":"2019-05"},{"category":"anti-social-behaviour","location_type":"Force","location":{"latitude":"51.566895","street":{"id":976509,"name":"On or near South Street"},"longitude":"0.186652"},"context":"","outcome_status":null,"persistent_id":"","id":74277033,"location_subtype":"","month":"2019-05"},{"category":"anti-social-behaviour","location_type":"Force","location":{"latitude":"51.566895","street":{"id":976509,"name":"On or near South Street"},"longitude":"0.186652"},"context":"","outcome_status":null,"persistent_id":"","id":74277034,"location_subtype":"","month":"2019-05"},{"category":"anti-social-behaviour","location_type":"Force","location":{"latitude":"51.566895","street":{"id":976509,"name":"On or near South Street"},"longitude":"0.186652"},"context":"","outcome_status":null,"persistent_id":"","id":74277035,"location_subtype":"","month":"2019-05"},{"category":"anti-social-behaviour","location_type":"Force","location":{"latitude":"51.566895","street":{"id":976509,"name":"On or near South Street"},"longitude":"0.186652"},"context":"","outcome_status":null,"persistent_id":"","id":74277036,"location_subtype":"","month":"2019-05"},{"category":"anti-social-behaviour","location_type":"Force","location":{"latitude":"51.566895","street":{"id":976509,"name":"On or near South Street"},"longitude":"0.186652"},"context":"","outcome_status":null,"persistent_id":"","id":74277037,"location_subtype":"","month":"2019-05"},{"category":"anti-social-behaviour","location_type":"Force","location":{"latitude":"51.566895","street":{"id":976509,"name":"On or near South Street"},"longitude":"0.186652"},"context":"","outcome_status":null,"persistent_id":"","id":74277038,"location_subtype":"","month":"2019-05"},{"category":"anti-social-behaviour","location_type":"Force","location":{"latitude":"51.565757","street":{"id":970563,"name":"On or near Roneo Corner"},"longitude":"0.185977"},"context":"","outcome_status":null,"persistent_id":"","id":74277039,"location_subtype":"","month":"2019-05"},{"category":"anti-social-behaviour","location_type":"Force","location":{"latitude":"51.565757","street":{"id":970563,"name":"On or near Roneo Corner"},"longitude":"0.185977"},"context":"","outcome_status":null,"persistent_id":"","id":74277040,"location_subtype":"","month":"2019-05"},{"category":"anti-social-behaviour","location_type":"Force","location":{"latitude":"51.565757","street":{"id":970563,"name":"On or near Roneo Corner"},"longitude":"0.185977"},"context":"","outcome_status":null,"persistent_id":"","id":74277041,"location_subtype":"","month":"2019-05"},{"category":"anti-social-behaviour","location_type":"Force","location":{"latitude":"51.565757","street":{"id":970563,"name":"On or near Roneo Corner"},"longitude":"0.185977"},"context":"","outcome_status":null,"persistent_id":"","id":74277042,"location_subtype":"","month":"2019-05"},{"category":"anti-social-behaviour","location_type":"Force","location":{"latitude":"51.574453","street":{"id":976415,"name":"On or near King Edward Road"},"longitude":"0.186900"},"context":"","outcome_status":null,"persistent_id":"","id":74277043,"location_subtype":"","month":"2019-05"},{"category":"anti-social-behaviour","location_type":"Force","location":{"latitude":"51.574453","street":{"id":976415,"name":"On or near King Edward Road"},"longitude":"0.186900"},"context":"","outcome_status":null,"persistent_id":"","id":74277044,"location_subtype":"","month":"2019-05"},{"category":"anti-social-behaviour","location_type":"Force","location":{"latitude":"51.571577","street":{"id":976410,"name":"On or near Lennox Close"},"longitude":"0.185852"},"context":"","outcome_status":null,"persistent_id":"","id":74277045,"location_subtype":"","month":"2019-05"},{"category":"anti-social-behaviour","location_type":"Force","location":{"latitude":"51.573594","street":{"id":976434,"name":"On or near Alexandra Road"},"longitude":"0.186209"},"context":"","outcome_status":null,"persistent_id":"","id":74277046,"location_subtype":"","month":"2019-05"},{"category":"anti-social-behaviour","location_type":"Force","location":{"latitude":"51.573296","street":{"id":976412,"name":"On or near Kingsmead Avenue"},"longitude":"0.185314"},"context":"","outcome_status":null,"persistent_id":"","id":74277047,"location_subtype":"","month":"2019-05"},{"category":"anti-social-behaviour","location_type":"Force","location":{"latitude":"51.576282","street":{"id":976441,"name":"On or near Parking Area"},"longitude":"0.184317"},"context":"","outcome_status":null,"persistent_id":"","id":74277048,"location_subtype":"","month":"2019-05"},{"category":"anti-social-behaviour","location_type":"Force","location":{"latitude":"51.570215","street":{"id":976395,"name":"On or near The Maltings"},"longitude":"0.186090"},"context":"","outcome_status":null,"persistent_id":"","id":74277049,"location_subtype":"","month":"2019-05"},{"category":"anti-social-behaviour","location_type":"Force","location":{"latitude":"51.579093","street":{"id":976473,"name":"On or near Pedestrian Subway"},"longitude":"0.184539"},"context":"","outcome_status":null,"persistent_id":"","id":74277050,"location_subtype":"","month":"2019-05"},{"category":"anti-social-behaviour","location_type":"Force","location":{"latitude":"51.575431","street":{"id":976462,"name":"On or near Nightclub"},"longitude":"0.183642"},"context":"","outcome_status":null,"persistent_id":"","id":74277051,"location_subtype":"","month":"2019-05"},{"category":"anti-social-behaviour","location_type":"Force","location":{"latitude":"51.573754","street":{"id":976465,"name":"On or near Supermarket"},"longitude":"0.182912"},"context":"","outcome_status":null,"persistent_id":"","id":74277053,"location_subtype":"","month":"2019-05"},{"category":"anti-social-behaviour","location_type":"Force","location":{"latitude":"51.573754","street":{"id":976465,"name":"On or near Supermarket"},"longitude":"0.182912"},"context":"","outcome_status":null,"persistent_id":"","id":74277054,"location_subtype":"","month":"2019-05"},{"category":"anti-social-behaviour","location_type":"Force","location":{"latitude":"51.573754","street":{"id":976465,"name":"On or near Supermarket"},"longitude":"0.182912"},"context":"","outcome_status":null,"persistent_id":"","id":74277055,"location_subtype":"","month":"2019-05"},{"category":"anti-social-behaviour","location_type":"Force","location":{"latitude":"51.573754","street":{"id":976465,"name":"On or near Supermarket"},"longitude":"0.182912"},"context":"","outcome_status":null,"persistent_id":"","id":74277056,"location_subtype":"","month":"2019-05"},{"category":"anti-social-behaviour","location_type":"Force","location":{"latitude":"51.573754","street":{"id":976465,"name":"On or near Supermarket"},"longitude":"0.182912"},"context":"","outcome_status":null,"persistent_id":"","id":74277057,"location_subtype":"","month":"2019-05"},{"category":"anti-social-behaviour","location_type":"Force","location":{"latitude":"51.575316","street":{"id":976464,"name":"On or near Nightclub"},"longitude":"0.182611"},"context":"","outcome_status":null,"persistent_id":"","id":74277063,"location_subtype":"","month":"2019-05"},{"category":"anti-social-behaviour","location_type":"Force","location":{"latitude":"51.575316","street":{"id":976464,"name":"On or near Nightclub"},"longitude":"0.182611"},"context":"","outcome_status":null,"persistent_id":"","id":74277064,"location_subtype":"","month":"2019-05"},{"category":"anti-social-behaviour","location_type":"Force","location":{"latitude":"51.575316","street":{"id":976464,"name":"On or near Nightclub"},"longitude":"0.182611"},"context":"","outcome_status":null,"persistent_id":"","id":74277065,"location_subtype":"","month":"2019-05"},{"category":"anti-social-behaviour","location_type":"Force","location":{"latitude":"51.580061","street":{"id":977050,"name":"On or near Shopping Area"},"longitude":"0.182305"},"context":"","outcome_status":null,"persistent_id":"","id":74277066,"location_subtype":"","month":"2019-05"},{"category":"anti-social-behaviour","location_type":"Force","location":{"latitude":"51.580061","street":{"id":977050,"name":"On or near Shopping Area"},"longitude":"0.182305"},"context":"","outcome_status":null,"persistent_id":"","id":74277819,"location_subtype":"","month":"2019-05"},{"category":"anti-social-behaviour","location_type":"Force","location":{"latitude":"51.580061","street":{"id":977050,"name":"On or near Shopping Area"},"longitude":"0.182305"},"context":"","outcome_status":null,"persistent_id":"","id":74277820,"location_subtype":"","month":"2019-05"},{"category":"anti-social-behaviour","location_type":"Force","location":{"latitude":"51.565310","street":{"id":970575,"name":"On or near Lincoln Avenue"},"longitude":"0.179030"},"context":"","outcome_status":null,"persistent_id":"","id":74277825,"location_subtype":"","month":"2019-05"},{"category":"anti-social-behaviour","location_type":"Force","location":{"latitude":"51.565310","street":{"id":970575,"name":"On or near Lincoln Avenue"},"longitude":"0.179030"},"context":"","outcome_status":null,"persistent_id":"","id":74277826,"location_subtype":"","month":"2019-05"},{"category":"anti-social-behaviour","location_type":"Force","location":{"latitude":"51.565310","street":{"id":970575,"name":"On or near Lincoln Avenue"},"longitude":"0.179030"},"context":"","outcome_status":null,"persistent_id":"","id":74277827,"location_subtype":"","month":"2019-05"},{"category":"anti-social-behaviour","location_type":"Force","location":{"latitude":"51.574004","street":{"id":976461,"name":"On or near Bus\/coach Station"},"longitude":"0.182043"},"context":"","outcome_status":null,"persistent_id":"","id":74277828,"location_subtype":"","month":"2019-05"},{"category":"anti-social-behaviour","location_type":"Force","location":{"latitude":"51.579519","street":{"id":976961,"name":"On or near Fairholme Avenue"},"longitude":"0.201678"},"context":"","outcome_status":null,"persistent_id":"","id":74276958,"location_subtype":"","month":"2019-05"},{"category":"anti-social-behaviour","location_type":"Force","location":{"latitude":"51.577473","street":{"id":976466,"name":"On or near Shopping Area"},"longitude":"0.182166"},"context":"","outcome_status":null,"persistent_id":"","id":74277830,"location_subtype":"","month":"2019-05"},{"category":"anti-social-behaviour","location_type":"Force","location":{"latitude":"51.577473","street":{"id":976466,"name":"On or near Shopping Area"},"longitude":"0.182166"},"context":"","outcome_status":null,"persistent_id":"","id":74277831,"location_subtype":"","month":"2019-05"},{"category":"anti-social-behaviour","location_type":"Force","location":{"latitude":"51.577473","street":{"id":976466,"name":"On or near Shopping Area"},"longitude":"0.182166"},"context":"","outcome_status":null,"persistent_id":"","id":74277832,"location_subtype":"","month":"2019-05"},{"category":"anti-social-behaviour","location_type":"Force","location":{"latitude":"51.577473","street":{"id":976466,"name":"On or near Shopping Area"},"longitude":"0.182166"},"context":"","outcome_status":null,"persistent_id":"","id":74277834,"location_subtype":"","month":"2019-05"},{"category":"anti-social-behaviour","location_type":"Force","location":{"latitude":"51.577473","street":{"id":976466,"name":"On or near Shopping Area"},"longitude":"0.182166"},"context":"","outcome_status":null,"persistent_id":"","id":74277835,"location_subtype":"","month":"2019-05"},{"category":"anti-social-behaviour","location_type":"Force","location":{"latitude":"51.571309","street":{"id":976451,"name":"On or near Oldchurch Road"},"longitude":"0.180428"},"context":"","outcome_status":null,"persistent_id":"","id":74277836,"location_subtype":"","month":"2019-05"},{"category":"anti-social-behaviour","location_type":"Force","location":{"latitude":"51.580781","street":{"id":977055,"name":"On or near Bus\/coach Station"},"longitude":"0.181300"},"context":"","outcome_status":null,"persistent_id":"","id":74277839,"location_subtype":"","month":"2019-05"},{"category":"anti-social-behaviour","location_type":"Force","location":{"latitude":"51.580781","street":{"id":977055,"name":"On or near Bus\/coach Station"},"longitude":"0.181300"},"context":"","outcome_status":null,"persistent_id":"","id":74277840,"location_subtype":"","month":"2019-05"},{"category":"anti-social-behaviour","location_type":"Force","location":{"latitude":"51.580781","street":{"id":977055,"name":"On or near Bus\/coach Station"},"longitude":"0.181300"},"context":"","outcome_status":null,"persistent_id":"","id":74277841,"location_subtype":"","month":"2019-05"},{"category":"anti-social-behaviour","location_type":"Force","location":{"latitude":"51.575761","street":{"id":976442,"name":"On or near Parking Area"},"longitude":"0.180886"},"context":"","outcome_status":null,"persistent_id":"","id":74277842,"location_subtype":"","month":"2019-05"},{"category":"anti-social-behaviour","location_type":"Force","location":{"latitude":"51.575761","street":{"id":976442,"name":"On or near Parking Area"},"longitude":"0.180886"},"context":"","outcome_status":null,"persistent_id":"","id":74277843,"location_subtype":"","month":"2019-05"},{"category":"anti-social-behaviour","location_type":"Force","location":{"latitude":"51.575761","street":{"id":976442,"name":"On or near Parking Area"},"longitude":"0.180886"},"context":"","outcome_status":null,"persistent_id":"","id":74277844,"location_subtype":"","month":"2019-05"},{"category":"anti-social-behaviour","location_type":"Force","location":{"latitude":"51.575761","street":{"id":976442,"name":"On or near Parking Area"},"longitude":"0.180886"},"context":"","outcome_status":null,"persistent_id":"","id":74277845,"location_subtype":"","month":"2019-05"},{"category":"anti-social-behaviour","location_type":"Force","location":{"latitude":"51.580976","street":{"id":977054,"name":"On or near Haysoms Close"},"longitude":"0.179029"},"context":"","outcome_status":null,"persistent_id":"","id":74277849,"location_subtype":"","month":"2019-05"},{"category":"anti-social-behaviour","location_type":"Force","location":{"latitude":"51.572513","street":{"id":976445,"name":"On or near Waterloo Road"},"longitude":"0.179547"},"context":"","outcome_status":null,"persistent_id":"","id":74277850,"location_subtype":"","month":"2019-05"},{"category":"anti-social-behaviour","location_type":"Force","location":{"latitude":"51.572513","street":{"id":976445,"name":"On or near Waterloo Road"},"longitude":"0.179547"},"context":"","outcome_status":null,"persistent_id":"","id":74277851,"location_subtype":"","month":"2019-05"},{"category":"anti-social-behaviour","location_type":"Force","location":{"latitude":"51.572513","street":{"id":976445,"name":"On or near Waterloo Road"},"longitude":"0.179547"},"context":"","outcome_status":null,"persistent_id":"","id":74277852,"location_subtype":"","month":"2019-05"},{"category":"anti-social-behaviour","location_type":"Force","location":{"latitude":"51.572513","street":{"id":976445,"name":"On or near Waterloo Road"},"longitude":"0.179547"},"context":"","outcome_status":null,"persistent_id":"","id":74277853,"location_subtype":"","month":"2019-05"},{"category":"anti-social-behaviour","location_type":"Force","location":{"latitude":"51.566654","street":{"id":976517,"name":"On or near Norwood Avenue"},"longitude":"0.179296"},"context":"","outcome_status":null,"persistent_id":"","id":74277854,"location_subtype":"","month":"2019-05"},{"category":"anti-social-behaviour","location_type":"Force","location":{"latitude":"51.568622","street":{"id":976471,"name":"On or near Hospital"},"longitude":"0.178900"},"context":"","outcome_status":null,"persistent_id":"","id":74277856,"location_subtype":"","month":"2019-05"},{"category":"anti-social-behaviour","location_type":"Force","location":{"latitude":"51.578657","street":{"id":976460,"name":"On or near Angel Way"},"longitude":"0.178947"},"context":"","outcome_status":null,"persistent_id":"","id":74277861,"location_subtype":"","month":"2019-05"},{"category":"anti-social-behaviour","location_type":"Force","location":{"latitude":"51.576862","street":{"id":976494,"name":"On or near Logan Mews"},"longitude":"0.178269"},"context":"","outcome_status":null,"persistent_id":"","id":74277862,"location_subtype":"","month":"2019-05"},{"category":"anti-social-behaviour","location_type":"Force","location":{"latitude":"51.580187","street":{"id":977063,"name":"On or near Pedestrian Subway"},"longitude":"0.178385"},"context":"","outcome_status":null,"persistent_id":"","id":74277866,"location_subtype":"","month":"2019-05"},{"category":"anti-social-behaviour","location_type":"Force","location":{"latitude":"51.576862","street":{"id":976494,"name":"On or near Logan Mews"},"longitude":"0.178269"},"context":"","outcome_status":null,"persistent_id":"","id":74277868,"location_subtype":"","month":"2019-05"},{"category":"anti-social-behaviour","location_type":"Force","location":{"latitude":"51.570468","street":{"id":976491,"name":"On or near Oldchurch Road"},"longitude":"0.177790"},"context":"","outcome_status":null,"persistent_id":"","id":74277869,"location_subtype":"","month":"2019-05"},{"category":"anti-social-behaviour","location_type":"Force","location":{"latitude":"51.570468","street":{"id":976491,"name":"On or near Oldchurch Road"},"longitude":"0.177790"},"context":"","outcome_status":null,"persistent_id":"","id":74277870,"location_subtype":"","month":"2019-05"},{"category":"anti-social-behaviour","location_type":"Force","location":{"latitude":"51.572203","street":{"id":976486,"name":"On or near Union Road"},"longitude":"0.177325"},"context":"","outcome_status":null,"persistent_id":"","id":74277873,"location_subtype":"","month":"2019-05"},{"category":"anti-social-behaviour","location_type":"Force","location":{"latitude":"51.568091","street":{"id":976504,"name":"On or near Lilliput Road"},"longitude":"0.175065"},"context":"","outcome_status":null,"persistent_id":"","id":74277874,"location_subtype":"","month":"2019-05"},{"category":"anti-social-behaviour","location_type":"Force","location":{"latitude":"51.574317","street":{"id":976488,"name":"On or near St Andrews Road"},"longitude":"0.176343"},"context":"","outcome_status":null,"persistent_id":"","id":74277877,"location_subtype":"","month":"2019-05"},{"category":"anti-social-behaviour","location_type":"Force","location":{"latitude":"51.570566","street":{"id":976492,"name":"On or near Nursery Walk"},"longitude":"0.174952"},"context":"","outcome_status":null,"persistent_id":"","id":74277878,"location_subtype":"","month":"2019-05"},{"category":"anti-social-behaviour","location_type":"Force","location":{"latitude":"51.570566","street":{"id":976492,"name":"On or near Nursery Walk"},"longitude":"0.174952"},"context":"","outcome_status":null,"persistent_id":"","id":74277879,"location_subtype":"","month":"2019-05"},{"category":"anti-social-behaviour","location_type":"Force","location":{"latitude":"51.576461","street":{"id":976501,"name":"On or near Sports\/recreation Area"},"longitude":"0.174180"},"context":"","outcome_status":null,"persistent_id":"","id":74277880,"location_subtype":"","month":"2019-05"},{"category":"anti-social-behaviour","location_type":"Force","location":{"latitude":"51.576461","street":{"id":976501,"name":"On or near Sports\/recreation Area"},"longitude":"0.174180"},"context":"","outcome_status":null,"persistent_id":"","id":74277881,"location_subtype":"","month":"2019-05"},{"category":"anti-social-behaviour","location_type":"Force","location":{"latitude":"51.577170","street":{"id":976497,"name":"On or near Cottons Approach"},"longitude":"0.174300"},"context":"","outcome_status":null,"persistent_id":"","id":74277883,"location_subtype":"","month":"2019-05"},{"category":"anti-social-behaviour","location_type":"Force","location":{"latitude":"51.583521","street":{"id":976988,"name":"On or near Brooklands Approach"},"longitude":"0.174185"},"context":"","outcome_status":null,"persistent_id":"","id":74277884,"location_subtype":"","month":"2019-05"},{"category":"anti-social-behaviour","location_type":"Force","location":{"latitude":"51.580811","street":{"id":977145,"name":"On or near Brooklands Road"},"longitude":"0.173391"},"context":"","outcome_status":null,"persistent_id":"","id":74277888,"location_subtype":"","month":"2019-05"},{"category":"anti-social-behaviour","location_type":"Force","location":{"latitude":"51.569859","street":{"id":976366,"name":"On or near Beechfield Gardens"},"longitude":"0.168453"},"context":"","outcome_status":null,"persistent_id":"","id":74277890,"location_subtype":"","month":"2019-05"},{"category":"anti-social-behaviour","location_type":"Force","location":{"latitude":"51.578101","street":{"id":976338,"name":"On or near Mildmay Road"},"longitude":"0.169625"},"context":"","outcome_status":null,"persistent_id":"","id":74277892,"location_subtype":"","month":"2019-05"},{"category":"anti-social-behaviour","location_type":"Force","location":{"latitude":"51.578101","street":{"id":976338,"name":"On or near Mildmay Road"},"longitude":"0.169625"},"context":"","outcome_status":null,"persistent_id":"","id":74277893,"location_subtype":"","month":"2019-05"},{"category":"anti-social-behaviour","location_type":"Force","location":{"latitude":"51.569859","street":{"id":976366,"name":"On or near Beechfield Gardens"},"longitude":"0.168453"},"context":"","outcome_status":null,"persistent_id":"","id":74277897,"location_subtype":"","month":"2019-05"},{"category":"anti-social-behaviour","location_type":"Force","location":{"latitude":"51.577913","street":{"id":976336,"name":"On or near Palm Road"},"longitude":"0.168620"},"context":"","outcome_status":null,"persistent_id":"","id":74277898,"location_subtype":"","month":"2019-05"},{"category":"anti-social-behaviour","location_type":"Force","location":{"latitude":"51.582947","street":{"id":977116,"name":"On or near Eastern Avenue West"},"longitude":"0.167763"},"context":"","outcome_status":null,"persistent_id":"","id":74277899,"location_subtype":"","month":"2019-05"},{"category":"anti-social-behaviour","location_type":"Force","location":{"latitude":"51.579020","street":{"id":976335,"name":"On or near Pretoria Road"},"longitude":"0.165656"},"context":"","outcome_status":null,"persistent_id":"","id":74277903,"location_subtype":"","month":"2019-05"},{"category":"anti-social-behaviour","location_type":"Force","location":{"latitude":"51.575914","street":{"id":976354,"name":"On or near Jubilee Avenue"},"longitude":"0.164397"},"context":"","outcome_status":null,"persistent_id":"","id":74277905,"location_subtype":"","month":"2019-05"},{"category":"anti-social-behaviour","location_type":"Force","location":{"latitude":"51.581810","street":{"id":977119,"name":"On or near Denbar Parade"},"longitude":"0.164548"},"context":"","outcome_status":null,"persistent_id":"","id":74277907,"location_subtype":"","month":"2019-05"},{"category":"anti-social-behaviour","location_type":"Force","location":{"latitude":"51.575914","street":{"id":976354,"name":"On or near Jubilee Avenue"},"longitude":"0.164397"},"context":"","outcome_status":null,"persistent_id":"","id":74277910,"location_subtype":"","month":"2019-05"},{"category":"anti-social-behaviour","location_type":"Force","location":{"latitude":"51.571443","street":{"id":976595,"name":"On or near Globe Road"},"longitude":"0.195919"},"context":"","outcome_status":null,"persistent_id":"","id":74276969,"location_subtype":"","month":"2019-05"},{"category":"anti-social-behaviour","location_type":"Force","location":{"latitude":"51.564936","street":{"id":970501,"name":"On or near Hornchurch Road"},"longitude":"0.200035"},"context":"","outcome_status":null,"persistent_id":"","id":74276955,"location_subtype":"","month":"2019-05"},{"category":"anti-social-behaviour","location_type":"Force","location":{"latitude":"51.565247","street":{"id":970569,"name":"On or near Franmil Road"},"longitude":"0.193037"},"context":"","outcome_status":null,"persistent_id":"","id":74276984,"location_subtype":"","month":"2019-05"},{"category":"anti-social-behaviour","location_type":"Force","location":{"latitude":"51.565247","street":{"id":970569,"name":"On or near Franmil Road"},"longitude":"0.193037"},"context":"","outcome_status":null,"persistent_id":"","id":74276985,"location_subtype":"","month":"2019-05"},{"category":"anti-social-behaviour","location_type":"Force","location":{"latitude":"51.572533","street":{"id":976430,"name":"On or near Brentwood Road"},"longitude":"0.192955"},"context":"","outcome_status":null,"persistent_id":"","id":74276990,"location_subtype":"","month":"2019-05"},{"category":"anti-social-behaviour","location_type":"Force","location":{"latitude":"51.584633","street":{"id":976896,"name":"On or near St Ivians Drive"},"longitude":"0.195588"},"context":"","outcome_status":null,"persistent_id":"","id":74276995,"location_subtype":"","month":"2019-05"},{"category":"anti-social-behaviour","location_type":"Force","location":{"latitude":"51.565247","street":{"id":970569,"name":"On or near Franmil Road"},"longitude":"0.193037"},"context":"","outcome_status":null,"persistent_id":"","id":74276982,"location_subtype":"","month":"2019-05"},{"category":"anti-social-behaviour","location_type":"Force","location":{"latitude":"51.577473","street":{"id":976466,"name":"On or near Shopping Area"},"longitude":"0.182166"},"context":"","outcome_status":null,"persistent_id":"","id":74277833,"location_subtype":"","month":"2019-05"},{"category":"anti-social-behaviour","location_type":"Force","location":{"latitude":"51.583521","street":{"id":976988,"name":"On or near Brooklands Approach"},"longitude":"0.174185"},"context":"","outcome_status":null,"persistent_id":"","id":74277885,"location_subtype":"","month":"2019-05"},{"category":"anti-social-behaviour","location_type":"Force","location":{"latitude":"51.575852","street":{"id":976583,"name":"On or near Rushdon Close"},"longitude":"0.197243"},"context":"","outcome_status":null,"persistent_id":"","id":74276968,"location_subtype":"","month":"2019-05"},{"category":"anti-social-behaviour","location_type":"Force","location":{"latitude":"51.580061","street":{"id":977050,"name":"On or near Shopping Area"},"longitude":"0.182305"},"context":"","outcome_status":null,"persistent_id":"","id":74277821,"location_subtype":"","month":"2019-05"},{"category":"anti-social-behaviour","location_type":"Force","location":{"latitude":"51.565247","street":{"id":970569,"name":"On or near Franmil Road"},"longitude":"0.193037"},"context":"","outcome_status":null,"persistent_id":"","id":74276981,"location_subtype":"","month":"2019-05"},{"category":"anti-social-behaviour","location_type":"Force","location":{"latitude":"51.575914","street":{"id":976354,"name":"On or near Jubilee Avenue"},"longitude":"0.164397"},"context":"","outcome_status":null,"persistent_id":"","id":74277906,"location_subtype":"","month":"2019-05"},{"category":"anti-social-behaviour","location_type":"Force","location":{"latitude":"51.574004","street":{"id":976461,"name":"On or near Bus\/coach Station"},"longitude":"0.182043"},"context":"","outcome_status":null,"persistent_id":"","id":74277822,"location_subtype":"","month":"2019-05"},{"category":"anti-social-behaviour","location_type":"Force","location":{"latitude":"51.575509","street":{"id":976429,"name":"On or near Broadfield Close"},"longitude":"0.192002"},"context":"","outcome_status":null,"persistent_id":"","id":74276997,"location_subtype":"","month":"2019-05"},{"category":"anti-social-behaviour","location_type":"Force","location":{"latitude":"51.574004","street":{"id":976461,"name":"On or near Bus\/coach Station"},"longitude":"0.182043"},"context":"","outcome_status":null,"persistent_id":"","id":74277823,"location_subtype":"","month":"2019-05"},{"category":"anti-social-behaviour","location_type":"Force","location":{"latitude":"51.584633","street":{"id":976896,"name":"On or near St Ivians Drive"},"longitude":"0.195588"},"context":"","outcome_status":null,"persistent_id":"","id":74276980,"location_subtype":"","month":"2019-05"},{"category":"anti-social-behaviour","location_type":"Force","location":{"latitude":"51.584633","street":{"id":976896,"name":"On or near St Ivians Drive"},"longitude":"0.195588"},"context":"","outcome_status":null,"persistent_id":"","id":74276979,"location_subtype":"","month":"2019-05"},{"category":"anti-social-behaviour","location_type":"Force","location":{"latitude":"51.563135","street":{"id":970576,"name":"On or near Lincoln Avenue"},"longitude":"0.178464"},"context":"","outcome_status":null,"persistent_id":"","id":74276011,"location_subtype":"","month":"2019-05"},{"category":"anti-social-behaviour","location_type":"Force","location":{"latitude":"51.575852","street":{"id":976583,"name":"On or near Rushdon Close"},"longitude":"0.197243"},"context":"","outcome_status":null,"persistent_id":"","id":74276967,"location_subtype":"","month":"2019-05"},{"category":"anti-social-behaviour","location_type":"Force","location":{"latitude":"51.569179","street":{"id":976433,"name":"On or near Allandale Road"},"longitude":"0.191019"},"context":"","outcome_status":null,"persistent_id":"","id":74277000,"location_subtype":"","month":"2019-05"},{"category":"anti-social-behaviour","location_type":"Force","location":{"latitude":"51.580781","street":{"id":977055,"name":"On or near Bus\/coach Station"},"longitude":"0.181300"},"context":"","outcome_status":null,"persistent_id":"","id":74277838,"location_subtype":"","month":"2019-05"},{"category":"anti-social-behaviour","location_type":"Force","location":{"latitude":"51.575852","street":{"id":976583,"name":"On or near Rushdon Close"},"longitude":"0.197243"},"context":"","outcome_status":null,"persistent_id":"","id":74276966,"location_subtype":"","month":"2019-05"},{"category":"anti-social-behaviour","location_type":"Force","location":{"latitude":"51.577839","street":{"id":976418,"name":"On or near Harcourt Mews"},"longitude":"0.191479"},"context":"","outcome_status":null,"persistent_id":"","id":74277002,"location_subtype":"","month":"2019-05"},{"category":"anti-social-behaviour","location_type":"Force","location":{"latitude":"51.579523","street":{"id":977060,"name":"On or near Ives Gardens"},"longitude":"0.190405"},"context":"","outcome_status":null,"persistent_id":"","id":74277008,"location_subtype":"","month":"2019-05"},{"category":"anti-social-behaviour","location_type":"Force","location":{"latitude":"51.573891","street":{"id":976519,"name":"On or near Albert Road"},"longitude":"0.190076"},"context":"","outcome_status":null,"persistent_id":"","id":74277009,"location_subtype":"","month":"2019-05"},{"category":"anti-social-behaviour","location_type":"Force","location":{"latitude":"51.563679","street":{"id":970565,"name":"On or near Rainsford Way"},"longitude":"0.192226"},"context":"","outcome_status":null,"persistent_id":"","id":74276996,"location_subtype":"","month":"2019-05"},{"category":"anti-social-behaviour","location_type":"Force","location":{"latitude":"51.574782","street":{"id":976588,"name":"On or near Marwell Close"},"longitude":"0.198172"},"context":"","outcome_status":null,"persistent_id":"","id":74276964,"location_subtype":"","month":"2019-05"},{"category":"anti-social-behaviour","location_type":"Force","location":{"latitude":"51.573891","street":{"id":976519,"name":"On or near Albert Road"},"longitude":"0.190076"},"context":"","outcome_status":null,"persistent_id":"","id":74277010,"location_subtype":"","month":"2019-05"},{"category":"anti-social-behaviour","location_type":"Force","location":{"latitude":"51.575926","street":{"id":976424,"name":"On or near Corbridge Mews"},"longitude":"0.188457"},"context":"","outcome_status":null,"persistent_id":"","id":74277011,"location_subtype":"","month":"2019-05"},{"category":"anti-social-behaviour","location_type":"Force","location":{"latitude":"51.572678","street":{"id":976398,"name":"On or near Richmond Road"},"longitude":"0.188070"},"context":"","outcome_status":null,"persistent_id":"","id":74277013,"location_subtype":"","month":"2019-05"},{"category":"anti-social-behaviour","location_type":"Force","location":{"latitude":"51.565247","street":{"id":970569,"name":"On or near Franmil Road"},"longitude":"0.193037"},"context":"","outcome_status":null,"persistent_id":"","id":74276983,"location_subtype":"","month":"2019-05"},{"category":"anti-social-behaviour","location_type":"Force","location":{"latitude":"51.562677","street":{"id":970560,"name":"On or near Strathmore Gardens"},"longitude":"0.190548"},"context":"","outcome_status":null,"persistent_id":"","id":74277015,"location_subtype":"","month":"2019-05"},{"category":"anti-social-behaviour","location_type":"Force","location":{"latitude":"51.579410","street":{"id":977059,"name":"On or near Junction Road"},"longitude":"0.188754"},"context":"","outcome_status":null,"persistent_id":"","id":74277016,"location_subtype":"","month":"2019-05"},{"category":"anti-social-behaviour","location_type":"Force","location":{"latitude":"51.573185","street":{"id":976399,"name":"On or near Queen Mary Close"},"longitude":"0.187892"},"context":"","outcome_status":null,"persistent_id":"","id":74277018,"location_subtype":"","month":"2019-05"},{"category":"anti-social-behaviour","location_type":"Force","location":{"latitude":"51.569787","street":{"id":976402,"name":"On or near Park Crescent"},"longitude":"0.194079"},"context":"","outcome_status":null,"persistent_id":"","id":74276992,"location_subtype":"","month":"2019-05"},{"category":"anti-social-behaviour","location_type":"Force","location":{"latitude":"51.572533","street":{"id":976430,"name":"On or near Brentwood Road"},"longitude":"0.192955"},"context":"","outcome_status":null,"persistent_id":"","id":74276991,"location_subtype":"","month":"2019-05"},{"category":"anti-social-behaviour","location_type":"Force","location":{"latitude":"51.563379","street":{"id":970568,"name":"On or near Grenfell Avenue"},"longitude":"0.187118"},"context":"","outcome_status":null,"persistent_id":"","id":74277019,"location_subtype":"","month":"2019-05"},{"category":"anti-social-behaviour","location_type":"Force","location":{"latitude":"51.572678","street":{"id":976398,"name":"On or near Richmond Road"},"longitude":"0.188070"},"context":"","outcome_status":null,"persistent_id":"","id":74277020,"location_subtype":"","month":"2019-05"},{"category":"anti-social-behaviour","location_type":"Force","location":{"latitude":"51.563585","street":{"id":970610,"name":"On or near Leonard Avenue"},"longitude":"0.170723"},"context":"","outcome_status":null,"persistent_id":"","id":74276769,"location_subtype":"","month":"2019-05"},{"category":"anti-social-behaviour","location_type":"Force","location":{"latitude":"51.565523","street":{"id":970564,"name":"On or near Rom Valley Way"},"longitude":"0.187409"},"context":"","outcome_status":null,"persistent_id":"","id":74277023,"location_subtype":"","month":"2019-05"},{"category":"anti-social-behaviour","location_type":"Force","location":{"latitude":"51.578773","street":{"id":976476,"name":"On or near Shopping Area"},"longitude":"0.186270"},"context":"","outcome_status":null,"persistent_id":"","id":74277027,"location_subtype":"","month":"2019-05"},{"category":"anti-social-behaviour","location_type":"Force","location":{"latitude":"51.578773","street":{"id":976476,"name":"On or near Shopping Area"},"longitude":"0.186270"},"context":"","outcome_status":null,"persistent_id":"","id":74277028,"location_subtype":"","month":"2019-05"},{"category":"anti-social-behaviour","location_type":"Force","location":{"latitude":"51.573956","street":{"id":976417,"name":"On or near Hearn Road"},"longitude":"0.186573"},"context":"","outcome_status":null,"persistent_id":"","id":74277029,"location_subtype":"","month":"2019-05"},{"category":"bicycle-theft","location_type":"Force","location":{"latitude":"51.570485","street":{"id":976452,"name":"On or near Oldchurch Rise"},"longitude":"0.179292"},"context":"","outcome_status":{"category":"Status update unavailable","date":"2019-09"},"persistent_id":"8ba64061a76a5e93d6f56ab5cabffff618df53d20471296ed40a716680f94df2","id":74351203,"location_subtype":"","month":"2019-05"},{"category":"bicycle-theft","location_type":"Force","location":{"latitude":"51.574453","street":{"id":976415,"name":"On or near King Edward Road"},"longitude":"0.186900"},"context":"","outcome_status":{"category":"Status update unavailable","date":"2019-09"},"persistent_id":"20433d7f80b9dcaacf34475746a19e8d63a9994af88ab98ef4639a50b8cf3d5b","id":74308842,"location_subtype":"","month":"2019-05"},{"category":"bicycle-theft","location_type":"Force","location":{"latitude":"51.565627","street":{"id":970572,"name":"On or near Supermarket"},"longitude":"0.191974"},"context":"","outcome_status":{"category":"Status update unavailable","date":"2019-09"},"persistent_id":"5b4a3f0a4382eacdc6c96242848267cc77007cb72062dfd58ea8a10700be16ea","id":74311628,"location_subtype":"","month":"2019-05"},{"category":"bicycle-theft","location_type":"Force","location":{"latitude":"51.575761","street":{"id":976442,"name":"On or near Parking Area"},"longitude":"0.180886"},"context":"","outcome_status":{"category":"Status update unavailable","date":"2019-09"},"persistent_id":"47d4334dbb71f73932ad65bd259c7495547efc3b5f4265c823283ad82982e48b","id":74360570,"location_subtype":"","month":"2019-05"},{"category":"bicycle-theft","location_type":"Force","location":{"latitude":"51.575431","street":{"id":976462,"name":"On or near Nightclub"},"longitude":"0.183642"},"context":"","outcome_status":{"category":"Status update unavailable","date":"2019-09"},"persistent_id":"d2955ad0cd37a95a822b13497ffc9a8df15ee23916432d809eff094d72fd841d","id":74315094,"location_subtype":"","month":"2019-05"},{"category":"bicycle-theft","location_type":"Force","location":{"latitude":"51.587901","street":{"id":976985,"name":"On or near Fir Tree Close"},"longitude":"0.178003"},"context":"","outcome_status":{"category":"Status update unavailable","date":"2019-09"},"persistent_id":"0f80f38123615d3f5508001c6af66aa14f6ed5b06b809f1b780c107790df4076","id":74294507,"location_subtype":"","month":"2019-05"},{"category":"bicycle-theft","location_type":"Force","location":{"latitude":"51.571649","street":{"id":976599,"name":"On or near Benjamin Close"},"longitude":"0.196434"},"context":"","outcome_status":{"category":"Status update unavailable","date":"2019-09"},"persistent_id":"27f4ffb6b4b87edf57645dcbf96ad0300b278f4409e73582f3cd5ebe3a1c0065","id":74301529,"location_subtype":"","month":"2019-05"},{"category":"bicycle-theft","location_type":"Force","location":{"latitude":"51.580061","street":{"id":977050,"name":"On or near Shopping Area"},"longitude":"0.182305"},"context":"","outcome_status":{"category":"Status update unavailable","date":"2019-09"},"persistent_id":"a0c1dd00e1edc8f9341ce543e3c09cae74069e79d3960f8d786a791861ce98e0","id":74360566,"location_subtype":"","month":"2019-05"},{"category":"bicycle-theft","location_type":"BTP","location":{"latitude":"51.574974","street":{"id":1490544,"name":"Romford (station)"},"longitude":"0.183634"},"context":"","outcome_status":{"category":"Status update unavailable","date":"2019-09"},"persistent_id":"","id":88719173,"location_subtype":"STATION","month":"2019-05"},{"category":"bicycle-theft","location_type":"Force","location":{"latitude":"51.578773","street":{"id":976476,"name":"On or near Shopping Area"},"longitude":"0.186270"},"context":"","outcome_status":{"category":"Status update unavailable","date":"2019-09"},"persistent_id":"2b4c99b4e92a1ca7de92f6935e3a1732175998fef70d97b50609ef4496a3d1dd","id":74296512,"location_subtype":"","month":"2019-05"},{"category":"burglary","location_type":"Force","location":{"latitude":"51.581824","street":{"id":977000,"name":"On or near Park End Road"},"longitude":"0.181768"},"context":"","outcome_status":{"category":"Status update unavailable","date":"2019-09"},"persistent_id":"c04c487a0b0cc031de32020a4fac90f6f1b0de6f0686cac3b7f78facda067291","id":74343358,"location_subtype":"","month":"2019-05"},{"category":"burglary","location_type":"Force","location":{"latitude":"51.581824","street":{"id":977000,"name":"On or near Park End Road"},"longitude":"0.181768"},"context":"","outcome_status":{"category":"Status update unavailable","date":"2019-09"},"persistent_id":"ccc8cd58323ae4e7334d7669a6418e9e274a9791995796ff60025d492f75f672","id":74306435,"location_subtype":"","month":"2019-05"},{"category":"burglary","location_type":"Force","location":{"latitude":"51.581824","street":{"id":977000,"name":"On or near Park End Road"},"longitude":"0.181768"},"context":"","outcome_status":{"category":"Status update unavailable","date":"2019-09"},"persistent_id":"41a5b199830b04e382ffd87fb0d6f055d4dfaa5907d315f1625d5fe6a44a01af","id":74348636,"location_subtype":"","month":"2019-05"},{"category":"burglary","location_type":"Force","location":{"latitude":"51.573891","street":{"id":976498,"name":"On or near Cotleigh Road"},"longitude":"0.175067"},"context":"","outcome_status":{"category":"Status update unavailable","date":"2019-09"},"persistent_id":"9ce62b4991f0471ee4e6254ed2810dce66716f68824af0920cd10176bc3eaf04","id":74321652,"location_subtype":"","month":"2019-05"},{"category":"burglary","location_type":"Force","location":{"latitude":"51.571139","street":{"id":976411,"name":"On or near Kyme Road"},"longitude":"0.189107"},"context":"","outcome_status":{"category":"Status update unavailable","date":"2019-09"},"persistent_id":"27d7a3e38ebb923a58ae2474ede7a2f32e7b92e8478a03808fd58afa202514b6","id":74299666,"location_subtype":"","month":"2019-05"},{"category":"burglary","location_type":"Force","location":{"latitude":"51.581519","street":{"id":977011,"name":"On or near Dunton Road"},"longitude":"0.179329"},"context":"","outcome_status":{"category":"Status update unavailable","date":"2019-09"},"persistent_id":"30610ab1334c6e00570ffeb03a77ab61fef559a8574d73606133c849495b714f","id":74316047,"location_subtype":"","month":"2019-05"},{"category":"burglary","location_type":"Force","location":{"latitude":"51.583521","street":{"id":976988,"name":"On or near Brooklands Approach"},"longitude":"0.174185"},"context":"","outcome_status":{"category":"Status update unavailable","date":"2019-09"},"persistent_id":"4630f6a9052c1131b7c95eedf719e39b621bbf9241207dcf32ac1e7e0bb998ab","id":74350838,"location_subtype":"","month":"2019-05"},{"category":"burglary","location_type":"Force","location":{"latitude":"51.580644","street":{"id":977065,"name":"On or near North Street"},"longitude":"0.177988"},"context":"","outcome_status":{"category":"Status update unavailable","date":"2019-09"},"persistent_id":"7df2eb03a1b39f086775070bb06fd9a2568a155c9f02b4c9ff14d9cfd684c636","id":74317148,"location_subtype":"","month":"2019-05"},{"category":"burglary","location_type":"Force","location":{"latitude":"51.574884","street":{"id":976389,"name":"On or near Richards Avenue"},"longitude":"0.168534"},"context":"","outcome_status":{"category":"Status update unavailable","date":"2019-09"},"persistent_id":"74d272971966b0dcc7135bc6c5650a747a14ebbb8870d5f4dd24a66f2517f3dc","id":74327038,"location_subtype":"","month":"2019-05"},{"category":"burglary","location_type":"Force","location":{"latitude":"51.565843","street":{"id":970532,"name":"On or near Petrol Station"},"longitude":"0.176977"},"context":"","outcome_status":{"category":"Status update unavailable","date":"2019-09"},"persistent_id":"36807b4ff3e8720c036cd866b7ed795041c9a4e6a42fa839991fc49d1a64274b","id":74318919,"location_subtype":"","month":"2019-05"},{"category":"burglary","location_type":"Force","location":{"latitude":"51.570931","street":{"id":976457,"name":"On or near Davidson Way"},"longitude":"0.183354"},"context":"","outcome_status":{"category":"Status update unavailable","date":"2019-09"},"persistent_id":"d40dccec2a5f2bb4eff01b539c1d0531e6e74c8fb89136b265c36cd89894f8dd","id":74305962,"location_subtype":"","month":"2019-05"},{"category":"burglary","location_type":"Force","location":{"latitude":"51.583521","street":{"id":976988,"name":"On or near Brooklands Approach"},"longitude":"0.174185"},"context":"","outcome_status":{"category":"Court result unavailable","date":"2019-11"},"persistent_id":"66b0da75640fe753ea3b1f0fbc4f53cb9bbac7d98506a3a4855fe1440f3a2a7a","id":74331094,"location_subtype":"","month":"2019-05"},{"category":"burglary","location_type":"Force","location":{"latitude":"51.572234","street":{"id":976333,"name":"On or near Sheringham Avenue"},"longitude":"0.169389"},"context":"","outcome_status":{"category":"Investigation complete; no suspect identified","date":"2020-05"},"persistent_id":"8498a49d7554feeab41741b3aa6b8159484bbd21279da111ae4ffb9470c6a366","id":74305775,"location_subtype":"","month":"2019-05"},{"category":"burglary","location_type":"Force","location":{"latitude":"51.565843","street":{"id":970532,"name":"On or near Petrol Station"},"longitude":"0.176977"},"context":"","outcome_status":{"category":"Status update unavailable","date":"2019-09"},"persistent_id":"1c4e8d86161cf4bdc99d06103be3d7eaccd1ed6815de97064393fbfe320db473","id":74320164,"location_subtype":"","month":"2019-05"},{"category":"burglary","location_type":"Force","location":{"latitude":"51.570931","street":{"id":976457,"name":"On or near Davidson Way"},"longitude":"0.183354"},"context":"","outcome_status":{"category":"Status update unavailable","date":"2019-09"},"persistent_id":"5dc65b7b0af8e0f431c798cd5a629e88c9da2e0c1527582ed73dc2d998a082c2","id":74351604,"location_subtype":"","month":"2019-05"},{"category":"burglary","location_type":"Force","location":{"latitude":"51.575207","street":{"id":976428,"name":"On or near Carlisle Road"},"longitude":"0.192781"},"context":"","outcome_status":{"category":"Status update unavailable","date":"2019-09"},"persistent_id":"3061ea12ca0ba2e9cf65f408c209c8098d553a319e8cf2b173e9a1e275d3973f","id":74346843,"location_subtype":"","month":"2019-05"},{"category":"burglary","location_type":"Force","location":{"latitude":"51.576862","street":{"id":976494,"name":"On or near Logan Mews"},"longitude":"0.178269"},"context":"","outcome_status":{"category":"Status update unavailable","date":"2019-09"},"persistent_id":"3288d3042efe42d882b08e1f69d1a048ce60494cea5044c95aea2d1c24fef73f","id":74328395,"location_subtype":"","month":"2019-05"},{"category":"burglary","location_type":"Force","location":{"latitude":"51.584517","street":{"id":977125,"name":"On or near Burnham Road"},"longitude":"0.171865"},"context":"","outcome_status":{"category":"Status update unavailable","date":"2019-09"},"persistent_id":"854b4e2f2e8700c9f881865ad8a1eee237207d4a98215dc90e344510d0bfc91f","id":74361427,"location_subtype":"","month":"2019-05"},{"category":"burglary","location_type":"Force","location":{"latitude":"51.587901","street":{"id":976985,"name":"On or near Fir Tree Close"},"longitude":"0.178003"},"context":"","outcome_status":{"category":"Status update unavailable","date":"2019-09"},"persistent_id":"92a1181df48c66ffff06d3a80d9db5d44ab9f05e132f8a0df77c15c0b39649c7","id":74313362,"location_subtype":"","month":"2019-05"},{"category":"burglary","location_type":"Force","location":{"latitude":"51.577473","street":{"id":976466,"name":"On or near Shopping Area"},"longitude":"0.182166"},"context":"","outcome_status":{"category":"Investigation complete; no suspect identified","date":"2020-03"},"persistent_id":"a93317aef0363161c56ec41908187b983da4ad65b81e566221de6de956701edd","id":74296778,"location_subtype":"","month":"2019-05"},{"category":"burglary","location_type":"Force","location":{"latitude":"51.582826","street":{"id":977001,"name":"On or near Park End Road"},"longitude":"0.180589"},"context":"","outcome_status":{"category":"Status update unavailable","date":"2019-09"},"persistent_id":"1d594020674cbb140107a7648a606d1df419dc0f928175da3e9cc3720e0c227e","id":74348269,"location_subtype":"","month":"2019-05"},{"category":"burglary","location_type":"Force","location":{"latitude":"51.584517","street":{"id":977125,"name":"On or near Burnham Road"},"longitude":"0.171865"},"context":"","outcome_status":{"category":"Status update unavailable","date":"2019-09"},"persistent_id":"60e6b7f70c0f9cef08c8c45dedb468ca6f44305a8e03908e8fbae8f641aa07c1","id":74345453,"location_subtype":"","month":"2019-05"},{"category":"burglary","location_type":"Force","location":{"latitude":"51.581207","street":{"id":977012,"name":"On or near Church Lane"},"longitude":"0.181118"},"context":"","outcome_status":{"category":"Status update unavailable","date":"2019-09"},"persistent_id":"9d4edff060e5175f490a1184e66049b9ebc9cb05dbad102fcf82867c8d563b27","id":74348673,"location_subtype":"","month":"2019-05"},{"category":"burglary","location_type":"Force","location":{"latitude":"51.583521","street":{"id":976988,"name":"On or near Brooklands Approach"},"longitude":"0.174185"},"context":"","outcome_status":{"category":"Status update unavailable","date":"2019-09"},"persistent_id":"f3529d868b427e3548c56cb71e1a404d46683f8165406a2a26ec046f49101ba6","id":74316629,"location_subtype":"","month":"2019-05"},{"category":"burglary","location_type":"Force","location":{"latitude":"51.585928","street":{"id":976971,"name":"On or near Seymer Road"},"longitude":"0.176249"},"context":"","outcome_status":{"category":"Status update unavailable","date":"2019-09"},"persistent_id":"0ead899251a40a8d290b79ff560d8ba6b2715a57798997caf8123a95681f12ce","id":74345468,"location_subtype":"","month":"2019-05"},{"category":"burglary","location_type":"Force","location":{"latitude":"51.566618","street":{"id":976518,"name":"On or near Hornford Way"},"longitude":"0.183666"},"context":"","outcome_status":{"category":"Status update unavailable","date":"2019-09"},"persistent_id":"8d650bb0e0ccde5b7fac3f136db96fabfc6665c892f888c9296c2e482f1ccb92","id":74293658,"location_subtype":"","month":"2019-05"},{"category":"burglary","location_type":"Force","location":{"latitude":"51.565627","street":{"id":970572,"name":"On or near Supermarket"},"longitude":"0.191974"},"context":"","outcome_status":{"category":"Status update unavailable","date":"2019-09"},"persistent_id":"d80475d196ac3aceb47f45cb8be1d7753d0e01b55349c8d511ad61e37232f926","id":74354408,"location_subtype":"","month":"2019-05"},{"category":"burglary","location_type":"Force","location":{"latitude":"51.577013","street":{"id":976469,"name":"On or near Shopping Area"},"longitude":"0.183227"},"context":"","outcome_status":{"category":"Status update unavailable","date":"2019-09"},"persistent_id":"94a941c2a75b036d6b699ecd6c4d1ec6c06f439760a6bfd95c0d8018df145dfd","id":74324645,"location_subtype":"","month":"2019-05"},{"category":"burglary","location_type":"Force","location":{"latitude":"51.577473","street":{"id":976466,"name":"On or near Shopping Area"},"longitude":"0.182166"},"context":"","outcome_status":{"category":"Status update unavailable","date":"2019-09"},"persistent_id":"6c8162b6695b644cd0d9e2bf26e4ce96aa8949daed44ccaeb76030ef601b93e8","id":74323919,"location_subtype":"","month":"2019-05"},{"category":"burglary","location_type":"Force","location":{"latitude":"51.571577","street":{"id":976410,"name":"On or near Lennox Close"},"longitude":"0.185852"},"context":"","outcome_status":{"category":"Status update unavailable","date":"2019-09"},"persistent_id":"b1358238a7e463ff362d609cb9b68738be4fc9e464b3fdfa4b52765f06d31db0","id":74331603,"location_subtype":"","month":"2019-05"},{"category":"burglary","location_type":"Force","location":{"latitude":"51.565247","street":{"id":970569,"name":"On or near Franmil Road"},"longitude":"0.193037"},"context":"","outcome_status":{"category":"Status update unavailable","date":"2019-09"},"persistent_id":"ad95fb04268c8122cba7c9412d94bbd57760c98f9bd204f73950fb60ee834d55","id":74293017,"location_subtype":"","month":"2019-05"},{"category":"burglary","location_type":"Force","location":{"latitude":"51.566618","street":{"id":976518,"name":"On or near Hornford Way"},"longitude":"0.183666"},"context":"","outcome_status":{"category":"Status update unavailable","date":"2019-09"},"persistent_id":"e760a96e0df9dffc81ab9a718c7ebc6172d19043be64fd45d02c38696304a31e","id":74343824,"location_subtype":"","month":"2019-05"},{"category":"burglary","location_type":"Force","location":{"latitude":"51.575732","street":{"id":976569,"name":"On or near Brentwood Road"},"longitude":"0.206026"},"context":"","outcome_status":{"category":"Status update unavailable","date":"2019-09"},"persistent_id":"b373752b1e32aa0fc98ebb3cb7b78e2695f34d185a66568d29483e7650c4e2f9","id":74367422,"location_subtype":"","month":"2019-05"},{"category":"burglary","location_type":"Force","location":{"latitude":"51.580644","street":{"id":977065,"name":"On or near North Street"},"longitude":"0.177988"},"context":"","outcome_status":{"category":"Status update unavailable","date":"2019-09"},"persistent_id":"37cdeaaa5a9f55aaf1d1815b76fc4afbfe193ba7ec1a189754f08969a920595b","id":74348852,"location_subtype":"","month":"2019-05"},{"category":"burglary","location_type":"Force","location":{"latitude":"51.569183","street":{"id":976408,"name":"On or near Lyon Road"},"longitude":"0.187888"},"context":"","outcome_status":{"category":"Status update unavailable","date":"2019-09"},"persistent_id":"5f5a78bd7e3858e5de5b42272e43981987cd30bda647ecd8f3ee61899ed50f11","id":74303016,"location_subtype":"","month":"2019-05"},{"category":"burglary","location_type":"Force","location":{"latitude":"51.565182","street":{"id":970529,"name":"On or near Philip Avenue"},"longitude":"0.174334"},"context":"","outcome_status":{"category":"Status update unavailable","date":"2019-09"},"persistent_id":"1e1a804a02cd8be0a4a81826166184c7f0982a4b825e8c0eac30196b621650f0","id":74302587,"location_subtype":"","month":"2019-05"},{"category":"burglary","location_type":"Force","location":{"latitude":"51.573139","street":{"id":976337,"name":"On or near Norfolk Road"},"longitude":"0.168580"},"context":"","outcome_status":{"category":"Status update unavailable","date":"2019-09"},"persistent_id":"fc0acaad1ed42b59b38bdea607e1499c02f7da3486a2292e550153b6011cced4","id":74301982,"location_subtype":"","month":"2019-05"},{"category":"burglary","location_type":"Force","location":{"latitude":"51.581824","street":{"id":977000,"name":"On or near Park End Road"},"longitude":"0.181768"},"context":"","outcome_status":{"category":"Status update unavailable","date":"2019-09"},"persistent_id":"e9ff5fffdd5313ca0e446f4b3dadd81d4277faae3aa4196edcc093a0a4f40e22","id":74348268,"location_subtype":"","month":"2019-05"},{"category":"burglary","location_type":"Force","location":{"latitude":"51.570931","street":{"id":976457,"name":"On or near Davidson Way"},"longitude":"0.183354"},"context":"","outcome_status":{"category":"Status update unavailable","date":"2019-09"},"persistent_id":"a6b13ec884edb38b3eb4d45c5c35f578d9e6c46dba1929db201c6670e094329a","id":74302273,"location_subtype":"","month":"2019-05"},{"category":"burglary","location_type":"Force","location":{"latitude":"51.571327","street":{"id":976440,"name":"On or near Pedestrian Subway"},"longitude":"0.180429"},"context":"","outcome_status":{"category":"Status update unavailable","date":"2019-09"},"persistent_id":"8b4ba5592d466f003602404fe6abd005bae401c9ec9d0d055d495684a5cb5efb","id":74353475,"location_subtype":"","month":"2019-05"},{"category":"burglary","location_type":"Force","location":{"latitude":"51.582093","street":{"id":977099,"name":"On or near Medora Road"},"longitude":"0.173121"},"context":"","outcome_status":{"category":"Status update unavailable","date":"2019-09"},"persistent_id":"71ca3eef9b2fb47430d2da7320e13bb72306eac7602a570a138d9d170cd4faaa","id":74323723,"location_subtype":"","month":"2019-05"},{"category":"criminal-damage-arson","location_type":"Force","location":{"latitude":"51.575852","street":{"id":976583,"name":"On or near Rushdon Close"},"longitude":"0.197243"},"context":"","outcome_status":{"category":"Status update unavailable","date":"2019-09"},"persistent_id":"3b478227fa8a68abeade2c0db8a28aea48e213aaf6dfc246c992fd50dcf22e92","id":74360630,"location_subtype":"","month":"2019-05"},{"category":"criminal-damage-arson","location_type":"Force","location":{"latitude":"51.576989","street":{"id":976468,"name":"On or near Shopping Area"},"longitude":"0.180137"},"context":"","outcome_status":{"category":"Investigation complete; no suspect identified","date":"2020-03"},"persistent_id":"da41a4ae221a8b5e95d111980f4fabc83c676853d47426f5be54f42f8ad06b93","id":74360295,"location_subtype":"","month":"2019-05"},{"category":"criminal-damage-arson","location_type":"Force","location":{"latitude":"51.573184","street":{"id":976544,"name":"On or near Oak Dene Close"},"longitude":"0.200924"},"context":"","outcome_status":{"category":"Status update unavailable","date":"2019-09"},"persistent_id":"974b3208c1162f401a3f14881670e376ebbf1eecbfb1ab8ef934108e94c281a2","id":74332969,"location_subtype":"","month":"2019-05"},{"category":"criminal-damage-arson","location_type":"Force","location":{"latitude":"51.568091","street":{"id":976504,"name":"On or near Lilliput Road"},"longitude":"0.175065"},"context":"","outcome_status":{"category":"Status update unavailable","date":"2019-09"},"persistent_id":"3881e69033e3bfb8f8ed7bccd3f151aece1c461a75823cb1d4894d17c51d428f","id":74350591,"location_subtype":"","month":"2019-05"},{"category":"criminal-damage-arson","location_type":"Force","location":{"latitude":"51.572513","street":{"id":976445,"name":"On or near Waterloo Road"},"longitude":"0.179547"},"context":"","outcome_status":{"category":"Status update unavailable","date":"2019-09"},"persistent_id":"3224ba2c7135fbbd4388d93f772e642ab6560fc42ef444364b32db8622a966a1","id":74295674,"location_subtype":"","month":"2019-05"},{"category":"criminal-damage-arson","location_type":"Force","location":{"latitude":"51.572513","street":{"id":976445,"name":"On or near Waterloo Road"},"longitude":"0.179547"},"context":"","outcome_status":{"category":"Status update unavailable","date":"2019-09"},"persistent_id":"1e9feef14d2e462ac257081062cd653c7d265503589d8b6af7dc3b2fbeab6fc7","id":74299298,"location_subtype":"","month":"2019-05"},{"category":"criminal-damage-arson","location_type":"Force","location":{"latitude":"51.579020","street":{"id":976335,"name":"On or near Pretoria Road"},"longitude":"0.165656"},"context":"","outcome_status":{"category":"Investigation complete; no suspect identified","date":"2020-04"},"persistent_id":"91547ab0cda864c75bc5071bea8f382d1b71982df85de2f70101950d2a46266f","id":74354415,"location_subtype":"","month":"2019-05"},{"category":"criminal-damage-arson","location_type":"Force","location":{"latitude":"51.578943","street":{"id":976475,"name":"On or near Shopping Area"},"longitude":"0.182901"},"context":"","outcome_status":{"category":"Status update unavailable","date":"2019-09"},"persistent_id":"bc317c155cc8ef1bde871346eae4773af3b9ef0321169bda0143b59a9252036b","id":74304594,"location_subtype":"","month":"2019-05"},{"category":"criminal-damage-arson","location_type":"Force","location":{"latitude":"51.580080","street":{"id":977052,"name":"On or near St Edwards Way"},"longitude":"0.179318"},"context":"","outcome_status":{"category":"Status update unavailable","date":"2019-09"},"persistent_id":"3eb84f69144dbb2a2cfae4af0d2742e27e3deac029f27c7446b2f4c5fe0d6844","id":74304684,"location_subtype":"","month":"2019-05"},{"category":"criminal-damage-arson","location_type":"Force","location":{"latitude":"51.581230","street":{"id":977039,"name":"On or near Gilbert Road"},"longitude":"0.188553"},"context":"","outcome_status":{"category":"Status update unavailable","date":"2019-09"},"persistent_id":"db94c21a1c190046b81a9985d9f218b1ef11ca50ff05cc96c12e67a7ed575170","id":74322283,"location_subtype":"","month":"2019-05"},{"category":"criminal-damage-arson","location_type":"Force","location":{"latitude":"51.582390","street":{"id":976973,"name":"On or near Riverside Close"},"longitude":"0.175011"},"context":"","outcome_status":{"category":"Status update unavailable","date":"2019-09"},"persistent_id":"27419e53960bed2b75c4f9801b4b1edcd16732af7e33275ddbb886fb9ecbccd5","id":74327615,"location_subtype":"","month":"2019-05"},{"category":"criminal-damage-arson","location_type":"Force","location":{"latitude":"51.571930","street":{"id":976427,"name":"On or near Claremont Road"},"longitude":"0.193431"},"context":"","outcome_status":{"category":"Status update unavailable","date":"2019-09"},"persistent_id":"dff57885187ba440f1e7dcbcea55112a264b59c2fcc92599141d6767fdee5c9b","id":74358088,"location_subtype":"","month":"2019-05"},{"category":"criminal-damage-arson","location_type":"Force","location":{"latitude":"51.576002","street":{"id":976458,"name":"On or near Chandlers Way"},"longitude":"0.183438"},"context":"","outcome_status":{"category":"Status update unavailable","date":"2019-09"},"persistent_id":"04d653c14e056a47a3c8e17ad8ec4eae5b110cf41954cd79176f4dbef00b6141","id":74314601,"location_subtype":"","month":"2019-05"},{"category":"criminal-damage-arson","location_type":"Force","location":{"latitude":"51.575265","street":{"id":976332,"name":"On or near Spring Gardens"},"longitude":"0.165911"},"context":"","outcome_status":{"category":"Status update unavailable","date":"2019-09"},"persistent_id":"b6dcfd0112921f016e895387f526eb4fbd8caa02d6c94a94beebfdf1fe553c62","id":74327751,"location_subtype":"","month":"2019-05"},{"category":"criminal-damage-arson","location_type":"Force","location":{"latitude":"51.582121","street":{"id":977044,"name":"On or near Petrol Station"},"longitude":"0.187051"},"context":"","outcome_status":{"category":"Court result unavailable","date":"2019-12"},"persistent_id":"aece93c928eeb2d3987fd2ab89cdaf71c61910ef2c3f960488834706283ebe0e","id":74297356,"location_subtype":"","month":"2019-05"},{"category":"criminal-damage-arson","location_type":"Force","location":{"latitude":"51.575761","street":{"id":976442,"name":"On or near Parking Area"},"longitude":"0.180886"},"context":"","outcome_status":{"category":"Status update unavailable","date":"2019-09"},"persistent_id":"c2c27a933368ca2237eb62cd28d99a8fa67bb71d35267a28372d86aa02722478","id":74327851,"location_subtype":"","month":"2019-05"},{"category":"criminal-damage-arson","location_type":"Force","location":{"latitude":"51.575797","street":{"id":976470,"name":"On or near Further\/higher Educational Building"},"longitude":"0.183313"},"context":"","outcome_status":{"category":"Status update unavailable","date":"2019-09"},"persistent_id":"0c63ecfa709d90b5e18ac3b1d0c001d8fd0ee1158f2c246d1ef43221b6097b40","id":74347464,"location_subtype":"","month":"2019-05"},{"category":"criminal-damage-arson","location_type":"Force","location":{"latitude":"51.579539","street":{"id":977057,"name":"On or near Pedestrian Subway"},"longitude":"0.185672"},"context":"","outcome_status":{"category":"Status update unavailable","date":"2019-09"},"persistent_id":"a187f75106f3ca8f1f605cfab71e43c4c8ad194b6c55bcf5b75d679bb9ded70a","id":74321140,"location_subtype":"","month":"2019-05"},{"category":"criminal-damage-arson","location_type":"Force","location":{"latitude":"51.579410","street":{"id":977059,"name":"On or near Junction Road"},"longitude":"0.188754"},"context":"","outcome_status":{"category":"Status update unavailable","date":"2019-09"},"persistent_id":"98ca9f47bd9a529df5663d76308ceaa52fd41e773b90203220bebf0d43522777","id":74328154,"location_subtype":"","month":"2019-05"},{"category":"criminal-damage-arson","location_type":"Force","location":{"latitude":"51.578657","street":{"id":976460,"name":"On or near Angel Way"},"longitude":"0.178947"},"context":"","outcome_status":{"category":"Status update unavailable","date":"2019-09"},"persistent_id":"af572afdab6b7bff06a7f3eb00933b5ca7decd673ab529bc7d07688f00c18230","id":74318112,"location_subtype":"","month":"2019-05"},{"category":"criminal-damage-arson","location_type":"Force","location":{"latitude":"51.574899","street":{"id":976493,"name":"On or near London Road"},"longitude":"0.174047"},"context":"","outcome_status":{"category":"Status update unavailable","date":"2019-09"},"persistent_id":"03200f81efb126e0a2e9d016adf02699bcafad8dbf80f5a5dce50b3597ca3894","id":74358661,"location_subtype":"","month":"2019-05"},{"category":"criminal-damage-arson","location_type":"Force","location":{"latitude":"51.575761","street":{"id":976442,"name":"On or near Parking Area"},"longitude":"0.180886"},"context":"","outcome_status":{"category":"Local resolution","date":"2019-07"},"persistent_id":"9f8af673e4d7ee9d12f3ac2b86173042809d204e1e8a9f51b650d47b93f83801","id":74303996,"location_subtype":"","month":"2019-05"},{"category":"criminal-damage-arson","location_type":"Force","location":{"latitude":"51.567588","street":{"id":976513,"name":"On or near Frazer Close"},"longitude":"0.186123"},"context":"","outcome_status":{"category":"Status update unavailable","date":"2019-09"},"persistent_id":"2f515d20581b9368ab8b190563695fdbcbb07e93c9719b24f64e7da7ad49fc7e","id":74311377,"location_subtype":"","month":"2019-05"},{"category":"criminal-damage-arson","location_type":"Force","location":{"latitude":"51.582121","street":{"id":977044,"name":"On or near Petrol Station"},"longitude":"0.187051"},"context":"","outcome_status":{"category":"Court result unavailable","date":"2019-11"},"persistent_id":"9dc27b77ea5fc4ef4e6077f4049b641522719f78f1354d0ca82fbf924694cb36","id":74308228,"location_subtype":"","month":"2019-05"},{"category":"criminal-damage-arson","location_type":"Force","location":{"latitude":"51.578773","street":{"id":976476,"name":"On or near Shopping Area"},"longitude":"0.186270"},"context":"","outcome_status":{"category":"Status update unavailable","date":"2019-09"},"persistent_id":"52307fa907888d3f34eab166a651a3a1755fe7f3a08e600398da93aa1b825268","id":74329469,"location_subtype":"","month":"2019-05"},{"category":"criminal-damage-arson","location_type":"Force","location":{"latitude":"51.583674","street":{"id":977124,"name":"On or near Cedar Close"},"longitude":"0.170771"},"context":"","outcome_status":{"category":"Status update unavailable","date":"2019-09"},"persistent_id":"cd6b6934a3450afb29ad8cc63906b267c3285fc58a4d7b3ead5bf17c38c91358","id":74348817,"location_subtype":"","month":"2019-05"},{"category":"criminal-damage-arson","location_type":"Force","location":{"latitude":"51.580061","street":{"id":977050,"name":"On or near Shopping Area"},"longitude":"0.182305"},"context":"","outcome_status":{"category":"Investigation complete; no suspect identified","date":"2020-03"},"persistent_id":"b7c407b5ce0d91fe3ab05630bbdd54d8109caffbe74359bc6b09cdaf3f307208","id":74305450,"location_subtype":"","month":"2019-05"},{"category":"criminal-damage-arson","location_type":"Force","location":{"latitude":"51.576989","street":{"id":976468,"name":"On or near Shopping Area"},"longitude":"0.180137"},"context":"","outcome_status":{"category":"Status update unavailable","date":"2019-09"},"persistent_id":"ba21088a4082ea1bfed2c5d03ed769d3084af701520e0665e2895dc8ca4b710f","id":74331775,"location_subtype":"","month":"2019-05"},{"category":"criminal-damage-arson","location_type":"Force","location":{"latitude":"51.577473","street":{"id":976466,"name":"On or near Shopping Area"},"longitude":"0.182166"},"context":"","outcome_status":{"category":"Status update unavailable","date":"2019-09"},"persistent_id":"465a64e60b5331602ba1c3619785139d816125ed0f332e2ea4bac014dc1fe7aa","id":74298691,"location_subtype":"","month":"2019-05"},{"category":"criminal-damage-arson","location_type":"Force","location":{"latitude":"51.575761","street":{"id":976442,"name":"On or near Parking Area"},"longitude":"0.180886"},"context":"","outcome_status":{"category":"Status update unavailable","date":"2019-09"},"persistent_id":"1e80ea00ec35e489ac28deb7ffd6cb912213e72732f45f00877e975bee7ec478","id":74320591,"location_subtype":"","month":"2019-05"},{"category":"criminal-damage-arson","location_type":"Force","location":{"latitude":"51.579410","street":{"id":977059,"name":"On or near Junction Road"},"longitude":"0.188754"},"context":"","outcome_status":{"category":"Status update unavailable","date":"2019-09"},"persistent_id":"e268d364e94bbb0910242cb65144e9a83f9b396773361b81c421e89daa2d22c6","id":74303895,"location_subtype":"","month":"2019-05"},{"category":"criminal-damage-arson","location_type":"Force","location":{"latitude":"51.565247","street":{"id":970569,"name":"On or near Franmil Road"},"longitude":"0.193037"},"context":"","outcome_status":{"category":"Status update unavailable","date":"2019-09"},"persistent_id":"502f196dd0c47ba7266f1ab657fe3f70e6efd6e4870485ad52e05c66f5448d20","id":74308432,"location_subtype":"","month":"2019-05"},{"category":"criminal-damage-arson","location_type":"Force","location":{"latitude":"51.570566","street":{"id":976492,"name":"On or near Nursery Walk"},"longitude":"0.174952"},"context":"","outcome_status":{"category":"Status update unavailable","date":"2019-09"},"persistent_id":"c0a3ad3a1daa98fd75f7c35ab3056095e1dec470ea1c1ede7cc88eafd4510b89","id":74336102,"location_subtype":"","month":"2019-05"},{"category":"criminal-damage-arson","location_type":"Force","location":{"latitude":"51.576862","street":{"id":976494,"name":"On or near Logan Mews"},"longitude":"0.178269"},"context":"","outcome_status":{"category":"Status update unavailable","date":"2019-09"},"persistent_id":"c789e46f851a69f31afef8e36aa4e82a1f05dcdb54ddb3b789cd9d92f689a5f5","id":74301864,"location_subtype":"","month":"2019-05"},{"category":"criminal-damage-arson","location_type":"Force","location":{"latitude":"51.580345","street":{"id":977062,"name":"On or near Dolphin Approach"},"longitude":"0.186822"},"context":"","outcome_status":{"category":"Status update unavailable","date":"2019-09"},"persistent_id":"0381c802732d52514684efcb149fcff0d8b144f5daf9c0185b0c5e7cef4d8395","id":74353680,"location_subtype":"","month":"2019-05"},{"category":"criminal-damage-arson","location_type":"Force","location":{"latitude":"51.576092","street":{"id":976456,"name":"On or near Exchange Street"},"longitude":"0.181494"},"context":"","outcome_status":{"category":"Status update unavailable","date":"2019-09"},"persistent_id":"45a771cf44a7716d8fb89cd3337ae2f91888c8753c2f5854b4113ca5e46b9e75","id":74347831,"location_subtype":"","month":"2019-05"},{"category":"drugs","location_type":"Force","location":{"latitude":"51.563379","street":{"id":970568,"name":"On or near Grenfell Avenue"},"longitude":"0.187118"},"context":"","outcome_status":{"category":"Court result unavailable","date":"2019-11"},"persistent_id":"907b2acd178270082d4206984a4132c6b87a20dc2586845a1d0657e3a3309e4d","id":74322314,"location_subtype":"","month":"2019-05"},{"category":"drugs","location_type":"Force","location":{"latitude":"51.570566","street":{"id":976492,"name":"On or near Nursery Walk"},"longitude":"0.174952"},"context":"","outcome_status":{"category":"Offender given penalty notice","date":"2020-05"},"persistent_id":"06a3974dfb6da2ecb4f82c28fc8a4aeba59b901535184d3fdec1327ae8b65ce4","id":74345695,"location_subtype":"","month":"2019-05"},{"category":"drugs","location_type":"Force","location":{"latitude":"51.576092","street":{"id":976456,"name":"On or near Exchange Street"},"longitude":"0.181494"},"context":"","outcome_status":{"category":"Court result unavailable","date":"2019-11"},"persistent_id":"d8fdc50930014e2445d482fda73d41ccddc2b1536feb82c405c4eebadda818db","id":74346490,"location_subtype":"","month":"2019-05"},{"category":"drugs","location_type":"Force","location":{"latitude":"51.579093","street":{"id":976473,"name":"On or near Pedestrian Subway"},"longitude":"0.184539"},"context":"","outcome_status":{"category":"Investigation complete; no suspect identified","date":"2020-04"},"persistent_id":"05c201a69e8571d242c5d2d7add39cd5cd2694157ae8e26ae13b7330fe153b1f","id":74327418,"location_subtype":"","month":"2019-05"},{"category":"drugs","location_type":"Force","location":{"latitude":"51.576989","street":{"id":976468,"name":"On or near Shopping Area"},"longitude":"0.180137"},"context":"","outcome_status":{"category":"Offender given a caution","date":"2019-07"},"persistent_id":"a529ba10fcdc2cb9cb9753fa705ea450e55e893b745526a1f48a8a0e6a91b780","id":74363590,"location_subtype":"","month":"2019-05"},{"category":"drugs","location_type":"Force","location":{"latitude":"51.576198","street":{"id":976478,"name":"On or near Pedestrian Subway"},"longitude":"0.177227"},"context":"","outcome_status":{"category":"Status update unavailable","date":"2019-09"},"persistent_id":"6ac714659c6647fe07227f29796bece7181e6f142060561b868843210d8103ad","id":74365296,"location_subtype":"","month":"2019-05"},{"category":"drugs","location_type":"Force","location":{"latitude":"51.576499","street":{"id":976447,"name":"On or near Slaney Road"},"longitude":"0.184270"},"context":"","outcome_status":{"category":"Offender given penalty notice","date":"2019-05"},"persistent_id":"d0ca79ae4232d38df5f927a6a338b7fe5a90ab3550ec6750573658c3ee2bf191","id":74365280,"location_subtype":"","month":"2019-05"},{"category":"drugs","location_type":"Force","location":{"latitude":"51.580080","street":{"id":977052,"name":"On or near St Edwards Way"},"longitude":"0.179318"},"context":"","outcome_status":{"category":"Offender given penalty notice","date":"2019-05"},"persistent_id":"dc3227446d9e8bd26950592538c164cc6787684c2130595d49b6bb1882b769d1","id":74349160,"location_subtype":"","month":"2019-05"},{"category":"drugs","location_type":"Force","location":{"latitude":"51.575797","street":{"id":976470,"name":"On or near Further\/higher Educational Building"},"longitude":"0.183313"},"context":"","outcome_status":{"category":"Court result unavailable","date":"2019-11"},"persistent_id":"2d74e01b0bb53e2f42629f166b42c484d4c7edf4e34c5c982cf6800df92a4670","id":74350991,"location_subtype":"","month":"2019-05"},{"category":"drugs","location_type":"Force","location":{"latitude":"51.580526","street":{"id":977046,"name":"On or near Pedestrian Subway"},"longitude":"0.183886"},"context":"","outcome_status":{"category":"Offender given penalty notice","date":"2019-05"},"persistent_id":"4f152193d43be9e6f2be4f9c7754b09f5661c7c469fa8defa0a78185e6d87577","id":74359599,"location_subtype":"","month":"2019-05"},{"category":"drugs","location_type":"Force","location":{"latitude":"51.573446","street":{"id":976453,"name":"On or near Marden Road"},"longitude":"0.184499"},"context":"","outcome_status":{"category":"Court result unavailable","date":"2019-11"},"persistent_id":"c67cf5757c75df9b65879f856a02853d5b5d66dd0fa49cfe27c09a475d79c7d2","id":74349148,"location_subtype":"","month":"2019-05"},{"category":"drugs","location_type":"Force","location":{"latitude":"51.568622","street":{"id":976471,"name":"On or near Hospital"},"longitude":"0.178900"},"context":"","outcome_status":{"category":"Court result unavailable","date":"2019-11"},"persistent_id":"463dd882574ef1108808003d6ff08f8c7cff453bd5ec1e8b03fbb026d3999fed","id":74347316,"location_subtype":"","month":"2019-05"},{"category":"drugs","location_type":"Force","location":{"latitude":"51.577824","street":{"id":976406,"name":"On or near Mercury Gardens"},"longitude":"0.186051"},"context":"","outcome_status":{"category":"Court result unavailable","date":"2020-02"},"persistent_id":"231bb947036d77ed209b9a8c840f83663087f7bb2f1924a505b33cd290bac7e1","id":74312167,"location_subtype":"","month":"2019-05"},{"category":"drugs","location_type":"Force","location":{"latitude":"51.580061","street":{"id":977050,"name":"On or near Shopping Area"},"longitude":"0.182305"},"context":"","outcome_status":{"category":"Offender given a caution","date":"2019-05"},"persistent_id":"a067c4ef8d347aea9f990f179672d433ef3a84e60b297c23cba5d243869ff9c5","id":74290142,"location_subtype":"","month":"2019-05"},{"category":"drugs","location_type":"Force","location":{"latitude":"51.579702","street":{"id":977053,"name":"On or near Market Link"},"longitude":"0.180786"},"context":"","outcome_status":{"category":"Court result unavailable","date":"2020-07"},"persistent_id":"7d18de9f959109a786fdd8f6e929964bcf28c3db463ba3f97dc48f02955f9042","id":74307581,"location_subtype":"","month":"2019-05"},{"category":"drugs","location_type":"Force","location":{"latitude":"51.569051","street":{"id":976593,"name":"On or near Hillcrest Road"},"longitude":"0.195457"},"context":"","outcome_status":{"category":"Local resolution","date":"2019-05"},"persistent_id":"ef9aacc1b68190cafc3ec997148d2ef8b39be706547e6d75235f21bfe502f82f","id":74319877,"location_subtype":"","month":"2019-05"},{"category":"drugs","location_type":"Force","location":{"latitude":"51.575316","street":{"id":976464,"name":"On or near Nightclub"},"longitude":"0.182611"},"context":"","outcome_status":{"category":"Local resolution","date":"2019-05"},"persistent_id":"1785c70ea7239b4ab6e1e25fa2ff6519eecbd245b7ac181a4ff0a78969a3d330","id":74303719,"location_subtype":"","month":"2019-05"},{"category":"drugs","location_type":"Force","location":{"latitude":"51.568980","street":{"id":976448,"name":"On or near Rom Valley Way"},"longitude":"0.183809"},"context":"","outcome_status":{"category":"Offender deprived of property","date":"2019-05"},"persistent_id":"3b7d26e51be99f5603d3b2ec2b50aac96ce8ab7f94a4e04d99aaf723d61fa57a","id":74365302,"location_subtype":"","month":"2019-05"},{"category":"drugs","location_type":"Force","location":{"latitude":"51.563679","street":{"id":970565,"name":"On or near Rainsford Way"},"longitude":"0.192226"},"context":"","outcome_status":{"category":"Local resolution","date":"2019-05"},"persistent_id":"a0e3372c7033917a57bf76eb9cd4348f451274d0fde704885fdd7903903a4851","id":74323752,"location_subtype":"","month":"2019-05"},{"category":"drugs","location_type":"Force","location":{"latitude":"51.575431","street":{"id":976462,"name":"On or near Nightclub"},"longitude":"0.183642"},"context":"","outcome_status":{"category":"Court result unavailable","date":"2020-04"},"persistent_id":"4017a2c6b6ff09a33b14f9616c6b14d95e3b006e76d2a2c44296b9c456bcf364","id":74294940,"location_subtype":"","month":"2019-05"},{"category":"drugs","location_type":"Force","location":{"latitude":"51.564441","street":{"id":970528,"name":"On or near Parking Area"},"longitude":"0.175453"},"context":"","outcome_status":{"category":"Local resolution","date":"2019-05"},"persistent_id":"85e98f49f8640765a8fc2ead8e85fca6047ac2241d9e3a97e3fcdc90c8e26710","id":74299149,"location_subtype":"","month":"2019-05"},{"category":"other-theft","location_type":"Force","location":{"latitude":"51.574004","street":{"id":976461,"name":"On or near Bus\/coach Station"},"longitude":"0.182043"},"context":"","outcome_status":{"category":"Status update unavailable","date":"2019-09"},"persistent_id":"d853f70a1a8a790d1936ddff9911aef49fa8b1f5af603a7ff161bc74c0982679","id":74298660,"location_subtype":"","month":"2019-05"},{"category":"other-theft","location_type":"Force","location":{"latitude":"51.565843","street":{"id":970532,"name":"On or near Petrol Station"},"longitude":"0.176977"},"context":"","outcome_status":{"category":"Investigation complete; no suspect identified","date":"2020-04"},"persistent_id":"03f22413be0d4636a994ceb632394a40a4df47913a318404482d1e8f56e0d2c1","id":74290450,"location_subtype":"","month":"2019-05"},{"category":"other-theft","location_type":"Force","location":{"latitude":"51.578657","street":{"id":976460,"name":"On or near Angel Way"},"longitude":"0.178947"},"context":"","outcome_status":{"category":"Status update unavailable","date":"2019-09"},"persistent_id":"386145e1f1b9ab6230665c45e1717301a6bcab862e183f714f1b7d83ae3dce22","id":74297688,"location_subtype":"","month":"2019-05"},{"category":"other-theft","location_type":"Force","location":{"latitude":"51.573446","street":{"id":976453,"name":"On or near Marden Road"},"longitude":"0.184499"},"context":"","outcome_status":{"category":"Status update unavailable","date":"2019-09"},"persistent_id":"b7c03343f0cb41a8bf37b359cc60ea4b45ec6ec1d710238a749ba724f856f30c","id":74292500,"location_subtype":"","month":"2019-05"},{"category":"other-theft","location_type":"BTP","location":{"latitude":"51.574974","street":{"id":1490544,"name":"Romford (station)"},"longitude":"0.183634"},"context":"","outcome_status":{"category":"Status update unavailable","date":"2019-09"},"persistent_id":"","id":88719171,"location_subtype":"STATION","month":"2019-05"},{"category":"other-theft","location_type":"BTP","location":{"latitude":"51.574974","street":{"id":1490544,"name":"Romford (station)"},"longitude":"0.183634"},"context":"","outcome_status":{"category":"Status update unavailable","date":"2019-09"},"persistent_id":"","id":88719172,"location_subtype":"STATION","month":"2019-05"},{"category":"other-theft","location_type":"Force","location":{"latitude":"51.565627","street":{"id":970572,"name":"On or near Supermarket"},"longitude":"0.191974"},"context":"","outcome_status":{"category":"Status update unavailable","date":"2019-09"},"persistent_id":"ccd01d3a83c4f387dfa3a27dc1424ae6e19df3759af8e8170e863b1e69f06361","id":74360193,"location_subtype":"","month":"2019-05"},{"category":"other-theft","location_type":"Force","location":{"latitude":"51.576989","street":{"id":976468,"name":"On or near Shopping Area"},"longitude":"0.180137"},"context":"","outcome_status":{"category":"Status update unavailable","date":"2019-09"},"persistent_id":"aecc6584b22d39ee758c564b6da36a533d22c9fbfe6a561bd957c2c72832ec73","id":74351940,"location_subtype":"","month":"2019-05"},{"category":"other-theft","location_type":"Force","location":{"latitude":"51.568622","street":{"id":976471,"name":"On or near Hospital"},"longitude":"0.178900"},"context":"","outcome_status":{"category":"Status update unavailable","date":"2019-09"},"persistent_id":"84228251c00585830c8ecc23c48656647cab7555ef8630ee983033c257627002","id":74360146,"location_subtype":"","month":"2019-05"},{"category":"other-theft","location_type":"Force","location":{"latitude":"51.565627","street":{"id":970572,"name":"On or near Supermarket"},"longitude":"0.191974"},"context":"","outcome_status":{"category":"Status update unavailable","date":"2019-09"},"persistent_id":"95c30bd775f632c598a22f9a36588698e0893a6f643f3ac9c382f3105d3bf236","id":74327090,"location_subtype":"","month":"2019-05"},{"category":"other-theft","location_type":"Force","location":{"latitude":"51.569183","street":{"id":976408,"name":"On or near Lyon Road"},"longitude":"0.187888"},"context":"","outcome_status":{"category":"Status update unavailable","date":"2019-09"},"persistent_id":"013652ab4e320bac21b6285a7132320d8c0914164afa19452282881c4b40f6d2","id":74295468,"location_subtype":"","month":"2019-05"},{"category":"other-theft","location_type":"Force","location":{"latitude":"51.578943","street":{"id":976475,"name":"On or near Shopping Area"},"longitude":"0.182901"},"context":"","outcome_status":{"category":"Status update unavailable","date":"2019-09"},"persistent_id":"aa874ef66f53ebfb28ac3a3426ba77011e630acda67b311c573d27b8976de81c","id":74305027,"location_subtype":"","month":"2019-05"},{"category":"other-theft","location_type":"Force","location":{"latitude":"51.565627","street":{"id":970572,"name":"On or near Supermarket"},"longitude":"0.191974"},"context":"","outcome_status":{"category":"Status update unavailable","date":"2019-09"},"persistent_id":"da3528342473ba014ea983b29d798dc171c3db140186149d15683a3456ebdfbc","id":74327782,"location_subtype":"","month":"2019-05"},{"category":"other-theft","location_type":"Force","location":{"latitude":"51.576092","street":{"id":976456,"name":"On or near Exchange Street"},"longitude":"0.181494"},"context":"","outcome_status":{"category":"Status update unavailable","date":"2019-09"},"persistent_id":"f4dac7a28d4b2ced454843877a01d3e4d0af2e0b040e301b9206334f51fe93b9","id":74347914,"location_subtype":"","month":"2019-05"},{"category":"other-theft","location_type":"Force","location":{"latitude":"51.577013","street":{"id":976469,"name":"On or near Shopping Area"},"longitude":"0.183227"},"context":"","outcome_status":{"category":"Status update unavailable","date":"2019-09"},"persistent_id":"7014278ef077d8dd9a32a0f41cac7e49ea53408984bfb09cbe9cce58c39b90f0","id":74330597,"location_subtype":"","month":"2019-05"},{"category":"other-theft","location_type":"Force","location":{"latitude":"51.577473","street":{"id":976466,"name":"On or near Shopping Area"},"longitude":"0.182166"},"context":"","outcome_status":{"category":"Status update unavailable","date":"2019-09"},"persistent_id":"07ba96c921589b2d4da6ff0dad636593d20c4c6629abd7099f37cec63279b9e5","id":74307724,"location_subtype":"","month":"2019-05"},{"category":"other-theft","location_type":"Force","location":{"latitude":"51.565627","street":{"id":970572,"name":"On or near Supermarket"},"longitude":"0.191974"},"context":"","outcome_status":{"category":"Status update unavailable","date":"2019-09"},"persistent_id":"be89cfc3eef8b5e1116dd5fa048ffa61431f2d449bbbb7e56dc4526a2da9d0d9","id":74369850,"location_subtype":"","month":"2019-05"},{"category":"other-theft","location_type":"Force","location":{"latitude":"51.577473","street":{"id":976466,"name":"On or near Shopping Area"},"longitude":"0.182166"},"context":"","outcome_status":{"category":"Status update unavailable","date":"2019-09"},"persistent_id":"c1abd1cbd1e0a200e333a50920c9ff7ade86ca9a6f6bb8b5626a7b707c549f30","id":74305264,"location_subtype":"","month":"2019-05"},{"category":"other-theft","location_type":"Force","location":{"latitude":"51.577645","street":{"id":976454,"name":"On or near High Street"},"longitude":"0.178754"},"context":"","outcome_status":{"category":"Status update unavailable","date":"2019-09"},"persistent_id":"5efeecb2446855ddf56d0ad41e8a544792b14decfd9645083691515c0488a3f0","id":74348445,"location_subtype":"","month":"2019-05"},{"category":"other-theft","location_type":"Force","location":{"latitude":"51.565627","street":{"id":970572,"name":"On or near Supermarket"},"longitude":"0.191974"},"context":"","outcome_status":{"category":"Investigation complete; no suspect identified","date":"2020-04"},"persistent_id":"b6f0dd4551aabd28c70e1966c70fe6d57fed9008bcc4be5c0793c54d0faabc59","id":74318421,"location_subtype":"","month":"2019-05"},{"category":"other-theft","location_type":"Force","location":{"latitude":"51.568622","street":{"id":976471,"name":"On or near Hospital"},"longitude":"0.178900"},"context":"","outcome_status":{"category":"Status update unavailable","date":"2019-09"},"persistent_id":"7b537decdac4a1c226f67b74dda73c24dd333e374375f375464b10868e874db1","id":74367948,"location_subtype":"","month":"2019-05"},{"category":"other-theft","location_type":"Force","location":{"latitude":"51.566654","street":{"id":976517,"name":"On or near Norwood Avenue"},"longitude":"0.179296"},"context":"","outcome_status":{"category":"Investigation complete; no suspect identified","date":"2020-04"},"persistent_id":"7ed29876d129ac9b43f9e7e1f3d13aaf46603cb43b1234aa4f72e0f61725d7c8","id":74304445,"location_subtype":"","month":"2019-05"},{"category":"other-theft","location_type":"Force","location":{"latitude":"51.565843","street":{"id":970532,"name":"On or near Petrol Station"},"longitude":"0.176977"},"context":"","outcome_status":{"category":"Status update unavailable","date":"2019-09"},"persistent_id":"0a8c818bab62b71112ad5979de071b4b6c068de0d5001f7224c42bf6e3fa2eba","id":74355976,"location_subtype":"","month":"2019-05"},{"category":"other-theft","location_type":"Force","location":{"latitude":"51.572098","street":{"id":976392,"name":"On or near Wheatsheaf Road"},"longitude":"0.187364"},"context":"","outcome_status":{"category":"Status update unavailable","date":"2019-09"},"persistent_id":"845ced1976f292432d7ec461ce238612ccc342fcd902bf71b9201d285c09684c","id":74366869,"location_subtype":"","month":"2019-05"},{"category":"other-theft","location_type":"Force","location":{"latitude":"51.565627","street":{"id":970572,"name":"On or near Supermarket"},"longitude":"0.191974"},"context":"","outcome_status":{"category":"Status update unavailable","date":"2019-09"},"persistent_id":"a0e69854bd38b56ee8cd6c3e04c199f8a238702c838d3ac4922c065b1fc6479d","id":74347638,"location_subtype":"","month":"2019-05"},{"category":"other-theft","location_type":"Force","location":{"latitude":"51.579203","street":{"id":976472,"name":"On or near Pedestrian Subway"},"longitude":"0.184905"},"context":"","outcome_status":{"category":"Status update unavailable","date":"2019-09"},"persistent_id":"de75a92e7315fea32a9889147c09f0c0c191f5e56740d33e0626d2cc985eadad","id":74331403,"location_subtype":"","month":"2019-05"},{"category":"other-theft","location_type":"Force","location":{"latitude":"51.577170","street":{"id":976497,"name":"On or near Cottons Approach"},"longitude":"0.174300"},"context":"","outcome_status":{"category":"Status update unavailable","date":"2019-09"},"persistent_id":"4c1776c8b4bcdc13fbdf6b2a857493fdca99de76cecbbedf87e51ae4f80cc1d1","id":74324148,"location_subtype":"","month":"2019-05"},{"category":"other-theft","location_type":"Force","location":{"latitude":"51.570931","street":{"id":976457,"name":"On or near Davidson Way"},"longitude":"0.183354"},"context":"","outcome_status":{"category":"Status update unavailable","date":"2019-09"},"persistent_id":"81877520f1e9949434a01246a789668a0b5ec995cfa8fb1bd24d54374e3b6fe3","id":74324174,"location_subtype":"","month":"2019-05"},{"category":"other-theft","location_type":"Force","location":{"latitude":"51.583674","street":{"id":977124,"name":"On or near Cedar Close"},"longitude":"0.170771"},"context":"","outcome_status":{"category":"Status update unavailable","date":"2019-09"},"persistent_id":"6321a5f25cc221e881cd415ca11fc22685f3695071b177072015917b198f3c19","id":74324193,"location_subtype":"","month":"2019-05"},{"category":"other-theft","location_type":"Force","location":{"latitude":"51.586278","street":{"id":977098,"name":"On or near North Street"},"longitude":"0.172887"},"context":"","outcome_status":{"category":"Status update unavailable","date":"2019-09"},"persistent_id":"06c41e7d24f1335abc683cbf11c9e364ee18ea41a9c1957e3b5950e2466dbfb4","id":74331077,"location_subtype":"","month":"2019-05"},{"category":"other-theft","location_type":"Force","location":{"latitude":"51.569974","street":{"id":976360,"name":"On or near Danes Road"},"longitude":"0.165601"},"context":"","outcome_status":{"category":"Status update unavailable","date":"2019-09"},"persistent_id":"24ecab67d2fdbe965c68234e120ce1d6ee464ac158d66f0bfd1a3d83a72ba174","id":74362978,"location_subtype":"","month":"2019-05"},{"category":"other-theft","location_type":"Force","location":{"latitude":"51.578657","street":{"id":976460,"name":"On or near Angel Way"},"longitude":"0.178947"},"context":"","outcome_status":{"category":"Status update unavailable","date":"2019-09"},"persistent_id":"01142085b23714a54923d125ffce653f009fe1783506d0ed67e13367ccc73083","id":74330902,"location_subtype":"","month":"2019-05"},{"category":"other-theft","location_type":"Force","location":{"latitude":"51.563216","street":{"id":970570,"name":"On or near Edison Close"},"longitude":"0.184773"},"context":"","outcome_status":{"category":"Status update unavailable","date":"2019-09"},"persistent_id":"3c97ee4c3a902742ab9daa42815991aa0a05637fc06239ef38794066e815070a","id":74359147,"location_subtype":"","month":"2019-05"},{"category":"other-theft","location_type":"Force","location":{"latitude":"51.575316","street":{"id":976464,"name":"On or near Nightclub"},"longitude":"0.182611"},"context":"","outcome_status":{"category":"Status update unavailable","date":"2019-09"},"persistent_id":"99a25127497583f9d55964633737788571a1ef65cdef5f6fc806cc21caf34868","id":74325036,"location_subtype":"","month":"2019-05"},{"category":"other-theft","location_type":"Force","location":{"latitude":"51.564936","street":{"id":970501,"name":"On or near Hornchurch Road"},"longitude":"0.200035"},"context":"","outcome_status":{"category":"Status update unavailable","date":"2019-09"},"persistent_id":"b3508a4844133878e8601b5f59393b802469a7072694040b9543d1eb3c1851ca","id":74353860,"location_subtype":"","month":"2019-05"},{"category":"other-theft","location_type":"Force","location":{"latitude":"51.576092","street":{"id":976456,"name":"On or near Exchange Street"},"longitude":"0.181494"},"context":"","outcome_status":{"category":"Status update unavailable","date":"2019-09"},"persistent_id":"2a60c972a03f615e854200b70b585c7f91795dad879af5e0ca891ab8d2c04773","id":74329883,"location_subtype":"","month":"2019-05"},{"category":"other-theft","location_type":"Force","location":{"latitude":"51.576654","street":{"id":976463,"name":"On or near Nightclub"},"longitude":"0.181247"},"context":"","outcome_status":{"category":"Status update unavailable","date":"2019-09"},"persistent_id":"f89ed2ba9d4edbb1b3587204b647436a968cbafe776df1d2d8adce760cc79e29","id":74356791,"location_subtype":"","month":"2019-05"},{"category":"other-theft","location_type":"Force","location":{"latitude":"51.580345","street":{"id":977062,"name":"On or near Dolphin Approach"},"longitude":"0.186822"},"context":"","outcome_status":{"category":"Status update unavailable","date":"2019-09"},"persistent_id":"8015852fbc3ca71b009ec03ac13485ab1a7f470e8a87e1d7eab788203891c161","id":74357711,"location_subtype":"","month":"2019-05"},{"category":"other-theft","location_type":"Force","location":{"latitude":"51.578943","street":{"id":976475,"name":"On or near Shopping Area"},"longitude":"0.182901"},"context":"","outcome_status":{"category":"Status update unavailable","date":"2019-09"},"persistent_id":"c498f47b8aaadc5a2bafedc9612bd9c073c52ed24933e3ebe0df9f54b6316a74","id":74328853,"location_subtype":"","month":"2019-05"},{"category":"other-theft","location_type":"Force","location":{"latitude":"51.575797","street":{"id":976470,"name":"On or near Further\/higher Educational Building"},"longitude":"0.183313"},"context":"","outcome_status":{"category":"Status update unavailable","date":"2019-09"},"persistent_id":"0701b217dde8c31067f3f006dc39f9436814dfd655b462e8b282ff87dadfdd8b","id":74328809,"location_subtype":"","month":"2019-05"},{"category":"other-theft","location_type":"Force","location":{"latitude":"51.576092","street":{"id":976456,"name":"On or near Exchange Street"},"longitude":"0.181494"},"context":"","outcome_status":{"category":"Status update unavailable","date":"2019-09"},"persistent_id":"f20ff8f9386bea73464162138fe2106e7c0ab72b63c5f7b6111113f932a0b2f8","id":74356351,"location_subtype":"","month":"2019-05"},{"category":"other-theft","location_type":"Force","location":{"latitude":"51.565430","street":{"id":970446,"name":"On or near Hornchurch Road"},"longitude":"0.196726"},"context":"","outcome_status":{"category":"Status update unavailable","date":"2019-09"},"persistent_id":"f4b1bc7671bb61a54efa4f1306d3dcc6a362b83076d86e994f1c87497fee0945","id":74312385,"location_subtype":"","month":"2019-05"},{"category":"other-theft","location_type":"Force","location":{"latitude":"51.564936","street":{"id":970501,"name":"On or near Hornchurch Road"},"longitude":"0.200035"},"context":"","outcome_status":{"category":"Status update unavailable","date":"2019-09"},"persistent_id":"a0abbf46c1bf985cdf60c31294e6b0bcd71d648365c172e5083bb73d35e9e2ab","id":74328780,"location_subtype":"","month":"2019-05"},{"category":"other-theft","location_type":"Force","location":{"latitude":"51.579093","street":{"id":976473,"name":"On or near Pedestrian Subway"},"longitude":"0.184539"},"context":"","outcome_status":{"category":"Status update unavailable","date":"2019-09"},"persistent_id":"8fe11db64fcd5ceb9da29f5398827557a0675962479ae2120e2ce8b336c75c68","id":74325745,"location_subtype":"","month":"2019-05"},{"category":"other-theft","location_type":"Force","location":{"latitude":"51.570931","street":{"id":976457,"name":"On or near Davidson Way"},"longitude":"0.183354"},"context":"","outcome_status":{"category":"Status update unavailable","date":"2019-09"},"persistent_id":"a682e8a34151fc063165a11b6e7b5e2b335dca2bef96c3167dcbe51d4e8c4059","id":74325746,"location_subtype":"","month":"2019-05"},{"category":"other-theft","location_type":"Force","location":{"latitude":"51.577645","street":{"id":976454,"name":"On or near High Street"},"longitude":"0.178754"},"context":"","outcome_status":{"category":"Status update unavailable","date":"2019-09"},"persistent_id":"d24e60902763f94e0e27e7df03164f06aa243aaef6d5d94441825ce9eda8af55","id":74346950,"location_subtype":"","month":"2019-05"},{"category":"other-theft","location_type":"Force","location":{"latitude":"51.565627","street":{"id":970572,"name":"On or near Supermarket"},"longitude":"0.191974"},"context":"","outcome_status":{"category":"Status update unavailable","date":"2019-09"},"persistent_id":"71600045bd4832ad45bed63f392dc8fd0832d20b740b73c20c021be5a7811060","id":74305690,"location_subtype":"","month":"2019-05"},{"category":"other-theft","location_type":"Force","location":{"latitude":"51.569183","street":{"id":976408,"name":"On or near Lyon Road"},"longitude":"0.187888"},"context":"","outcome_status":{"category":"Status update unavailable","date":"2019-09"},"persistent_id":"7a0a0a3c3f3baf46f5c87c8b96622ce987f7db6b4bb37062a1cf0c0e63c61006","id":74361215,"location_subtype":"","month":"2019-05"},{"category":"other-theft","location_type":"Force","location":{"latitude":"51.576989","street":{"id":976468,"name":"On or near Shopping Area"},"longitude":"0.180137"},"context":"","outcome_status":{"category":"Status update unavailable","date":"2019-09"},"persistent_id":"17e1e075292ae6475475e7d49fa66acea4faf2036479e015c9b074e26dd188de","id":74346951,"location_subtype":"","month":"2019-05"},{"category":"other-theft","location_type":"Force","location":{"latitude":"51.577473","street":{"id":976466,"name":"On or near Shopping Area"},"longitude":"0.182166"},"context":"","outcome_status":{"category":"Status update unavailable","date":"2019-09"},"persistent_id":"daf2dccca71337cd47ecaeba32b9baa4ec34e027f479ffe278362d3013f411d4","id":74347543,"location_subtype":"","month":"2019-05"},{"category":"other-theft","location_type":"Force","location":{"latitude":"51.565019","street":{"id":970559,"name":"On or near Upper Rainham Road"},"longitude":"0.188380"},"context":"","outcome_status":{"category":"Status update unavailable","date":"2019-09"},"persistent_id":"edb35736b02576c4a980c7885a81db0d59a7b920833b884cf780a04c4b0eb0f7","id":74327001,"location_subtype":"","month":"2019-05"},{"category":"other-theft","location_type":"Force","location":{"latitude":"51.565627","street":{"id":970572,"name":"On or near Supermarket"},"longitude":"0.191974"},"context":"","outcome_status":{"category":"Status update unavailable","date":"2019-09"},"persistent_id":"325dd717ae9c9d9a8f76da0c973c60f2e5fdd950a6ea69f7779b8f1d2c0f6ed2","id":74326713,"location_subtype":"","month":"2019-05"},