[{"category":"anti-social-behaviour","location_type":"Force","location":{"latitude":"51.411091","street":{"id":933226,"name":"On or near The Rush"},"longitude":"-0.208493"},"context":"","outcome_status":null,"persistent_id":"","id":74272628,"location_subtype":"","month":"2019-05"},{"category":"anti-social-behaviour","location_type":"Force","location":{"latitude":"51.420495","street":{"id":934563,"name":"On or near Ridgway"},"longitude":"-0.221932"},"context":"","outcome_status":null,"persistent_id":"","id":74273105,"location_subtype":"","month":"2019-05"},{"category":"anti-social-behaviour","location_type":"Force","location":{"latitude":"51.420495","street":{"id":934563,"name":"On or near Ridgway"},"longitude":"-0.221932"},"context":"","outcome_status":null,"persistent_id":"","id":74273106,"location_subtype":"","month":"2019-05"},{"category":"anti-social-behaviour","location_type":"Force","location":{"latitude":"51.411669","street":{"id":933322,"name":"On or near Worple Road"},"longitude":"-0.225208"},"context":"","outcome_status":null,"persistent_id":"","id":74273113,"location_subtype":"","month":"2019-05"},{"category":"anti-social-behaviour","location_type":"Force","location":{"latitude":"51.411669","street":{"id":933322,"name":"On or near Worple Road"},"longitude":"-0.225208"},"context":"","outcome_status":null,"persistent_id":"","id":74273114,"location_subtype":"","month":"2019-05"},{"category":"anti-social-behaviour","location_type":"Force","location":{"latitude":"51.399631","street":{"id":930153,"name":"On or near Meadow Close"},"longitude":"-0.227184"},"context":"","outcome_status":null,"persistent_id":"","id":74273115,"location_subtype":"","month":"2019-05"},{"category":"anti-social-behaviour","location_type":"Force","location":{"latitude":"51.402688","street":{"id":933399,"name":"On or near Cannon Close"},"longitude":"-0.228345"},"context":"","outcome_status":null,"persistent_id":"","id":74273116,"location_subtype":"","month":"2019-05"},{"category":"anti-social-behaviour","location_type":"Force","location":{"latitude":"51.411036","street":{"id":933338,"name":"On or near Petrol Station"},"longitude":"-0.227951"},"context":"","outcome_status":null,"persistent_id":"","id":74273117,"location_subtype":"","month":"2019-05"},{"category":"anti-social-behaviour","location_type":"Force","location":{"latitude":"51.402560","street":{"id":933403,"name":"On or near Hospital"},"longitude":"-0.228796"},"context":"","outcome_status":null,"persistent_id":"","id":74273118,"location_subtype":"","month":"2019-05"},{"category":"anti-social-behaviour","location_type":"Force","location":{"latitude":"51.397615","street":{"id":930137,"name":"On or near Meadowsweet Close"},"longitude":"-0.229490"},"context":"","outcome_status":null,"persistent_id":"","id":74273119,"location_subtype":"","month":"2019-05"},{"category":"anti-social-behaviour","location_type":"Force","location":{"latitude":"51.409936","street":{"id":933359,"name":"On or near Hospital"},"longitude":"-0.232508"},"context":"","outcome_status":null,"persistent_id":"","id":74273120,"location_subtype":"","month":"2019-05"},{"category":"anti-social-behaviour","location_type":"Force","location":{"latitude":"51.411106","street":{"id":933357,"name":"On or near Amity Grove"},"longitude":"-0.232003"},"context":"","outcome_status":null,"persistent_id":"","id":74273122,"location_subtype":"","month":"2019-05"},{"category":"anti-social-behaviour","location_type":"Force","location":{"latitude":"51.412542","street":{"id":933355,"name":"On or near Durham Road"},"longitude":"-0.233601"},"context":"","outcome_status":null,"persistent_id":"","id":74273123,"location_subtype":"","month":"2019-05"},{"category":"anti-social-behaviour","location_type":"Force","location":{"latitude":"51.412542","street":{"id":933355,"name":"On or near Durham Road"},"longitude":"-0.233601"},"context":"","outcome_status":null,"persistent_id":"","id":74273124,"location_subtype":"","month":"2019-05"},{"category":"anti-social-behaviour","location_type":"Force","location":{"latitude":"51.411106","street":{"id":933357,"name":"On or near Amity Grove"},"longitude":"-0.232003"},"context":"","outcome_status":null,"persistent_id":"","id":74273125,"location_subtype":"","month":"2019-05"},{"category":"anti-social-behaviour","location_type":"Force","location":{"latitude":"51.408936","street":{"id":933339,"name":"On or near Parking Area"},"longitude":"-0.233611"},"context":"","outcome_status":null,"persistent_id":"","id":74273126,"location_subtype":"","month":"2019-05"},{"category":"anti-social-behaviour","location_type":"Force","location":{"latitude":"51.399523","street":{"id":930178,"name":"On or near Estella Avenue"},"longitude":"-0.235541"},"context":"","outcome_status":null,"persistent_id":"","id":74273127,"location_subtype":"","month":"2019-05"},{"category":"anti-social-behaviour","location_type":"Force","location":{"latitude":"51.400982","street":{"id":930036,"name":"On or near Petrol Station"},"longitude":"-0.241034"},"context":"","outcome_status":null,"persistent_id":"","id":74273129,"location_subtype":"","month":"2019-05"},{"category":"anti-social-behaviour","location_type":"Force","location":{"latitude":"51.411521","street":{"id":933446,"name":"On or near Richmond Road"},"longitude":"-0.236833"},"context":"","outcome_status":null,"persistent_id":"","id":74273131,"location_subtype":"","month":"2019-05"},{"category":"anti-social-behaviour","location_type":"Force","location":{"latitude":"51.398404","street":{"id":930026,"name":"On or near Cavendish Avenue"},"longitude":"-0.240069"},"context":"","outcome_status":null,"persistent_id":"","id":74273132,"location_subtype":"","month":"2019-05"},{"category":"anti-social-behaviour","location_type":"Force","location":{"latitude":"51.398404","street":{"id":930026,"name":"On or near Cavendish Avenue"},"longitude":"-0.240069"},"context":"","outcome_status":null,"persistent_id":"","id":74273133,"location_subtype":"","month":"2019-05"},{"category":"anti-social-behaviour","location_type":"Force","location":{"latitude":"51.398404","street":{"id":930026,"name":"On or near Cavendish Avenue"},"longitude":"-0.240069"},"context":"","outcome_status":null,"persistent_id":"","id":74273134,"location_subtype":"","month":"2019-05"},{"category":"anti-social-behaviour","location_type":"Force","location":{"latitude":"51.398404","street":{"id":930026,"name":"On or near Cavendish Avenue"},"longitude":"-0.240069"},"context":"","outcome_status":null,"persistent_id":"","id":74273135,"location_subtype":"","month":"2019-05"},{"category":"anti-social-behaviour","location_type":"Force","location":{"latitude":"51.411034","street":{"id":933454,"name":"On or near Coombe Lane"},"longitude":"-0.239153"},"context":"","outcome_status":null,"persistent_id":"","id":74273136,"location_subtype":"","month":"2019-05"},{"category":"anti-social-behaviour","location_type":"Force","location":{"latitude":"51.406348","street":{"id":933448,"name":"On or near Petworth Gardens"},"longitude":"-0.239074"},"context":"","outcome_status":null,"persistent_id":"","id":74273137,"location_subtype":"","month":"2019-05"},{"category":"anti-social-behaviour","location_type":"Force","location":{"latitude":"51.413470","street":{"id":933457,"name":"On or near Cambridge Close"},"longitude":"-0.238527"},"context":"","outcome_status":null,"persistent_id":"","id":74273138,"location_subtype":"","month":"2019-05"},{"category":"anti-social-behaviour","location_type":"Force","location":{"latitude":"51.413470","street":{"id":933457,"name":"On or near Cambridge Close"},"longitude":"-0.238527"},"context":"","outcome_status":null,"persistent_id":"","id":74273139,"location_subtype":"","month":"2019-05"},{"category":"anti-social-behaviour","location_type":"Force","location":{"latitude":"51.406549","street":{"id":933443,"name":"On or near Stourhead Gardens"},"longitude":"-0.241079"},"context":"","outcome_status":null,"persistent_id":"","id":74273140,"location_subtype":"","month":"2019-05"},{"category":"anti-social-behaviour","location_type":"Force","location":{"latitude":"51.406549","street":{"id":933443,"name":"On or near Stourhead Gardens"},"longitude":"-0.241079"},"context":"","outcome_status":null,"persistent_id":"","id":74273141,"location_subtype":"","month":"2019-05"},{"category":"anti-social-behaviour","location_type":"Force","location":{"latitude":"51.398134","street":{"id":930021,"name":"On or near Errol Gardens"},"longitude":"-0.242451"},"context":"","outcome_status":null,"persistent_id":"","id":74273142,"location_subtype":"","month":"2019-05"},{"category":"anti-social-behaviour","location_type":"Force","location":{"latitude":"51.413629","street":{"id":933429,"name":"On or near Coombe Lane"},"longitude":"-0.246689"},"context":"","outcome_status":null,"persistent_id":"","id":74273143,"location_subtype":"","month":"2019-05"},{"category":"anti-social-behaviour","location_type":"Force","location":{"latitude":"51.410293","street":{"id":933435,"name":"On or near Beverley Way (kingston By Pass)"},"longitude":"-0.246098"},"context":"","outcome_status":null,"persistent_id":"","id":74273144,"location_subtype":"","month":"2019-05"},{"category":"anti-social-behaviour","location_type":"Force","location":{"latitude":"51.410293","street":{"id":933435,"name":"On or near Beverley Way (kingston By Pass)"},"longitude":"-0.246098"},"context":"","outcome_status":null,"persistent_id":"","id":74273145,"location_subtype":"","month":"2019-05"},{"category":"anti-social-behaviour","location_type":"Force","location":{"latitude":"51.410293","street":{"id":933435,"name":"On or near Beverley Way (kingston By Pass)"},"longitude":"-0.246098"},"context":"","outcome_status":null,"persistent_id":"","id":74273146,"location_subtype":"","month":"2019-05"},{"category":"anti-social-behaviour","location_type":"Force","location":{"latitude":"51.403610","street":{"id":933480,"name":"On or near Park View"},"longitude":"-0.247805"},"context":"","outcome_status":null,"persistent_id":"","id":74273147,"location_subtype":"","month":"2019-05"},{"category":"anti-social-behaviour","location_type":"Force","location":{"latitude":"51.409313","street":{"id":933384,"name":"On or near Chestnut Road"},"longitude":"-0.219275"},"context":"","outcome_status":null,"persistent_id":"","id":74285667,"location_subtype":"","month":"2019-05"},{"category":"anti-social-behaviour","location_type":"Force","location":{"latitude":"51.409313","street":{"id":933384,"name":"On or near Chestnut Road"},"longitude":"-0.219275"},"context":"","outcome_status":null,"persistent_id":"","id":74285666,"location_subtype":"","month":"2019-05"},{"category":"anti-social-behaviour","location_type":"Force","location":{"latitude":"51.409936","street":{"id":933359,"name":"On or near Hospital"},"longitude":"-0.232508"},"context":"","outcome_status":null,"persistent_id":"","id":74273121,"location_subtype":"","month":"2019-05"},{"category":"anti-social-behaviour","location_type":"Force","location":{"latitude":"51.411091","street":{"id":933226,"name":"On or near The Rush"},"longitude":"-0.208493"},"context":"","outcome_status":null,"persistent_id":"","id":74272629,"location_subtype":"","month":"2019-05"},{"category":"anti-social-behaviour","location_type":"Force","location":{"latitude":"51.411568","street":{"id":933234,"name":"On or near Merton Hall Road"},"longitude":"-0.209725"},"context":"","outcome_status":null,"persistent_id":"","id":74272630,"location_subtype":"","month":"2019-05"},{"category":"anti-social-behaviour","location_type":"Force","location":{"latitude":"51.414281","street":{"id":934764,"name":"On or near Avebury Road"},"longitude":"-0.209519"},"context":"","outcome_status":null,"persistent_id":"","id":74272635,"location_subtype":"","month":"2019-05"},{"category":"anti-social-behaviour","location_type":"Force","location":{"latitude":"51.403843","street":{"id":933316,"name":"On or near Beaford Grove"},"longitude":"-0.210889"},"context":"","outcome_status":null,"persistent_id":"","id":74272637,"location_subtype":"","month":"2019-05"},{"category":"anti-social-behaviour","location_type":"Force","location":{"latitude":"51.407541","street":{"id":933224,"name":"On or near Whatley Avenue"},"longitude":"-0.211608"},"context":"","outcome_status":null,"persistent_id":"","id":74272638,"location_subtype":"","month":"2019-05"},{"category":"anti-social-behaviour","location_type":"Force","location":{"latitude":"51.407541","street":{"id":933224,"name":"On or near Whatley Avenue"},"longitude":"-0.211608"},"context":"","outcome_status":null,"persistent_id":"","id":74273075,"location_subtype":"","month":"2019-05"},{"category":"anti-social-behaviour","location_type":"Force","location":{"latitude":"51.407541","street":{"id":933224,"name":"On or near Whatley Avenue"},"longitude":"-0.211608"},"context":"","outcome_status":null,"persistent_id":"","id":74273076,"location_subtype":"","month":"2019-05"},{"category":"anti-social-behaviour","location_type":"Force","location":{"latitude":"51.407541","street":{"id":933224,"name":"On or near Whatley Avenue"},"longitude":"-0.211608"},"context":"","outcome_status":null,"persistent_id":"","id":74273077,"location_subtype":"","month":"2019-05"},{"category":"anti-social-behaviour","location_type":"Force","location":{"latitude":"51.409214","street":{"id":933259,"name":"On or near Supermarket"},"longitude":"-0.212779"},"context":"","outcome_status":null,"persistent_id":"","id":74273080,"location_subtype":"","month":"2019-05"},{"category":"anti-social-behaviour","location_type":"Force","location":{"latitude":"51.409214","street":{"id":933259,"name":"On or near Supermarket"},"longitude":"-0.212779"},"context":"","outcome_status":null,"persistent_id":"","id":74273081,"location_subtype":"","month":"2019-05"},{"category":"anti-social-behaviour","location_type":"Force","location":{"latitude":"51.409214","street":{"id":933259,"name":"On or near Supermarket"},"longitude":"-0.212779"},"context":"","outcome_status":null,"persistent_id":"","id":74273082,"location_subtype":"","month":"2019-05"},{"category":"anti-social-behaviour","location_type":"Force","location":{"latitude":"51.414160","street":{"id":934763,"name":"On or near Braeside Avenue"},"longitude":"-0.212802"},"context":"","outcome_status":null,"persistent_id":"","id":74273084,"location_subtype":"","month":"2019-05"},{"category":"anti-social-behaviour","location_type":"Force","location":{"latitude":"51.401692","street":{"id":933393,"name":"On or near North Close"},"longitude":"-0.214898"},"context":"","outcome_status":null,"persistent_id":"","id":74273088,"location_subtype":"","month":"2019-05"},{"category":"anti-social-behaviour","location_type":"Force","location":{"latitude":"51.401692","street":{"id":933393,"name":"On or near North Close"},"longitude":"-0.214898"},"context":"","outcome_status":null,"persistent_id":"","id":74273089,"location_subtype":"","month":"2019-05"},{"category":"anti-social-behaviour","location_type":"Force","location":{"latitude":"51.401692","street":{"id":933393,"name":"On or near North Close"},"longitude":"-0.214898"},"context":"","outcome_status":null,"persistent_id":"","id":74273090,"location_subtype":"","month":"2019-05"},{"category":"anti-social-behaviour","location_type":"Force","location":{"latitude":"51.416290","street":{"id":934652,"name":"On or near Nursery Road"},"longitude":"-0.216832"},"context":"","outcome_status":null,"persistent_id":"","id":74273092,"location_subtype":"","month":"2019-05"},{"category":"anti-social-behaviour","location_type":"Force","location":{"latitude":"51.416290","street":{"id":934652,"name":"On or near Nursery Road"},"longitude":"-0.216832"},"context":"","outcome_status":null,"persistent_id":"","id":74273093,"location_subtype":"","month":"2019-05"},{"category":"anti-social-behaviour","location_type":"Force","location":{"latitude":"51.399700","street":{"id":930132,"name":"On or near The Green"},"longitude":"-0.216902"},"context":"","outcome_status":null,"persistent_id":"","id":74273095,"location_subtype":"","month":"2019-05"},{"category":"anti-social-behaviour","location_type":"Force","location":{"latitude":"51.399700","street":{"id":930132,"name":"On or near The Green"},"longitude":"-0.216902"},"context":"","outcome_status":null,"persistent_id":"","id":74273096,"location_subtype":"","month":"2019-05"},{"category":"anti-social-behaviour","location_type":"Force","location":{"latitude":"51.399700","street":{"id":930132,"name":"On or near The Green"},"longitude":"-0.216902"},"context":"","outcome_status":null,"persistent_id":"","id":74273097,"location_subtype":"","month":"2019-05"},{"category":"anti-social-behaviour","location_type":"Force","location":{"latitude":"51.416290","street":{"id":934652,"name":"On or near Nursery Road"},"longitude":"-0.216832"},"context":"","outcome_status":null,"persistent_id":"","id":74273098,"location_subtype":"","month":"2019-05"},{"category":"anti-social-behaviour","location_type":"Force","location":{"latitude":"51.409495","street":{"id":933389,"name":"On or near Bronson Road"},"longitude":"-0.218247"},"context":"","outcome_status":null,"persistent_id":"","id":74273099,"location_subtype":"","month":"2019-05"},{"category":"anti-social-behaviour","location_type":"Force","location":{"latitude":"51.420771","street":{"id":934585,"name":"On or near Corbiere Court"},"longitude":"-0.219966"},"context":"","outcome_status":null,"persistent_id":"","id":74273101,"location_subtype":"","month":"2019-05"},{"category":"bicycle-theft","location_type":"Force","location":{"latitude":"51.408465","street":{"id":933324,"name":"On or near Prince George's Avenue"},"longitude":"-0.226253"},"context":"","outcome_status":{"category":"Status update unavailable","date":"2019-09"},"persistent_id":"62b4b6e6185ef3ed3e33a72b2847c534a3b8577ddb73f01376e50bc28b459b25","id":74321896,"location_subtype":"","month":"2019-05"},{"category":"bicycle-theft","location_type":"Force","location":{"latitude":"51.409936","street":{"id":933359,"name":"On or near Hospital"},"longitude":"-0.232508"},"context":"","outcome_status":{"category":"Status update unavailable","date":"2019-09"},"persistent_id":"94bac694dc926f92f83ae65d333b073825ba48b5cf59f25e8d9cd77ab361ffdd","id":74361891,"location_subtype":"","month":"2019-05"},{"category":"bicycle-theft","location_type":"Force","location":{"latitude":"51.409214","street":{"id":933259,"name":"On or near Supermarket"},"longitude":"-0.212779"},"context":"","outcome_status":{"category":"Status update unavailable","date":"2019-09"},"persistent_id":"ee0918803411fb56f215172b6490463962bdb21d694e0471f4ac7aea1d93ba96","id":74343080,"location_subtype":"","month":"2019-05"},{"category":"burglary","location_type":"Force","location":{"latitude":"51.413274","street":{"id":933232,"name":"On or near Rayleigh Road"},"longitude":"-0.209543"},"context":"","outcome_status":{"category":"Status update unavailable","date":"2019-09"},"persistent_id":"ece5fc1cf0bb6dfd29dab5d7634609cbb5af4abe099521da01ec2b0c72b1c5ed","id":74310366,"location_subtype":"","month":"2019-05"},{"category":"burglary","location_type":"Force","location":{"latitude":"51.406209","street":{"id":933363,"name":"On or near Whatley Avenue"},"longitude":"-0.216793"},"context":"","outcome_status":{"category":"Status update unavailable","date":"2019-09"},"persistent_id":"8a1b6b4ad5f6f7f2d536e1db1fdf44b61d11aae070a4c3132ce3583a24ab3eb0","id":74314987,"location_subtype":"","month":"2019-05"},{"category":"burglary","location_type":"Force","location":{"latitude":"51.419455","street":{"id":934611,"name":"On or near Sports\/recreation Area"},"longitude":"-0.225123"},"context":"","outcome_status":{"category":"Status update unavailable","date":"2019-09"},"persistent_id":"ae22013a446fcdb532b3b5fd71771924c6f6e7f2e816d5ec6fb566dacb51d507","id":74333464,"location_subtype":"","month":"2019-05"},{"category":"burglary","location_type":"Force","location":{"latitude":"51.413751","street":{"id":933452,"name":"On or near Laurel Road"},"longitude":"-0.239249"},"context":"","outcome_status":{"category":"Status update unavailable","date":"2019-09"},"persistent_id":"91d5dd502c34afcee60c9c1b782d676e6b9fdfb0b6a8ad24e16ba9e7b1bcc5d9","id":74306228,"location_subtype":"","month":"2019-05"},{"category":"burglary","location_type":"Force","location":{"latitude":"51.409874","street":{"id":933239,"name":"On or near Manor Gardens"},"longitude":"-0.208900"},"context":"","outcome_status":{"category":"Status update unavailable","date":"2019-09"},"persistent_id":"81f8b33034324ef635735f0226d14405646b67dbf77f2e94d3042cd4d260936a","id":74323583,"location_subtype":"","month":"2019-05"},{"category":"burglary","location_type":"Force","location":{"latitude":"51.410198","street":{"id":933321,"name":"On or near Wyke Road"},"longitude":"-0.226646"},"context":"","outcome_status":{"category":"Status update unavailable","date":"2019-09"},"persistent_id":"92cb1298e8f759cb120e6993b974394809cddd74d3e4fe37cfd54ee7d921b1cb","id":74348360,"location_subtype":"","month":"2019-05"},{"category":"burglary","location_type":"Force","location":{"latitude":"51.403457","street":{"id":933317,"name":"On or near Petrol Station"},"longitude":"-0.213823"},"context":"","outcome_status":{"category":"Status update unavailable","date":"2019-09"},"persistent_id":"c94beb535d7a3a2b6ec81d4f531a2e391a04f7995fade417ca3a7d0862219223","id":74305171,"location_subtype":"","month":"2019-05"},{"category":"burglary","location_type":"Force","location":{"latitude":"51.401401","street":{"id":933309,"name":"On or near Westcroft Gardens"},"longitude":"-0.211143"},"context":"","outcome_status":{"category":"Status update unavailable","date":"2019-09"},"persistent_id":"8f048b8867bdb0681b3499caab7cbd634c6c80ab516239d0c5ef6e31fca0a0af","id":74298364,"location_subtype":"","month":"2019-05"},{"category":"burglary","location_type":"Force","location":{"latitude":"51.418314","street":{"id":934544,"name":"On or near Copse Hill"},"longitude":"-0.238283"},"context":"","outcome_status":{"category":"Status update unavailable","date":"2019-09"},"persistent_id":"5867bf24ba0f85b3634381bf3927b11a38d68b70a01e96dffe43dcf55e650adc","id":74348122,"location_subtype":"","month":"2019-05"},{"category":"burglary","location_type":"Force","location":{"latitude":"51.399700","street":{"id":930132,"name":"On or near The Green"},"longitude":"-0.216902"},"context":"","outcome_status":{"category":"Status update unavailable","date":"2019-09"},"persistent_id":"37a8e5b5fc3b1622eb044805ce91b7affd6984c57827632adaebeaf2d534a952","id":74291363,"location_subtype":"","month":"2019-05"},{"category":"burglary","location_type":"Force","location":{"latitude":"51.418299","street":{"id":934630,"name":"On or near Copse Hill"},"longitude":"-0.229568"},"context":"","outcome_status":{"category":"Status update unavailable","date":"2019-09"},"persistent_id":"323a3d008a84c02ecfaa21813acc432a2277a6ed59aedfe668895a4ae880ec16","id":74333963,"location_subtype":"","month":"2019-05"},{"category":"burglary","location_type":"Force","location":{"latitude":"51.413336","street":{"id":933434,"name":"On or near Beverley Way (kingston By Pass)"},"longitude":"-0.249936"},"context":"","outcome_status":{"category":"Status update unavailable","date":"2019-09"},"persistent_id":"e53a488f4512cfa7a1d2da43a8657be4c62c14e2423f3209054797e129c36fad","id":74333664,"location_subtype":"","month":"2019-05"},{"category":"burglary","location_type":"Force","location":{"latitude":"51.403713","street":{"id":933313,"name":"On or near Martin Way"},"longitude":"-0.213554"},"context":"","outcome_status":{"category":"Status update unavailable","date":"2019-09"},"persistent_id":"331701b57a6574f2ad7bbdaeaf7092bcbadd3d43846af8857f3872a667177c45","id":74297974,"location_subtype":"","month":"2019-05"},{"category":"burglary","location_type":"Force","location":{"latitude":"51.418641","street":{"id":934716,"name":"On or near Spencer Hill Road"},"longitude":"-0.212397"},"context":"","outcome_status":{"category":"Status update unavailable","date":"2019-09"},"persistent_id":"b753d8f2faafa7794995640ff733ab8d987ab48925ea52f77b751958d93ed94e","id":74301942,"location_subtype":"","month":"2019-05"},{"category":"burglary","location_type":"Force","location":{"latitude":"51.406549","street":{"id":933443,"name":"On or near Stourhead Gardens"},"longitude":"-0.241079"},"context":"","outcome_status":{"category":"Status update unavailable","date":"2019-09"},"persistent_id":"e73dbbde5c585a6eb203083658ceb2a9bf78fd1cf420ac8008e2c1a7c9fed50e","id":74358823,"location_subtype":"","month":"2019-05"},{"category":"burglary","location_type":"Force","location":{"latitude":"51.413336","street":{"id":933434,"name":"On or near Beverley Way (kingston By Pass)"},"longitude":"-0.249936"},"context":"","outcome_status":{"category":"Status update unavailable","date":"2019-09"},"persistent_id":"b1444575a828b20d3661f9d2f0b33f5c1fc4c5c8dba999d25600342f069c2e79","id":74332423,"location_subtype":"","month":"2019-05"},{"category":"criminal-damage-arson","location_type":"Force","location":{"latitude":"51.408751","street":{"id":933255,"name":"On or near Petrol Station"},"longitude":"-0.214278"},"context":"","outcome_status":{"category":"Investigation complete; no suspect identified","date":"2020-03"},"persistent_id":"e481ca1883c96038e596792806ee566fdb0696ce95f8dac4171a3d5950186f5f","id":74320581,"location_subtype":"","month":"2019-05"},{"category":"criminal-damage-arson","location_type":"Force","location":{"latitude":"51.402047","street":{"id":933471,"name":"On or near Supermarket"},"longitude":"-0.239555"},"context":"","outcome_status":{"category":"Status update unavailable","date":"2019-09"},"persistent_id":"2ea8ca96794b061fe64d4acfc553b3ae2deb9b3cbe22c4c2b5ed2d89bf1a541c","id":74340931,"location_subtype":"","month":"2019-05"},{"category":"criminal-damage-arson","location_type":"Force","location":{"latitude":"51.412492","street":{"id":933368,"name":"On or near Stanton Road"},"longitude":"-0.223178"},"context":"","outcome_status":{"category":"Status update unavailable","date":"2019-09"},"persistent_id":"67bcbe4bef0d551244ebc024dac33908ebea1b2de6ca008efd19938e672f73ec","id":74309398,"location_subtype":"","month":"2019-05"},{"category":"criminal-damage-arson","location_type":"Force","location":{"latitude":"51.413159","street":{"id":933369,"name":"On or near Southdown Road"},"longitude":"-0.219701"},"context":"","outcome_status":{"category":"Status update unavailable","date":"2019-09"},"persistent_id":"ed673803f102eeb27e2ac6261cc76d86ae92bb1735ae6a7e8a2e4e141b8fc9ce","id":74314663,"location_subtype":"","month":"2019-05"},{"category":"criminal-damage-arson","location_type":"Force","location":{"latitude":"51.409874","street":{"id":933239,"name":"On or near Manor Gardens"},"longitude":"-0.208900"},"context":"","outcome_status":{"category":"Status update unavailable","date":"2019-09"},"persistent_id":"91fd2bb211238a59b7a2a69d9e3a068437128cf288a6ee360fb9922878839b1a","id":74304660,"location_subtype":"","month":"2019-05"},{"category":"criminal-damage-arson","location_type":"Force","location":{"latitude":"51.416132","street":{"id":934756,"name":"On or near William Road"},"longitude":"-0.211790"},"context":"","outcome_status":{"category":"Status update unavailable","date":"2019-09"},"persistent_id":"c3b192d38823d604736be1202a73259f6584521c2f9fed27f5e2bb61e02c4301","id":74339262,"location_subtype":"","month":"2019-05"},{"category":"criminal-damage-arson","location_type":"Force","location":{"latitude":"51.419168","street":{"id":934583,"name":"On or near Denmark Avenue"},"longitude":"-0.215699"},"context":"","outcome_status":{"category":"Offender given a caution","date":"2019-06"},"persistent_id":"2d58cb7f1b78ba2ff81b11e5f529f2aec525371a7c7142792fc44c092396213a","id":74341412,"location_subtype":"","month":"2019-05"},{"category":"criminal-damage-arson","location_type":"Force","location":{"latitude":"51.410995","street":{"id":933231,"name":"On or near Richmond Avenue"},"longitude":"-0.211631"},"context":"","outcome_status":{"category":"Investigation complete; no suspect identified","date":"2020-03"},"persistent_id":"0aca5df3b2c760d6fe6c3b4058c1a9a6849a54f53de96a1754e0b26175a61e23","id":74291628,"location_subtype":"","month":"2019-05"},{"category":"criminal-damage-arson","location_type":"Force","location":{"latitude":"51.411568","street":{"id":933234,"name":"On or near Merton Hall Road"},"longitude":"-0.209725"},"context":"","outcome_status":{"category":"Status update unavailable","date":"2019-09"},"persistent_id":"866ef85c546f2a7b79bca61e2f01edb07d2b0623991e6a0e437028c9c47260d9","id":74325180,"location_subtype":"","month":"2019-05"},{"category":"drugs","location_type":"Force","location":{"latitude":"51.408810","street":{"id":933378,"name":"On or near Edna Road"},"longitude":"-0.223507"},"context":"","outcome_status":{"category":"Local resolution","date":"2019-05"},"persistent_id":"808731958de6123631b40d6deaff63b0114944fc4b7e15aecab82c1d954d186f","id":74291332,"location_subtype":"","month":"2019-05"},{"category":"drugs","location_type":"Force","location":{"latitude":"51.411776","street":{"id":933241,"name":"On or near Kingston Road"},"longitude":"-0.208020"},"context":"","outcome_status":{"category":"Local resolution","date":"2019-05"},"persistent_id":"9dd2f90ed339648c5cb063de67ff6df89bcc30b6d37d77d310cc29e96231c9e4","id":74327967,"location_subtype":"","month":"2019-05"},{"category":"drugs","location_type":"Force","location":{"latitude":"51.418053","street":{"id":934529,"name":"On or near Barham Road"},"longitude":"-0.245484"},"context":"","outcome_status":{"category":"Court result unavailable","date":"2019-12"},"persistent_id":"ed921d7d8948cfa5828bd5cee44732fccdf8d01d425347009efb116bfb5b061c","id":74340839,"location_subtype":"","month":"2019-05"},{"category":"drugs","location_type":"Force","location":{"latitude":"51.407611","street":{"id":933372,"name":"On or near Martin Way"},"longitude":"-0.219700"},"context":"","outcome_status":{"category":"Local resolution","date":"2019-05"},"persistent_id":"e1f2f65e90dccbd293fa27ba0747415429a741bbf278d9c6ee19420eb98d9dab","id":74299014,"location_subtype":"","month":"2019-05"},{"category":"drugs","location_type":"Force","location":{"latitude":"51.406122","street":{"id":933441,"name":"On or near Pedestrian Subway"},"longitude":"-0.238407"},"context":"","outcome_status":{"category":"Court result unavailable","date":"2020-01"},"persistent_id":"b7aff94cd1f06156382588719e8db2fcb5c631e432891d45637496f5c68c69e7","id":74306773,"location_subtype":"","month":"2019-05"},{"category":"drugs","location_type":"Force","location":{"latitude":"51.409056","street":{"id":933444,"name":"On or near Somerset Avenue"},"longitude":"-0.238610"},"context":"","outcome_status":{"category":"Offender given a drugs possession warning","date":"2019-05"},"persistent_id":"b2bb4b5834d174312271c090aec2c6b3adf444d752792604bf9eda8bfd9cdf16","id":74364568,"location_subtype":"","month":"2019-05"},{"category":"other-theft","location_type":"Force","location":{"latitude":"51.420778","street":{"id":934599,"name":"On or near Dunstall Road"},"longitude":"-0.231141"},"context":"","outcome_status":{"category":"Status update unavailable","date":"2019-09"},"persistent_id":"d363b201f1c974ed9fd477b8faafd62832096768f5b8d1476515cca231391d4c","id":74310679,"location_subtype":"","month":"2019-05"},{"category":"other-theft","location_type":"Force","location":{"latitude":"51.398764","street":{"id":930033,"name":"On or near Petrol Station"},"longitude":"-0.243649"},"context":"","outcome_status":{"category":"Status update unavailable","date":"2019-09"},"persistent_id":"eefe5cb657bcf7608d4d208f00bd9b97df38e1b800c71462584775556c458cb6","id":74298699,"location_subtype":"","month":"2019-05"},{"category":"other-theft","location_type":"Force","location":{"latitude":"51.398764","street":{"id":930033,"name":"On or near Petrol Station"},"longitude":"-0.243649"},"context":"","outcome_status":{"category":"Status update unavailable","date":"2019-09"},"persistent_id":"6c2a034a3a39baf46a4ef8ceff6021c05f1481ca63603a9eb63f789fd07dd820","id":74324852,"location_subtype":"","month":"2019-05"},{"category":"other-theft","location_type":"Force","location":{"latitude":"51.398764","street":{"id":930033,"name":"On or near Petrol Station"},"longitude":"-0.243649"},"context":"","outcome_status":{"category":"Status update unavailable","date":"2019-09"},"persistent_id":"54ee0cb83f67bc01a1a8d913b2fcdba48f09efa57ef279fa38564efd72f56394","id":74327464,"location_subtype":"","month":"2019-05"},{"category":"other-theft","location_type":"Force","location":{"latitude":"51.402047","street":{"id":933471,"name":"On or near Supermarket"},"longitude":"-0.239555"},"context":"","outcome_status":{"category":"Status update unavailable","date":"2019-09"},"persistent_id":"f37babde18eab0ca424ef2fb53b79b9636f45e732bc519a829bcd9f85366e11b","id":74336057,"location_subtype":"","month":"2019-05"},{"category":"other-theft","location_type":"Force","location":{"latitude":"51.402047","street":{"id":933471,"name":"On or near Supermarket"},"longitude":"-0.239555"},"context":"","outcome_status":{"category":"Status update unavailable","date":"2019-09"},"persistent_id":"b3f0f776d748f8c2b6db8c987b2cfa0712f101669fd1d49d2df445658a0ef7e5","id":74290416,"location_subtype":"","month":"2019-05"},{"category":"other-theft","location_type":"Force","location":{"latitude":"51.414361","street":{"id":933431,"name":"On or near Coombe Lane"},"longitude":"-0.248775"},"context":"","outcome_status":{"category":"Status update unavailable","date":"2019-09"},"persistent_id":"dbb47817afb5d446e52c0a0aff494e0674b9897aa5bb376e0a53e8882a7891ed","id":74290799,"location_subtype":"","month":"2019-05"},{"category":"other-theft","location_type":"Force","location":{"latitude":"51.402047","street":{"id":933471,"name":"On or near Supermarket"},"longitude":"-0.239555"},"context":"","outcome_status":{"category":"Status update unavailable","date":"2019-09"},"persistent_id":"29765fe4832f6a4f83071b8fb24076a10852ee3c1425b932c2cc3a3da0b80943","id":74298066,"location_subtype":"","month":"2019-05"},{"category":"other-theft","location_type":"Force","location":{"latitude":"51.411106","street":{"id":933357,"name":"On or near Amity Grove"},"longitude":"-0.232003"},"context":"","outcome_status":{"category":"Status update unavailable","date":"2019-09"},"persistent_id":"9499e5d5f0a2a059ba093a7957ccb2f0fa827a2726c964c46d7591cad092f204","id":74298481,"location_subtype":"","month":"2019-05"},{"category":"other-theft","location_type":"Force","location":{"latitude":"51.402047","street":{"id":933471,"name":"On or near Supermarket"},"longitude":"-0.239555"},"context":"","outcome_status":{"category":"Status update unavailable","date":"2019-09"},"persistent_id":"06198dda3574194157b9d78063b3ca694f5023626dedbc795658d9ada9dd1b5d","id":74300986,"location_subtype":"","month":"2019-05"},{"category":"other-theft","location_type":"Force","location":{"latitude":"51.408751","street":{"id":933255,"name":"On or near Petrol Station"},"longitude":"-0.214278"},"context":"","outcome_status":{"category":"Court result unavailable","date":"2020-10"},"persistent_id":"9a598d3b5c365976a3fde7cd956f6a8f7f5fcc390f2cb96cc67ef2097990b1ac","id":74301857,"location_subtype":"","month":"2019-05"},{"category":"other-theft","location_type":"Force","location":{"latitude":"51.400411","street":{"id":930133,"name":"On or near Hillside Close"},"longitude":"-0.215164"},"context":"","outcome_status":{"category":"Status update unavailable","date":"2019-09"},"persistent_id":"cefc37793965841baf292d43de06665cd71fa799495ba5e2bef633e6ff32c732","id":74304419,"location_subtype":"","month":"2019-05"},{"category":"other-theft","location_type":"Force","location":{"latitude":"51.401068","street":{"id":930072,"name":"On or near Onslow Road"},"longitude":"-0.246824"},"context":"","outcome_status":{"category":"Status update unavailable","date":"2019-09"},"persistent_id":"5d9838913d84d8ef91a474133eabc0ec8bb1d865c294dcef2c989aaa5c12d846","id":74291963,"location_subtype":"","month":"2019-05"},{"category":"other-theft","location_type":"Force","location":{"latitude":"51.406900","street":{"id":933361,"name":"On or near Park\/open Space"},"longitude":"-0.223811"},"context":"","outcome_status":{"category":"Status update unavailable","date":"2019-09"},"persistent_id":"24a6719a29ee001d7aa8cfec667d266e02965b979e17ad5917e6820a6b576a07","id":74293241,"location_subtype":"","month":"2019-05"},{"category":"other-theft","location_type":"Force","location":{"latitude":"51.398764","street":{"id":930033,"name":"On or near Petrol Station"},"longitude":"-0.243649"},"context":"","outcome_status":{"category":"Status update unavailable","date":"2019-09"},"persistent_id":"b604b4ede4cb2206b4f52d74b30baf7a7c056c3c9111d29da9d27dcb9d5420af","id":74308158,"location_subtype":"","month":"2019-05"},{"category":"other-theft","location_type":"Force","location":{"latitude":"51.408829","street":{"id":933380,"name":"On or near Dorien Road"},"longitude":"-0.222356"},"context":"","outcome_status":{"category":"Status update unavailable","date":"2019-09"},"persistent_id":"f8d7d04fad9bfad23af21e3c7f235f550c1b5ce9e7182beb7e1bdfcba86c7674","id":74324233,"location_subtype":"","month":"2019-05"},{"category":"other-theft","location_type":"Force","location":{"latitude":"51.398764","street":{"id":930033,"name":"On or near Petrol Station"},"longitude":"-0.243649"},"context":"","outcome_status":{"category":"Investigation complete; no suspect identified","date":"2020-03"},"persistent_id":"6a2933d4d2ae971d7236419219596eca3bb7f943e3fdab6d924cdc90282bde22","id":74312237,"location_subtype":"","month":"2019-05"},{"category":"other-theft","location_type":"Force","location":{"latitude":"51.409952","street":{"id":933347,"name":"On or near Lambton Road"},"longitude":"-0.230020"},"context":"","outcome_status":{"category":"Status update unavailable","date":"2019-09"},"persistent_id":"fdbbef1acd987703dc9f73e100f37af4f05ed04b0bd8d20ea58d9bc53a3618e9","id":74325735,"location_subtype":"","month":"2019-05"},{"category":"other-theft","location_type":"Force","location":{"latitude":"51.402047","street":{"id":933471,"name":"On or near Supermarket"},"longitude":"-0.239555"},"context":"","outcome_status":{"category":"Status update unavailable","date":"2019-09"},"persistent_id":"4b91115e04ee78dd5162f374dea83cff75a38096aeec3a129eb7305101db1b4c","id":74325828,"location_subtype":"","month":"2019-05"},{"category":"other-theft","location_type":"Force","location":{"latitude":"51.409004","street":{"id":933356,"name":"On or near Approach Road"},"longitude":"-0.229136"},"context":"","outcome_status":{"category":"Status update unavailable","date":"2019-09"},"persistent_id":"75dfc5c220a1da01c32139a255abac19195be43a95bb41179dff1ab386cd3b1f","id":74316747,"location_subtype":"","month":"2019-05"},{"category":"other-theft","location_type":"Force","location":{"latitude":"51.409004","street":{"id":933356,"name":"On or near Approach Road"},"longitude":"-0.229136"},"context":"","outcome_status":{"category":"Status update unavailable","date":"2019-09"},"persistent_id":"4ecc316096c3aac03bdbcaf50956ecbd46addfc8449807116920d03fd62ad9ad","id":74314091,"location_subtype":"","month":"2019-05"},{"category":"other-theft","location_type":"Force","location":{"latitude":"51.411036","street":{"id":933338,"name":"On or near Petrol Station"},"longitude":"-0.227951"},"context":"","outcome_status":{"category":"Status update unavailable","date":"2019-09"},"persistent_id":"1739d453c7fe6cec9d6d6506652618115e06ed6daed4af8ec1fb24f282a6b357","id":74318418,"location_subtype":"","month":"2019-05"},{"category":"other-theft","location_type":"Force","location":{"latitude":"51.398764","street":{"id":930033,"name":"On or near Petrol Station"},"longitude":"-0.243649"},"context":"","outcome_status":{"category":"Status update unavailable","date":"2019-09"},"persistent_id":"23a65f38541eee0ef9024f20ff5482b0442d2f94a970d9b3b0cf681b486e7a85","id":74332139,"location_subtype":"","month":"2019-05"},{"category":"other-theft","location_type":"Force","location":{"latitude":"51.410995","street":{"id":933231,"name":"On or near Richmond Avenue"},"longitude":"-0.211631"},"context":"","outcome_status":{"category":"Status update unavailable","date":"2019-09"},"persistent_id":"1378bd9403f6eeac4f0eb40b05ebfce3d7a47d1b54768e5fb8b7aa35c66dc153","id":74333984,"location_subtype":"","month":"2019-05"},{"category":"other-theft","location_type":"Force","location":{"latitude":"51.402047","street":{"id":933471,"name":"On or near Supermarket"},"longitude":"-0.239555"},"context":"","outcome_status":{"category":"Status update unavailable","date":"2019-09"},"persistent_id":"8bdaa1448908cb27af4b89d9ffeb1966eb76934fa202c36df65aff833fea72b9","id":74334173,"location_subtype":"","month":"2019-05"},{"category":"other-theft","location_type":"Force","location":{"latitude":"51.398764","street":{"id":930033,"name":"On or near Petrol Station"},"longitude":"-0.243649"},"context":"","outcome_status":{"category":"Status update unavailable","date":"2019-09"},"persistent_id":"825b457bce17d4b2d85be37e9b75bebd7bf633eadce991ba97451d53de72478e","id":74334231,"location_subtype":"","month":"2019-05"},{"category":"other-theft","location_type":"Force","location":{"latitude":"51.402047","street":{"id":933471,"name":"On or near Supermarket"},"longitude":"-0.239555"},"context":"","outcome_status":{"category":"Status update unavailable","date":"2019-09"},"persistent_id":"9472886848724f57f3e266686b58acac6b2551b0906551d91def6dbcb73a6f98","id":74334280,"location_subtype":"","month":"2019-05"},{"category":"other-theft","location_type":"Force","location":{"latitude":"51.402941","street":{"id":933318,"name":"On or near Hospital"},"longitude":"-0.214807"},"context":"","outcome_status":{"category":"Status update unavailable","date":"2019-09"},"persistent_id":"20824ca2694c2c0550bd159a0fdad372032c5713331239d3f2dee5411dbf8558","id":74327631,"location_subtype":"","month":"2019-05"},{"category":"other-theft","location_type":"Force","location":{"latitude":"51.402047","street":{"id":933471,"name":"On or near Supermarket"},"longitude":"-0.239555"},"context":"","outcome_status":{"category":"Investigation complete; no suspect identified","date":"2020-03"},"persistent_id":"75b4db74104233f625b6a75743bd211b06c84b92ff557eb73accfd7142d3451d","id":74327784,"location_subtype":"","month":"2019-05"},{"category":"other-theft","location_type":"Force","location":{"latitude":"51.409952","street":{"id":933347,"name":"On or near Lambton Road"},"longitude":"-0.230020"},"context":"","outcome_status":{"category":"Status update unavailable","date":"2019-09"},"persistent_id":"c048823aa7d966c43fa32d65b4529d0bf3471f1a3d6099a4a9bd66abb1601ac7","id":74336319,"location_subtype":"","month":"2019-05"},{"category":"other-theft","location_type":"Force","location":{"latitude":"51.402047","street":{"id":933471,"name":"On or near Supermarket"},"longitude":"-0.239555"},"context":"","outcome_status":{"category":"Status update unavailable","date":"2019-09"},"persistent_id":"d4fcd29a76ce5d2d491f41e3a0fd4f07e2e5e55a31f625bf199f2a780341bac2","id":74336557,"location_subtype":"","month":"2019-05"},{"category":"other-theft","location_type":"Force","location":{"latitude":"51.405640","street":{"id":933244,"name":"On or near Haynt Walk"},"longitude":"-0.213695"},"context":"","outcome_status":{"category":"Status update unavailable","date":"2019-09"},"persistent_id":"fb7aaf72db6e9450fa298dec82dae77e4d2130a1dd47f99dc4c2b494d9b885a8","id":74330908,"location_subtype":"","month":"2019-05"},{"category":"other-theft","location_type":"Force","location":{"latitude":"51.402047","street":{"id":933471,"name":"On or near Supermarket"},"longitude":"-0.239555"},"context":"","outcome_status":{"category":"Status update unavailable","date":"2019-09"},"persistent_id":"da295fd17e1c17de77a4cc3476dd3908b659185c7c264a9a09cccfd81eaaf035","id":74331299,"location_subtype":"","month":"2019-05"},{"category":"other-theft","location_type":"Force","location":{"latitude":"51.402047","street":{"id":933471,"name":"On or near Supermarket"},"longitude":"-0.239555"},"context":"","outcome_status":{"category":"Status update unavailable","date":"2019-09"},"persistent_id":"63fb0605b1f6ab7c7552b419b37427dd5c927ca2197852c119fc8fadd263e6d8","id":74334519,"location_subtype":"","month":"2019-05"},{"category":"other-theft","location_type":"Force","location":{"latitude":"51.403457","street":{"id":933317,"name":"On or near Petrol Station"},"longitude":"-0.213823"},"context":"","outcome_status":{"category":"Status update unavailable","date":"2019-09"},"persistent_id":"5430b300c1171c96a38199ec67ab6fe963361c353234185da4e2944c413e4d89","id":74340643,"location_subtype":"","month":"2019-05"},{"category":"other-theft","location_type":"Force","location":{"latitude":"51.415873","street":{"id":934757,"name":"On or near Trevor Road"},"longitude":"-0.212476"},"context":"","outcome_status":{"category":"Status update unavailable","date":"2019-09"},"persistent_id":"21f8a20171d861c774d6b064774e8ba28b505c31a00e9d8f939f77a8559e89bc","id":74340797,"location_subtype":"","month":"2019-05"},{"category":"other-theft","location_type":"Force","location":{"latitude":"51.403457","street":{"id":933317,"name":"On or near Petrol Station"},"longitude":"-0.213823"},"context":"","outcome_status":{"category":"Status update unavailable","date":"2019-09"},"persistent_id":"d66530c8942acf532144bfd44f6de8a7e26953be62274af8da38bc9f2266b09b","id":74341413,"location_subtype":"","month":"2019-05"},{"category":"other-theft","location_type":"Force","location":{"latitude":"51.402047","street":{"id":933471,"name":"On or near Supermarket"},"longitude":"-0.239555"},"context":"","outcome_status":{"category":"Status update unavailable","date":"2019-09"},"persistent_id":"19c4532379804b4eb4910f0a270ab07a80d7a1a8faa54cd5be0cf4c15cb77f73","id":74341499,"location_subtype":"","month":"2019-05"},{"category":"other-theft","location_type":"Force","location":{"latitude":"51.403457","street":{"id":933317,"name":"On or near Petrol Station"},"longitude":"-0.213823"},"context":"","outcome_status":{"category":"Status update unavailable","date":"2019-09"},"persistent_id":"e23eed4ab93a3c882bec9b91b4eb8b26385d4bff7b6dc8a23f894f6870ebf88b","id":74341839,"location_subtype":"","month":"2019-05"},{"category":"other-theft","location_type":"Force","location":{"latitude":"51.403457","street":{"id":933317,"name":"On or near Petrol Station"},"longitude":"-0.213823"},"context":"","outcome_status":{"category":"Status update unavailable","date":"2019-09"},"persistent_id":"699dc651de54ba7a65554d26ada863fc05b97ab678a64c3322191682b7eeb664","id":74337560,"location_subtype":"","month":"2019-05"},{"category":"other-theft","location_type":"Force","location":{"latitude":"51.406549","street":{"id":933443,"name":"On or near Stourhead Gardens"},"longitude":"-0.241079"},"context":"","outcome_status":{"category":"Status update unavailable","date":"2019-09"},"persistent_id":"45d11d6f0def63591505f8322263b2b4f08af79d64900cdd18e4d78294d20f36","id":74345831,"location_subtype":"","month":"2019-05"},{"category":"other-theft","location_type":"Force","location":{"latitude":"51.409952","street":{"id":933347,"name":"On or near Lambton Road"},"longitude":"-0.230020"},"context":"","outcome_status":{"category":"Status update unavailable","date":"2019-09"},"persistent_id":"37723ab1ee6379a15e995da60c5282272739f39d0e0a33e633d266da1d1c9afd","id":74354006,"location_subtype":"","month":"2019-05"},{"category":"other-theft","location_type":"Force","location":{"latitude":"51.398764","street":{"id":930033,"name":"On or near Petrol Station"},"longitude":"-0.243649"},"context":"","outcome_status":{"category":"Status update unavailable","date":"2019-09"},"persistent_id":"60ccd187e7cb06aaffe888c39bef0d9bf4a2954425c8d461fba3c8c6640bdbac","id":74321672,"location_subtype":"","month":"2019-05"},{"category":"other-theft","location_type":"Force","location":{"latitude":"51.413274","street":{"id":933232,"name":"On or near Rayleigh Road"},"longitude":"-0.209543"},"context":"","outcome_status":{"category":"Status update unavailable","date":"2019-09"},"persistent_id":"cc55533afa475ce2c0a5e889db1cf7b9968c92dfaef3c97fec962b17b70e93ac","id":74347899,"location_subtype":"","month":"2019-05"},{"category":"other-theft","location_type":"Force","location":{"latitude":"51.398764","street":{"id":930033,"name":"On or near Petrol Station"},"longitude":"-0.243649"},"context":"","outcome_status":{"category":"Status update unavailable","date":"2019-09"},"persistent_id":"bd43e985db4120249d7998f5855bb66d4ba20177e3d022177f396be31d528901","id":74368287,"location_subtype":"","month":"2019-05"},{"category":"other-theft","location_type":"Force","location":{"latitude":"51.408751","street":{"id":933255,"name":"On or near Petrol Station"},"longitude":"-0.214278"},"context":"","outcome_status":{"category":"Investigation complete; no suspect identified","date":"2020-03"},"persistent_id":"dc2078f737db783b27224ab6aa814fe86208cc9e6033ed55e83ac5d4d017468a","id":74331053,"location_subtype":"","month":"2019-05"},{"category":"other-theft","location_type":"Force","location":{"latitude":"51.403457","street":{"id":933317,"name":"On or near Petrol Station"},"longitude":"-0.213823"},"context":"","outcome_status":{"category":"Investigation complete; no suspect identified","date":"2020-03"},"persistent_id":"98d31ed8b08cc6222f9263a6baa5fb271db3a1d6d7b8192012c539546bb527ad","id":74343777,"location_subtype":"","month":"2019-05"},{"category":"other-theft","location_type":"Force","location":{"latitude":"51.398764","street":{"id":930033,"name":"On or near Petrol Station"},"longitude":"-0.243649"},"context":"","outcome_status":{"category":"Investigation complete; no suspect identified","date":"2020-03"},"persistent_id":"bc1d281bf4da8fdada7e27ce2c21bcc978b19bdf3812f60777a8d26f3ed92fda","id":74324761,"location_subtype":"","month":"2019-05"},{"category":"other-theft","location_type":"Force","location":{"latitude":"51.398764","street":{"id":930033,"name":"On or near Petrol Station"},"longitude":"-0.243649"},"context":"","outcome_status":{"category":"Investigation complete; no suspect identified","date":"2020-03"},"persistent_id":"1e404c197bb7a3f16b4230add5c896e9595fa7d218c61419122a76fd2a771db9","id":74315619,"location_subtype":"","month":"2019-05"},{"category":"other-theft","location_type":"Force","location":{"latitude":"51.412756","street":{"id":933243,"name":"On or near Henfield Road"},"longitude":"-0.207982"},"context":"","outcome_status":{"category":"Investigation complete; no suspect identified","date":"2020-03"},"persistent_id":"d55415dfe173135f6f0099545417c1712f0224f79ff33221e6049a492c7ebb77","id":74304853,"location_subtype":"","month":"2019-05"},{"category":"possession-of-weapons","location_type":"Force","location":{"latitude":"51.411034","street":{"id":933454,"name":"On or near Coombe Lane"},"longitude":"-0.239153"},"context":"","outcome_status":{"category":"Status update unavailable","date":"2019-09"},"persistent_id":"f68861eac1a9f50ec7fc11e5f30068d71603f7282e18e757e9cf7beaa7b54ac4","id":74345636,"location_subtype":"","month":"2019-05"},{"category":"public-order","location_type":"Force","location":{"latitude":"51.405863","street":{"id":933470,"name":"On or near Sports\/recreation Area"},"longitude":"-0.243320"},"context":"","outcome_status":{"category":"Status update unavailable","date":"2019-09"},"persistent_id":"3792d4729abd4c017732055bbba51dcabe1a6f77151a9d06b57af76fb3570d7d","id":74335020,"location_subtype":"","month":"2019-05"},{"category":"public-order","location_type":"Force","location":{"latitude":"51.415213","street":{"id":934619,"name":"On or near Orchard Lane"},"longitude":"-0.233038"},"context":"","outcome_status":{"category":"Status update unavailable","date":"2019-09"},"persistent_id":"54b35b6ce61c8f9b16e2db13f8721232d7a14e71a0e20d9ebfa2c17526286cf1","id":74298269,"location_subtype":"","month":"2019-05"},{"category":"public-order","location_type":"BTP","location":{"latitude":"51.409206","street":{"id":1490196,"name":"Raynes Park (station)"},"longitude":"-0.229934"},"context":"","outcome_status":{"category":"Status update unavailable","date":"2019-09"},"persistent_id":"","id":88718736,"location_subtype":"STATION","month":"2019-05"},{"category":"public-order","location_type":"Force","location":{"latitude":"51.411521","street":{"id":933446,"name":"On or near Richmond Road"},"longitude":"-0.236833"},"context":"","outcome_status":{"category":"Status update unavailable","date":"2019-09"},"persistent_id":"7b9ad3d0cb58be642e051a0d7523a2d9cbc479a8871228e2b9107615dd8575f4","id":74321019,"location_subtype":"","month":"2019-05"},{"category":"public-order","location_type":"Force","location":{"latitude":"51.411500","street":{"id":933455,"name":"On or near Coombe Gardens"},"longitude":"-0.243866"},"context":"","outcome_status":{"category":"Status update unavailable","date":"2019-09"},"persistent_id":"446087e39e5d89015599a4f8d98d07b941d585fe9b84f66357c58495eb3fa5aa","id":74329047,"location_subtype":"","month":"2019-05"},{"category":"public-order","location_type":"Force","location":{"latitude":"51.406131","street":{"id":933445,"name":"On or near Savill Gardens"},"longitude":"-0.240851"},"context":"","outcome_status":{"category":"Status update unavailable","date":"2019-09"},"persistent_id":"01d610ed5c245b5c98be0568fdc392f693474df51d9891899dd5c1b2d5f2fbd4","id":74325582,"location_subtype":"","month":"2019-05"},{"category":"public-order","location_type":"Force","location":{"latitude":"51.409214","street":{"id":933259,"name":"On or near Supermarket"},"longitude":"-0.212779"},"context":"","outcome_status":{"category":"Status update unavailable","date":"2019-09"},"persistent_id":"23a35b4d66b498d23971030e1750a5507b45abd37c3fcf9162d954de6609ed61","id":74290296,"location_subtype":"","month":"2019-05"},{"category":"public-order","location_type":"Force","location":{"latitude":"51.413356","street":{"id":933345,"name":"On or near Pendarves Road"},"longitude":"-0.230320"},"context":"","outcome_status":{"category":"Court result unavailable","date":"2019-11"},"persistent_id":"8c490d903b579e4967c3023b0e0dc6c1e3c2a934e41337a0bce1469f55fefc6c","id":74320117,"location_subtype":"","month":"2019-05"},{"category":"public-order","location_type":"Force","location":{"latitude":"51.409874","street":{"id":933239,"name":"On or near Manor Gardens"},"longitude":"-0.208900"},"context":"","outcome_status":{"category":"Investigation complete; no suspect identified","date":"2020-03"},"persistent_id":"7104dfbb8d732ca75bf590179be60eadea68a4fd96b713cb29ef72af815854e7","id":74335684,"location_subtype":"","month":"2019-05"},{"category":"public-order","location_type":"Force","location":{"latitude":"51.402047","street":{"id":933471,"name":"On or near Supermarket"},"longitude":"-0.239555"},"context":"","outcome_status":{"category":"Status update unavailable","date":"2019-09"},"persistent_id":"1aa50205aba9fa553323c837581f5ea339aa9dea71a2df05bfeed9721a67a29e","id":74335561,"location_subtype":"","month":"2019-05"},{"category":"public-order","location_type":"Force","location":{"latitude":"51.415213","street":{"id":934619,"name":"On or near Orchard Lane"},"longitude":"-0.233038"},"context":"","outcome_status":{"category":"Court result unavailable","date":"2019-11"},"persistent_id":"da1cb126bacfee8f23eeaf3d7d3746577ecd048c01e2d2f4d8e1b71fed242b82","id":74319093,"location_subtype":"","month":"2019-05"},{"category":"public-order","location_type":"Force","location":{"latitude":"51.398764","street":{"id":930033,"name":"On or near Petrol Station"},"longitude":"-0.243649"},"context":"","outcome_status":{"category":"Status update unavailable","date":"2019-09"},"persistent_id":"ae6b636f1745a8d7f5515bca2db9bdc0d84c73bd8bf41c0e48e78aec6f5f60f0","id":74295268,"location_subtype":"","month":"2019-05"},{"category":"public-order","location_type":"Force","location":{"latitude":"51.409936","street":{"id":933359,"name":"On or near Hospital"},"longitude":"-0.232508"},"context":"","outcome_status":{"category":"Status update unavailable","date":"2019-09"},"persistent_id":"b6589b69253da5ba1f133433a40bbfcf3bf828f477328bc60bd2d5c603ed91c1","id":74363547,"location_subtype":"","month":"2019-05"},{"category":"public-order","location_type":"Force","location":{"latitude":"51.406828","street":{"id":933354,"name":"On or near Farnham Gardens"},"longitude":"-0.235734"},"context":"","outcome_status":{"category":"Status update unavailable","date":"2019-09"},"persistent_id":"f21b7b5eac3361b139a0d6114f3e5e695a9a57ea1689a450c4bad943876b36a2","id":74300707,"location_subtype":"","month":"2019-05"},{"category":"robbery","location_type":"Force","location":{"latitude":"51.414630","street":{"id":933430,"name":"On or near Coombe Lane"},"longitude":"-0.248721"},"context":"","outcome_status":{"category":"Status update unavailable","date":"2019-09"},"persistent_id":"5d8d1566ed89cbc1beda21d365a3c514a658ed08c07b48cb5a2e02676414a369","id":74323153,"location_subtype":"","month":"2019-05"},{"category":"robbery","location_type":"Force","location":{"latitude":"51.407915","street":{"id":933352,"name":"On or near Grand Drive"},"longitude":"-0.229710"},"context":"","outcome_status":{"category":"Status update unavailable","date":"2019-09"},"persistent_id":"2288d851a6350d2e41f662a3f2e481c548520780c744b997816d898f7997eaf3","id":74323152,"location_subtype":"","month":"2019-05"},{"category":"robbery","location_type":"Force","location":{"latitude":"51.398764","street":{"id":930033,"name":"On or near Petrol Station"},"longitude":"-0.243649"},"context":"","outcome_status":{"category":"Investigation complete; no suspect identified","date":"2020-03"},"persistent_id":"d4b03f87e3e6c7b5fa15309c0b5d718619e7e28d9947594576d6f7f0653fc515","id":74326205,"location_subtype":"","month":"2019-05"},{"category":"shoplifting","location_type":"Force","location":{"latitude":"51.402047","street":{"id":933471,"name":"On or near Supermarket"},"longitude":"-0.239555"},"context":"","outcome_status":{"category":"Status update unavailable","date":"2019-09"},"persistent_id":"748d22cdf1ad8474e602ba4917f84ca5c6f27d9f7417693c341fb113ff118ed5","id":74318436,"location_subtype":"","month":"2019-05"},{"category":"shoplifting","location_type":"Force","location":{"latitude":"51.402047","street":{"id":933471,"name":"On or near Supermarket"},"longitude":"-0.239555"},"context":"","outcome_status":{"category":"Local resolution","date":"2019-05"},"persistent_id":"2defe34033913fbcb1f209fc012336b55974c5623fe1a2169041548e88759799","id":74338778,"location_subtype":"","month":"2019-05"},{"category":"shoplifting","location_type":"Force","location":{"latitude":"51.399749","street":{"id":930035,"name":"On or near Burlington Road"},"longitude":"-0.241599"},"context":"","outcome_status":{"category":"Court result unavailable","date":"2020-02"},"persistent_id":"732d11f30f3730481d95ef45ea7e466f3d06f68f33926738c35b476263444dd3","id":74346130,"location_subtype":"","month":"2019-05"},{"category":"theft-from-the-person","location_type":"Force","location":{"latitude":"51.402047","street":{"id":933471,"name":"On or near Supermarket"},"longitude":"-0.239555"},"context":"","outcome_status":{"category":"Status update unavailable","date":"2019-09"},"persistent_id":"0658c47d455c607e77f72569a5534145f293670ad37c09f406c862517f1ae75f","id":74341200,"location_subtype":"","month":"2019-05"},{"category":"vehicle-crime","location_type":"Force","location":{"latitude":"51.397655","street":{"id":930138,"name":"On or near Kingsway"},"longitude":"-0.232090"},"context":"","outcome_status":{"category":"Status update unavailable","date":"2019-09"},"persistent_id":"f17dbe0891df7a565d6a868d59542028c74a1a86fc35ab53b41eddea0fce5c08","id":74293912,"location_subtype":"","month":"2019-05"},{"category":"vehicle-crime","location_type":"Force","location":{"latitude":"51.402047","street":{"id":933471,"name":"On or near Supermarket"},"longitude":"-0.239555"},"context":"","outcome_status":{"category":"Status update unavailable","date":"2019-09"},"persistent_id":"bc920067dc35e96a0820e337845f3533484a391df75ba8535a0df2fe5302fbd2","id":74333167,"location_subtype":"","month":"2019-05"},{"category":"vehicle-crime","location_type":"Force","location":{"latitude":"51.403931","street":{"id":933485,"name":"On or near Hillbrow"},"longitude":"-0.248814"},"context":"","outcome_status":{"category":"Status update unavailable","date":"2019-09"},"persistent_id":"407b37061b519a7c19c7fb956ebea86f6c4576ed486340c769e466373ea58573","id":74338516,"location_subtype":"","month":"2019-05"},{"category":"vehicle-crime","location_type":"Force","location":{"latitude":"51.416290","street":{"id":934652,"name":"On or near Nursery Road"},"longitude":"-0.216832"},"context":"","outcome_status":{"category":"Status update unavailable","date":"2019-09"},"persistent_id":"3872d4af3cbb7314c78e5786edb7d6d65d6cc44a5d048681b237a24ade1bef8a","id":74340049,"location_subtype":"","month":"2019-05"},{"category":"vehicle-crime","location_type":"Force","location":{"latitude":"51.405000","street":{"id":933462,"name":"On or near Pedestrian Subway"},"longitude":"-0.236164"},"context":"","outcome_status":{"category":"Status update unavailable","date":"2019-09"},"persistent_id":"a133b328f1d87ee5c072a05bb68eb609b6134e0788222518d9692ca0966b93b4","id":74329693,"location_subtype":"","month":"2019-05"},{"category":"vehicle-crime","location_type":"Force","location":{"latitude":"51.402047","street":{"id":933471,"name":"On or near Supermarket"},"longitude":"-0.239555"},"context":"","outcome_status":{"category":"Status update unavailable","date":"2019-09"},"persistent_id":"64e0c6fd8facbefca6d16bbe59e26d4c89d9f4181402f362d28e9fa86e7f56d7","id":74331025,"location_subtype":"","month":"2019-05"},{"category":"vehicle-crime","location_type":"Force","location":{"latitude":"51.397856","street":{"id":930148,"name":"On or near Southway"},"longitude":"-0.226347"},"context":"","outcome_status":{"category":"Status update unavailable","date":"2019-09"},"persistent_id":"19d7406cf44c78da2946ac48900dd60b3b8e5f23f82f2e45c42c6ea3f3f1fbe9","id":74339327,"location_subtype":"","month":"2019-05"},{"category":"vehicle-crime","location_type":"Force","location":{"latitude":"51.402047","street":{"id":933471,"name":"On or near Supermarket"},"longitude":"-0.239555"},"context":"","outcome_status":{"category":"Status update unavailable","date":"2019-09"},"persistent_id":"5fa8c9a73166bded74ee6377c1c2bbd81dd9b6feccddacc6f70e0fa0dd5f73ac","id":74299271,"location_subtype":"","month":"2019-05"},{"category":"vehicle-crime","location_type":"Force","location":{"latitude":"51.400982","street":{"id":930036,"name":"On or near Petrol Station"},"longitude":"-0.241034"},"context":"","outcome_status":{"category":"Status update unavailable","date":"2019-09"},"persistent_id":"d6ed7d867de4e790eae57a3a08effd8ac5249cc35f96356a0fefde8f854003fb","id":74319445,"location_subtype":"","month":"2019-05"},{"category":"vehicle-crime","location_type":"Force","location":{"latitude":"51.399117","street":{"id":930117,"name":"On or near Southway"},"longitude":"-0.224156"},"context":"","outcome_status":{"category":"Status update unavailable","date":"2019-09"},"persistent_id":"14692c687afd6ac100d935c95bfd9b7578c2bb1f87179552495f1bcf4c70035e","id":74342783,"location_subtype":"","month":"2019-05"},{"category":"vehicle-crime","location_type":"Force","location":{"latitude":"51.406900","street":{"id":933361,"name":"On or near Park\/open Space"},"longitude":"-0.223811"},"context":"","outcome_status":{"category":"Status update unavailable","date":"2019-09"},"persistent_id":"f17fe90868d710fa9c1fb3951ac329a3fcd34981fb166b5d4467747f63cc99d9","id":74357928,"location_subtype":"","month":"2019-05"},{"category":"vehicle-crime","location_type":"Force","location":{"latitude":"51.406953","street":{"id":933242,"name":"On or near Innes Close"},"longitude":"-0.211947"},"context":"","outcome_status":{"category":"Status update unavailable","date":"2019-09"},"persistent_id":"41fb2a16cb5305976863f0a0ff1bdc1a7dbf5ec4668201ff1ace1a66e4fed7eb","id":74346150,"location_subtype":"","month":"2019-05"},{"category":"vehicle-crime","location_type":"Force","location":{"latitude":"51.407611","street":{"id":933372,"name":"On or near Martin Way"},"longitude":"-0.219700"},"context":"","outcome_status":{"category":"Status update unavailable","date":"2019-09"},"persistent_id":"164b886b11b51eac56660592f810f35ce005ac6859be9d7fbd26c235a9571457","id":74341455,"location_subtype":"","month":"2019-05"},{"category":"vehicle-crime","location_type":"Force","location":{"latitude":"51.413751","street":{"id":933452,"name":"On or near Laurel Road"},"longitude":"-0.239249"},"context":"","outcome_status":{"category":"Status update unavailable","date":"2019-09"},"persistent_id":"526e2de79d86ad5d8a701497d38f327d60a19d8dd2eb0da6cc695cf9ec5c30e4","id":74301557,"location_subtype":"","month":"2019-05"},{"category":"vehicle-crime","location_type":"Force","location":{"latitude":"51.395946","street":{"id":930135,"name":"On or near Tennyson Avenue"},"longitude":"-0.233867"},"context":"","outcome_status":{"category":"Status update unavailable","date":"2019-09"},"persistent_id":"ec076365ff1b6cd35271c47a01549c00cd9fce2488c74085a86cf529d5988a66","id":74314488,"location_subtype":"","month":"2019-05"},{"category":"vehicle-crime","location_type":"Force","location":{"latitude":"51.402047","street":{"id":933471,"name":"On or near Supermarket"},"longitude":"-0.239555"},"context":"","outcome_status":{"category":"Status update unavailable","date":"2019-09"},"persistent_id":"756e944f97365f7464a3f9c0454c0a2754fb655a9dd48bcf8146e5023995b405","id":74352554,"location_subtype":"","month":"2019-05"},{"category":"violent-crime","location_type":"Force","location":{"latitude":"51.412492","street":{"id":933368,"name":"On or near Stanton Road"},"longitude":"-0.223178"},"context":"","outcome_status":{"category":"Court result unavailable","date":"2019-11"},"persistent_id":"8a4abbcb8b83403a63697865f649efff2c48193704a46937a27d51e3d90deb94","id":74329574,"location_subtype":"","month":"2019-05"},{"category":"violent-crime","location_type":"Force","location":{"latitude":"51.412073","street":{"id":933348,"name":"On or near Lambton Road"},"longitude":"-0.231132"},"context":"","outcome_status":{"category":"Status update unavailable","date":"2019-09"},"persistent_id":"2d92dde645cfb355a6321b03ace403cd64b14242c5e141fc464ffe26324b1871","id":74291652,"location_subtype":"","month":"2019-05"},{"category":"violent-crime","location_type":"Force","location":{"latitude":"51.413968","street":{"id":933450,"name":"On or near Oakwood Road"},"longitude":"-0.240550"},"context":"","outcome_status":{"category":"Status update unavailable","date":"2019-09"},"persistent_id":"663227be43854c1e44975f7fe8d99a8209ac43c3e0977277de37f4c22d91bdda","id":74291651,"location_subtype":"","month":"2019-05"},{"category":"violent-crime","location_type":"Force","location":{"latitude":"51.416132","street":{"id":934756,"name":"On or near William Road"},"longitude":"-0.211790"},"context":"","outcome_status":{"category":"Status update unavailable","date":"2019-09"},"persistent_id":"16a467b0c010fb39cff9970b9c9a94d140a3881f71e6d4a77a991839adb58ea3","id":74291627,"location_subtype":"","month":"2019-05"},{"category":"violent-crime","location_type":"Force","location":{"latitude":"51.401917","street":{"id":933394,"name":"On or near Cannon Hill Lane"},"longitude":"-0.216672"},"context":"","outcome_status":{"category":"Status update unavailable","date":"2019-09"},"persistent_id":"f5a7f3c0a776a4458c61e80b159bcf40c8ddd1bf8006f41f155a8ee95a6497e2","id":74314988,"location_subtype":"","month":"2019-05"},{"category":"violent-crime","location_type":"Force","location":{"latitude":"51.403831","street":{"id":933404,"name":"On or near Westway Close"},"longitude":"-0.234972"},"context":"","outcome_status":{"category":"Status update unavailable","date":"2019-09"},"persistent_id":"b4441718034e8ff5ab056faa980956bc12af5d160b6e7b8b2086795821530ba4","id":74316044,"location_subtype":"","month":"2019-05"},{"category":"violent-crime","location_type":"Force","location":{"latitude":"51.406549","street":{"id":933443,"name":"On or near Stourhead Gardens"},"longitude":"-0.241079"},"context":"","outcome_status":{"category":"Investigation complete; no suspect identified","date":"2020-03"},"persistent_id":"c3d1b74d168d636f5dc22c6c27966553d478ab7c67b8815c3ec17b87e10107b3","id":74316453,"location_subtype":"","month":"2019-05"},{"category":"violent-crime","location_type":"Force","location":{"latitude":"51.417630","street":{"id":934656,"name":"On or near Darlaston Road"},"longitude":"-0.218045"},"context":"","outcome_status":{"category":"Status update unavailable","date":"2019-09"},"persistent_id":"b879254cb6a2f2f4dae425b278d3e3bc26319689074c3b6341a653fc78f8f01a","id":74304992,"location_subtype":"","month":"2019-05"},{"category":"violent-crime","location_type":"Force","location":{"latitude":"51.406549","street":{"id":933443,"name":"On or near Stourhead Gardens"},"longitude":"-0.241079"},"context":"","outcome_status":{"category":"Status update unavailable","date":"2019-09"},"persistent_id":"891de8feb7ae370d5e6e562219fdaed1c0bc5b0d1ab6463d1683ee3a01bdfadb","id":74319066,"location_subtype":"","month":"2019-05"},{"category":"violent-crime","location_type":"Force","location":{"latitude":"51.404181","street":{"id":933391,"name":"On or near Parking Area"},"longitude":"-0.216498"},"context":"","outcome_status":{"category":"Status update unavailable","date":"2019-09"},"persistent_id":"009c1e05c64d83e3c7d7d3cc3e8215ac7b35eee022f2ad40b4f2a7da50af0c46","id":74319605,"location_subtype":"","month":"2019-05"},{"category":"violent-crime","location_type":"Force","location":{"latitude":"51.404181","street":{"id":933391,"name":"On or near Parking Area"},"longitude":"-0.216498"},"context":"","outcome_status":{"category":"Status update unavailable","date":"2019-09"},"persistent_id":"009c1e05c64d83e3c7d7d3cc3e8215ac7b35eee022f2ad40b4f2a7da50af0c46","id":74319606,"location_subtype":"","month":"2019-05"},{"category":"violent-crime","location_type":"Force","location":{"latitude":"51.404181","street":{"id":933391,"name":"On or near Parking Area"},"longitude":"-0.216498"},"context":"","outcome_status":{"category":"Status update unavailable","date":"2019-09"},"persistent_id":"009c1e05c64d83e3c7d7d3cc3e8215ac7b35eee022f2ad40b4f2a7da50af0c46","id":74319607,"location_subtype":"","month":"2019-05"},{"category":"violent-crime","location_type":"Force","location":{"latitude":"51.402047","street":{"id":933471,"name":"On or near Supermarket"},"longitude":"-0.239555"},"context":"","outcome_status":{"category":"Status update unavailable","date":"2019-09"},"persistent_id":"64e0c6fd8facbefca6d16bbe59e26d4c89d9f4181402f362d28e9fa86e7f56d7","id":74331644,"location_subtype":"","month":"2019-05"},{"category":"violent-crime","location_type":"Force","location":{"latitude":"51.408936","street":{"id":933339,"name":"On or near Parking Area"},"longitude":"-0.233611"},"context":"","outcome_status":{"category":"Status update unavailable","date":"2019-09"},"persistent_id":"349ab7e7bc33cec2c198c16ed3c37cd1127d4834e41087de5b315c05c2f9a9f2","id":74317728,"location_subtype":"","month":"2019-05"},{"category":"violent-crime","location_type":"Force","location":{"latitude":"51.410519","street":{"id":933229,"name":"On or near Sandringham Avenue"},"longitude":"-0.213433"},"context":"","outcome_status":{"category":"Status update unavailable","date":"2019-09"},"persistent_id":"5308c6de844d1d3c45d3f6ddc52f99bc37266a1f62cd99f9b250ebbe2dcec292","id":74336559,"location_subtype":"","month":"2019-05"},{"category":"violent-crime","location_type":"Force","location":{"latitude":"51.422035","street":{"id":934594,"name":"On or near Sycamore Road"},"longitude":"-0.229251"},"context":"","outcome_status":{"category":"Court result unavailable","date":"2019-11"},"persistent_id":"84b59ecac5904fd8c7a8ac94828f2a363aba9a09fe3cae30853e10be4151758b","id":74341177,"location_subtype":"","month":"2019-05"},{"category":"violent-crime","location_type":"Force","location":{"latitude":"51.408245","street":{"id":933335,"name":"On or near Aston Road"},"longitude":"-0.227124"},"context":"","outcome_status":{"category":"Status update unavailable","date":"2019-09"},"persistent_id":"b22e99b2e8f7490c2bb0c1e07ab5c98347cf493b5256186f457e4aeb5735a70b","id":74359144,"location_subtype":"","month":"2019-05"},{"category":"violent-crime","location_type":"Force","location":{"latitude":"51.415776","street":{"id":934635,"name":"On or near Worple Avenue"},"longitude":"-0.219714"},"context":"","outcome_status":{"category":"Status update unavailable","date":"2019-09"},"persistent_id":"dc4358445fa043a3858881b03b4aa8620e61bdd82dfd0e6b46caa5fe10ea7258","id":74318093,"location_subtype":"","month":"2019-05"},{"category":"violent-crime","location_type":"Force","location":{"latitude":"51.412492","street":{"id":933368,"name":"On or near Stanton Road"},"longitude":"-0.223178"},"context":"","outcome_status":{"category":"Status update unavailable","date":"2019-09"},"persistent_id":"73361f9001e157a91b6dd9967ad5bb8ef292135012499aea1143ac311637e5b6","id":74326743,"location_subtype":"","month":"2019-05"},{"category":"violent-crime","location_type":"Force","location":{"latitude":"51.406348","street":{"id":933448,"name":"On or near Petworth Gardens"},"longitude":"-0.239074"},"context":"","outcome_status":{"category":"Status update unavailable","date":"2019-09"},"persistent_id":"c4b3102398703e5841a597cdae28e8b10588af5324c878a3c4a279f0a63455dd","id":74305824,"location_subtype":"","month":"2019-05"},{"category":"violent-crime","location_type":"Force","location":{"latitude":"51.416727","street":{"id":934634,"name":"On or near Cumberland Close"},"longitude":"-0.224897"},"context":"","outcome_status":{"category":"Investigation complete; no suspect identified","date":"2020-03"},"persistent_id":"de2454c6940e4bffacf2630ef1a93f7853052a51639002de16ac56cf63bcd1d0","id":74335685,"location_subtype":"","month":"2019-05"},{"category":"violent-crime","location_type":"Force","location":{"latitude":"51.420771","street":{"id":934585,"name":"On or near Corbiere Court"},"longitude":"-0.219966"},"context":"","outcome_status":{"category":"Investigation complete; no suspect identified","date":"2020-03"},"persistent_id":"d6ae2d43e6906218e1d65cc0e9027f894213a14605c87cf9aabc629a57a8efc8","id":74324767,"location_subtype":"","month":"2019-05"},{"category":"violent-crime","location_type":"BTP","location":{"latitude":"51.409206","street":{"id":1490196,"name":"Raynes Park (station)"},"longitude":"-0.229934"},"context":"","outcome_status":{"category":"Status update unavailable","date":"2019-09"},"persistent_id":"","id":88718735,"location_subtype":"STATION","month":"2019-05"},{"category":"violent-crime","location_type":"Force","location":{"latitude":"51.407765","street":{"id":933237,"name":"On or near Mawson Close"},"longitude":"-0.213914"},"context":"","outcome_status":{"category":"Investigation complete; no suspect identified","date":"2020-09"},"persistent_id":"89550040cf0157d33b773b559d7735fd4de8cd4e7a97f7098879bb5aa6466486","id":74316518,"location_subtype":"","month":"2019-05"},{"category":"violent-crime","location_type":"Force","location":{"latitude":"51.404181","street":{"id":933391,"name":"On or near Parking Area"},"longitude":"-0.216498"},"context":"","outcome_status":{"category":"Investigation complete; no suspect identified","date":"2020-03"},"persistent_id":"4d14f2dca48e9048e3d7cf99ea1fbe78c80a84a295bfe2d461a2a90c28c17191","id":74317631,"location_subtype":"","month":"2019-05"},{"category":"violent-crime","location_type":"Force","location":{"latitude":"51.415776","street":{"id":934635,"name":"On or near Worple Avenue"},"longitude":"-0.219714"},"context":"","outcome_status":{"category":"Investigation complete; no suspect identified","date":"2020-03"},"persistent_id":"90af9d639440af5ab81940a1503374d925f8187f075c5641e3354b619bfc3a9f","id":74329732,"location_subtype":"","month":"2019-05"},{"category":"violent-crime","location_type":"Force","location":{"latitude":"51.402504","street":{"id":933412,"name":"On or near Brook Close"},"longitude":"-0.234635"},"context":"","outcome_status":{"category":"Status update unavailable","date":"2019-09"},"persistent_id":"e992e85c86f4f374f0925a5b1d1d6b40b4407fc9d172d85cfb74ba40cb1adea6","id":74290015,"location_subtype":"","month":"2019-05"},{"category":"violent-crime","location_type":"Force","location":{"latitude":"51.413598","street":{"id":933344,"name":"On or near Pepys Road"},"longitude":"-0.229117"},"context":"","outcome_status":{"category":"Status update unavailable","date":"2019-09"},"persistent_id":"067e29162c2258ca959eed9ac80d7e7f048513ab032dd7b38c21d351300094e4","id":74341094,"location_subtype":"","month":"2019-05"},{"category":"violent-crime","location_type":"Force","location":{"latitude":"51.406901","street":{"id":933447,"name":"On or near Polesden Gardens"},"longitude":"-0.238779"},"context":"","outcome_status":{"category":"Court result unavailable","date":"2019-12"},"persistent_id":"da887cfecbb27d85d6481a8c72a70b233103ff0e582e79f78a15f6e18a841741","id":74317663,"location_subtype":"","month":"2019-05"},{"category":"violent-crime","location_type":"Force","location":{"latitude":"51.406901","street":{"id":933447,"name":"On or near Polesden Gardens"},"longitude":"-0.238779"},"context":"","outcome_status":{"category":"Investigation complete; no suspect identified","date":"2020-03"},"persistent_id":"c782ff5ce1fd1b2b3488544fb00e128277d92d849a93a9ce60d8efe8ae2ca12f","id":74294738,"location_subtype":"","month":"2019-05"},{"category":"violent-crime","location_type":"Force","location":{"latitude":"51.417984","street":{"id":934541,"name":"On or near Prospect Place"},"longitude":"-0.235506"},"context":"","outcome_status":{"category":"Investigation complete; no suspect identified","date":"2020-03"},"persistent_id":"6110943e00117914c8041a2882b39fd1904ea04f1d0fbd4a62c93880081a785c","id":74340909,"location_subtype":"","month":"2019-05"},{"category":"violent-crime","location_type":"Force","location":{"latitude":"51.422035","street":{"id":934594,"name":"On or near Sycamore Road"},"longitude":"-0.229251"},"context":"","outcome_status":{"category":"Status update unavailable","date":"2019-09"},"persistent_id":"84b59ecac5904fd8c7a8ac94828f2a363aba9a09fe3cae30853e10be4151758b","id":74337558,"location_subtype":"","month":"2019-05"},{"category":"violent-crime","location_type":"Force","location":{"latitude":"51.403843","street":{"id":933316,"name":"On or near Beaford Grove"},"longitude":"-0.210889"},"context":"","outcome_status":{"category":"Status update unavailable","date":"2019-09"},"persistent_id":"b5dfaab8714c3e743b6f64096694102c6c4c835574b0d6b8712a9194a47a7d86","id":74337559,"location_subtype":"","month":"2019-05"},{"category":"violent-crime","location_type":"Force","location":{"latitude":"51.395946","street":{"id":930135,"name":"On or near Tennyson Avenue"},"longitude":"-0.233867"},"context":"","outcome_status":{"category":"Investigation complete; no suspect identified","date":"2020-03"},"persistent_id":"d72c1817b85d4674015c3198e0bc649c6328c1a7063033935edc6427a2972b98","id":74338631,"location_subtype":"","month":"2019-05"},{"category":"violent-crime","location_type":"Force","location":{"latitude":"51.397056","street":{"id":930025,"name":"On or near Claremont Avenue"},"longitude":"-0.239502"},"context":"","outcome_status":{"category":"Status update unavailable","date":"2019-09"},"persistent_id":"df5afff1f85211f946d78f186c8ae374c4de7fccec068f1ce66d72c600fb17f3","id":74337695,"location_subtype":"","month":"2019-05"},{"category":"violent-crime","location_type":"Force","location":{"latitude":"51.413895","street":{"id":933371,"name":"On or near Mason Close"},"longitude":"-0.221944"},"context":"","outcome_status":{"category":"Status update unavailable","date":"2019-09"},"persistent_id":"94bd93e931201b869802fd23e54cc8af2d45bd1777e66f18299b7bf3c09af717","id":74338632,"location_subtype":"","month":"2019-05"},{"category":"violent-crime","location_type":"Force","location":{"latitude":"51.409214","street":{"id":933259,"name":"On or near Supermarket"},"longitude":"-0.212779"},"context":"","outcome_status":{"category":"Status update unavailable","date":"2019-09"},"persistent_id":"84f074e35d230d74570b90cd1e1732d43aa537be4e5919777a1b87179daa0fe5","id":74338901,"location_subtype":"","month":"2019-05"},{"category":"violent-crime","location_type":"Force","location":{"latitude":"51.398404","street":{"id":930026,"name":"On or near Cavendish Avenue"},"longitude":"-0.240069"},"context":"","outcome_status":{"category":"Status update unavailable","date":"2019-09"},"persistent_id":"8a9b633f72a2b39f626ea172feb899fbf290bc8aabd0ed0845e8a4404d05bdbc","id":74338920,"location_subtype":"","month":"2019-05"},{"category":"violent-crime","location_type":"Force","location":{"latitude":"51.412492","street":{"id":933368,"name":"On or near Stanton Road"},"longitude":"-0.223178"},"context":"","outcome_status":{"category":"Local resolution","date":"2019-06"},"persistent_id":"28ab0e492c2f0be439a490efabd8658f95383f8033ba6ba89b625f5b57673275","id":74348010,"location_subtype":"","month":"2019-05"},{"category":"violent-crime","location_type":"Force","location":{"latitude":"51.409004","street":{"id":933356,"name":"On or near Approach Road"},"longitude":"-0.229136"},"context":"","outcome_status":{"category":"Investigation complete; no suspect identified","date":"2020-04"},"persistent_id":"2878c8ae6b33498b0868c6f4c68d221d012d7d77a94788f344d7f5d5e31c9af7","id":74340489,"location_subtype":"","month":"2019-05"},{"category":"violent-crime","location_type":"Force","location":{"latitude":"51.410007","street":{"id":933230,"name":"On or near Rothesay Avenue"},"longitude":"-0.214071"},"context":"","outcome_status":{"category":"Investigation complete; no suspect identified","date":"2020-03"},"persistent_id":"a582e2634e023ba4dbd946733a7b62efc72ae8058b73e3c5d6a60ba8d2ecdb1d","id":74294425,"location_subtype":"","month":"2019-05"},{"category":"violent-crime","location_type":"Force","location":{"latitude":"51.401917","street":{"id":933394,"name":"On or near Cannon Hill Lane"},"longitude":"-0.216672"},"context":"","outcome_status":{"category":"Status update unavailable","date":"2019-09"},"persistent_id":"0fc9edc5a2c61388eaddd34fde3d65e89426166044267d9b0e81b615d877df4d","id":74345894,"location_subtype":"","month":"2019-05"},{"category":"violent-crime","location_type":"Force","location":{"latitude":"51.401917","street":{"id":933394,"name":"On or near Cannon Hill Lane"},"longitude":"-0.216672"},"context":"","outcome_status":{"category":"Status update unavailable","date":"2019-09"},"persistent_id":"0fc9edc5a2c61388eaddd34fde3d65e89426166044267d9b0e81b615d877df4d","id":74345895,"location_subtype":"","month":"2019-05"},{"category":"violent-crime","location_type":"Force","location":{"latitude":"51.397534","street":{"id":930124,"name":"On or near Eastway"},"longitude":"-0.218769"},"context":"","outcome_status":{"category":"Status update unavailable","date":"2019-09"},"persistent_id":"b2c2c4a45ae3d36058c5e4fe46f520585d138554d50c2ad8317c69db10a183af","id":74354141,"location_subtype":"","month":"2019-05"},{"category":"violent-crime","location_type":"Force","location":{"latitude":"51.409923","street":{"id":933328,"name":"On or near Kingston Road"},"longitude":"-0.225147"},"context":"","outcome_status":{"category":"Local resolution","date":"2019-07"},"persistent_id":"63cb9e66387acf58053890860229c98f43e6abec3c6f09060c233da430722800","id":74313318,"location_subtype":"","month":"2019-05"},{"category":"violent-crime","location_type":"Force","location":{"latitude":"51.409952","street":{"id":933347,"name":"On or near Lambton Road"},"longitude":"-0.230020"},"context":"","outcome_status":{"category":"Status update unavailable","date":"2019-09"},"persistent_id":"42f543294bb656d7f99f3fe9fa4f22c8e5babda68163ca98bb37e778692c5840","id":74341836,"location_subtype":"","month":"2019-05"},{"category":"violent-crime","location_type":"Force","location":{"latitude":"51.414361","street":{"id":933431,"name":"On or near Coombe Lane"},"longitude":"-0.248775"},"context":"","outcome_status":{"category":"Investigation complete; no suspect identified","date":"2020-03"},"persistent_id":"11fcf083b5c789c2ef9a7586e367298815f392b5400edb81c62063eba3344e76","id":74300903,"location_subtype":"","month":"2019-05"},{"category":"violent-crime","location_type":"Force","location":{"latitude":"51.402116","street":{"id":933465,"name":"On or near West Barnes Lane"},"longitude":"-0.236907"},"context":"","outcome_status":{"category":"Offender given a caution","date":"2019-06"},"persistent_id":"5e1506f6980717de8342ad0bdcdfa35db6f13431e84cefdc8bc799b7afefdafa","id":74308921,"location_subtype":"","month":"2019-05"},{"category":"violent-crime","location_type":"Force","location":{"latitude":"51.402047","street":{"id":933471,"name":"On or near Supermarket"},"longitude":"-0.239555"},"context":"","outcome_status":{"category":"Status update unavailable","date":"2019-09"},"persistent_id":"0e0d5c358a7d64f86e7aab529df594281b6897ffe17228b0a6e0c4894d37d959","id":74307492,"location_subtype":"","month":"2019-05"},{"category":"violent-crime","location_type":"Force","location":{"latitude":"51.406901","street":{"id":933447,"name":"On or near Polesden Gardens"},"longitude":"-0.238779"},"context":"","outcome_status":{"category":"Status update unavailable","date":"2019-09"},"persistent_id":"c782ff5ce1fd1b2b3488544fb00e128277d92d849a93a9ce60d8efe8ae2ca12f","id":74294737,"location_subtype":"","month":"2019-05"},{"category":"violent-crime","location_type":"Force","location":{"latitude":"51.395967","street":{"id":930134,"name":"On or near West Barnes Lane"},"longitude":"-0.235893"},"context":"","outcome_status":{"category":"Investigation complete; no suspect identified","date":"2020-04"},"persistent_id":"e0af3931205115201118a7047bf4473dbd8064db134ba69ef8cebbe2ed27711b","id":74347269,"location_subtype":"","month":"2019-05"},{"category":"violent-crime","location_type":"Force","location":{"latitude":"51.409952","street":{"id":933347,"name":"On or near Lambton Road"},"longitude":"-0.230020"},"context":"","outcome_status":{"category":"Status update unavailable","date":"2019-09"},"persistent_id":"a74d50be9f9ea95df388e2f45f3b1ef70ca2c54e6ba475041577d2689002da53","id":74350026,"location_subtype":"","month":"2019-05"},{"category":"violent-crime","location_type":"Force","location":{"latitude":"51.405874","street":{"id":933343,"name":"On or near Rectory Close"},"longitude":"-0.229732"},"context":"","outcome_status":{"category":"Status update unavailable","date":"2019-09"},"persistent_id":"c30bbcb05a77103f35428d191497ac9ee3dd49b1c4b86d8da9d73520e761c486","id":74312867,"location_subtype":"","month":"2019-05"},{"category":"other-crime","location_type":"Force","location":{"latitude":"51.407597","street":{"id":933360,"name":"On or near Botsford Road"},"longitude":"-0.215833"},"context":"","outcome_status":{"category":"Status update unavailable","date":"2019-09"},"persistent_id":"37c2515fce14a87d441d3dd586f5a6f029d58dc2d986248c273848c4711c6845","id":74291294,"location_subtype":"","month":"2019-05"}]