[{"category":"anti-social-behaviour","location_type":"Force","location":{"latitude":"51.454103","street":{"id":939111,"name":"On or near King's Road"},"longitude":"-0.318443"},"context":"","outcome_status":null,"persistent_id":"","id":74288788,"location_subtype":"","month":"2019-05"},{"category":"anti-social-behaviour","location_type":"Force","location":{"latitude":"51.465423","street":{"id":943564,"name":"On or near Sheendale Road"},"longitude":"-0.292804"},"context":"","outcome_status":null,"persistent_id":"","id":74288198,"location_subtype":"","month":"2019-05"},{"category":"anti-social-behaviour","location_type":"Force","location":{"latitude":"51.464983","street":{"id":943591,"name":"On or near Dee Road"},"longitude":"-0.291611"},"context":"","outcome_status":null,"persistent_id":"","id":74288197,"location_subtype":"","month":"2019-05"},{"category":"anti-social-behaviour","location_type":"Force","location":{"latitude":"51.464983","street":{"id":943591,"name":"On or near Dee Road"},"longitude":"-0.291611"},"context":"","outcome_status":null,"persistent_id":"","id":74288196,"location_subtype":"","month":"2019-05"},{"category":"anti-social-behaviour","location_type":"Force","location":{"latitude":"51.455648","street":{"id":943655,"name":"On or near Pyrland Road"},"longitude":"-0.291542"},"context":"","outcome_status":null,"persistent_id":"","id":74288194,"location_subtype":"","month":"2019-05"},{"category":"anti-social-behaviour","location_type":"Force","location":{"latitude":"51.460252","street":{"id":943563,"name":"On or near Spring Grove Road"},"longitude":"-0.292205"},"context":"","outcome_status":null,"persistent_id":"","id":74288195,"location_subtype":"","month":"2019-05"},{"category":"anti-social-behaviour","location_type":"Force","location":{"latitude":"51.473758","street":{"id":944849,"name":"On or near The Avenue"},"longitude":"-0.289642"},"context":"","outcome_status":null,"persistent_id":"","id":74288188,"location_subtype":"","month":"2019-05"},{"category":"anti-social-behaviour","location_type":"Force","location":{"latitude":"51.468984","street":{"id":944884,"name":"On or near Windham Road"},"longitude":"-0.290353"},"context":"","outcome_status":null,"persistent_id":"","id":74288187,"location_subtype":"","month":"2019-05"},{"category":"anti-social-behaviour","location_type":"Force","location":{"latitude":"51.464064","street":{"id":943578,"name":"On or near Manor Gardens"},"longitude":"-0.289025"},"context":"","outcome_status":null,"persistent_id":"","id":74288186,"location_subtype":"","month":"2019-05"},{"category":"anti-social-behaviour","location_type":"Force","location":{"latitude":"51.472266","street":{"id":944845,"name":"On or near Windsor Road"},"longitude":"-0.288502"},"context":"","outcome_status":null,"persistent_id":"","id":74288184,"location_subtype":"","month":"2019-05"},{"category":"anti-social-behaviour","location_type":"Force","location":{"latitude":"51.472804","street":{"id":944880,"name":"On or near Alexandra Road"},"longitude":"-0.288396"},"context":"","outcome_status":null,"persistent_id":"","id":74288185,"location_subtype":"","month":"2019-05"},{"category":"anti-social-behaviour","location_type":"Force","location":{"latitude":"51.471058","street":{"id":944891,"name":"On or near Gordon Road"},"longitude":"-0.288274"},"context":"","outcome_status":null,"persistent_id":"","id":74288183,"location_subtype":"","month":"2019-05"},{"category":"anti-social-behaviour","location_type":"Force","location":{"latitude":"51.466772","street":{"id":943562,"name":"On or near St George's Road"},"longitude":"-0.289745"},"context":"","outcome_status":null,"persistent_id":"","id":74288182,"location_subtype":"","month":"2019-05"},{"category":"anti-social-behaviour","location_type":"Force","location":{"latitude":"51.464641","street":{"id":943575,"name":"On or near Manor Road"},"longitude":"-0.288514"},"context":"","outcome_status":null,"persistent_id":"","id":74288181,"location_subtype":"","month":"2019-05"},{"category":"anti-social-behaviour","location_type":"Force","location":{"latitude":"51.465910","street":{"id":943577,"name":"On or near Manor Grove"},"longitude":"-0.285515"},"context":"","outcome_status":null,"persistent_id":"","id":74288180,"location_subtype":"","month":"2019-05"},{"category":"anti-social-behaviour","location_type":"Force","location":{"latitude":"51.465910","street":{"id":943577,"name":"On or near Manor Grove"},"longitude":"-0.285515"},"context":"","outcome_status":null,"persistent_id":"","id":74288179,"location_subtype":"","month":"2019-05"},{"category":"anti-social-behaviour","location_type":"Force","location":{"latitude":"51.470542","street":{"id":944915,"name":"On or near Chaucer Avenue"},"longitude":"-0.281929"},"context":"","outcome_status":null,"persistent_id":"","id":74288177,"location_subtype":"","month":"2019-05"},{"category":"anti-social-behaviour","location_type":"Force","location":{"latitude":"51.461375","street":{"id":943603,"name":"On or near Albany Road"},"longitude":"-0.295805"},"context":"","outcome_status":null,"persistent_id":"","id":74288724,"location_subtype":"","month":"2019-05"},{"category":"anti-social-behaviour","location_type":"Force","location":{"latitude":"51.468060","street":{"id":944909,"name":"On or near Lower Richmond Road"},"longitude":"-0.281907"},"context":"","outcome_status":null,"persistent_id":"","id":74288176,"location_subtype":"","month":"2019-05"},{"category":"anti-social-behaviour","location_type":"Force","location":{"latitude":"51.466733","street":{"id":943639,"name":"On or near Lambert Avenue"},"longitude":"-0.280287"},"context":"","outcome_status":null,"persistent_id":"","id":74288169,"location_subtype":"","month":"2019-05"},{"category":"anti-social-behaviour","location_type":"Force","location":{"latitude":"51.464380","street":{"id":943827,"name":"On or near Talbot Road"},"longitude":"-0.324011"},"context":"","outcome_status":null,"persistent_id":"","id":74283832,"location_subtype":"","month":"2019-05"},{"category":"anti-social-behaviour","location_type":"Force","location":{"latitude":"51.465322","street":{"id":943831,"name":"On or near Richmond Road"},"longitude":"-0.323185"},"context":"","outcome_status":null,"persistent_id":"","id":74283830,"location_subtype":"","month":"2019-05"},{"category":"anti-social-behaviour","location_type":"Force","location":{"latitude":"51.459180","street":{"id":943668,"name":"On or near The Avenue"},"longitude":"-0.316270"},"context":"","outcome_status":null,"persistent_id":"","id":74288782,"location_subtype":"","month":"2019-05"},{"category":"anti-social-behaviour","location_type":"Force","location":{"latitude":"51.464570","street":{"id":943853,"name":"On or near Further\/higher Educational Building"},"longitude":"-0.322852"},"context":"","outcome_status":null,"persistent_id":"","id":74288811,"location_subtype":"","month":"2019-05"},{"category":"anti-social-behaviour","location_type":"Force","location":{"latitude":"51.464570","street":{"id":943853,"name":"On or near Further\/higher Educational Building"},"longitude":"-0.322852"},"context":"","outcome_status":null,"persistent_id":"","id":74288810,"location_subtype":"","month":"2019-05"},{"category":"anti-social-behaviour","location_type":"Force","location":{"latitude":"51.456548","street":{"id":943866,"name":"On or near Nicol Close"},"longitude":"-0.319001"},"context":"","outcome_status":null,"persistent_id":"","id":74288799,"location_subtype":"","month":"2019-05"},{"category":"anti-social-behaviour","location_type":"Force","location":{"latitude":"51.453905","street":{"id":938994,"name":"On or near Crown Road"},"longitude":"-0.319040"},"context":"","outcome_status":null,"persistent_id":"","id":74288793,"location_subtype":"","month":"2019-05"},{"category":"anti-social-behaviour","location_type":"Force","location":{"latitude":"51.456548","street":{"id":943866,"name":"On or near Nicol Close"},"longitude":"-0.319001"},"context":"","outcome_status":null,"persistent_id":"","id":74288792,"location_subtype":"","month":"2019-05"},{"category":"anti-social-behaviour","location_type":"Force","location":{"latitude":"51.460669","street":{"id":943669,"name":"On or near St Peter's Road"},"longitude":"-0.317899"},"context":"","outcome_status":null,"persistent_id":"","id":74288791,"location_subtype":"","month":"2019-05"},{"category":"anti-social-behaviour","location_type":"Force","location":{"latitude":"51.459146","street":{"id":943594,"name":"On or near Church Road"},"longitude":"-0.296536"},"context":"","outcome_status":null,"persistent_id":"","id":74288725,"location_subtype":"","month":"2019-05"},{"category":"anti-social-behaviour","location_type":"Force","location":{"latitude":"51.456961","street":{"id":943661,"name":"On or near Chester Avenue"},"longitude":"-0.294055"},"context":"","outcome_status":null,"persistent_id":"","id":74288713,"location_subtype":"","month":"2019-05"},{"category":"anti-social-behaviour","location_type":"Force","location":{"latitude":"51.462198","street":{"id":943565,"name":"On or near Sheen Road"},"longitude":"-0.293083"},"context":"","outcome_status":null,"persistent_id":"","id":74288714,"location_subtype":"","month":"2019-05"},{"category":"anti-social-behaviour","location_type":"Force","location":{"latitude":"51.462198","street":{"id":943565,"name":"On or near Sheen Road"},"longitude":"-0.293083"},"context":"","outcome_status":null,"persistent_id":"","id":74288715,"location_subtype":"","month":"2019-05"},{"category":"anti-social-behaviour","location_type":"Force","location":{"latitude":"51.462198","street":{"id":943565,"name":"On or near Sheen Road"},"longitude":"-0.293083"},"context":"","outcome_status":null,"persistent_id":"","id":74288716,"location_subtype":"","month":"2019-05"},{"category":"anti-social-behaviour","location_type":"Force","location":{"latitude":"51.465270","street":{"id":943593,"name":"On or near Crofton Terrace"},"longitude":"-0.293443"},"context":"","outcome_status":null,"persistent_id":"","id":74288717,"location_subtype":"","month":"2019-05"},{"category":"anti-social-behaviour","location_type":"Force","location":{"latitude":"51.461689","street":{"id":943552,"name":"On or near Worple Way"},"longitude":"-0.295750"},"context":"","outcome_status":null,"persistent_id":"","id":74288718,"location_subtype":"","month":"2019-05"},{"category":"anti-social-behaviour","location_type":"Force","location":{"latitude":"51.461689","street":{"id":943552,"name":"On or near Worple Way"},"longitude":"-0.295750"},"context":"","outcome_status":null,"persistent_id":"","id":74288719,"location_subtype":"","month":"2019-05"},{"category":"anti-social-behaviour","location_type":"Force","location":{"latitude":"51.465248","street":{"id":943559,"name":"On or near Tersha Street"},"longitude":"-0.294999"},"context":"","outcome_status":null,"persistent_id":"","id":74288720,"location_subtype":"","month":"2019-05"},{"category":"anti-social-behaviour","location_type":"Force","location":{"latitude":"51.467915","street":{"id":943611,"name":"On or near Conference\/exhibition Centre"},"longitude":"-0.296584"},"context":"","outcome_status":null,"persistent_id":"","id":74288721,"location_subtype":"","month":"2019-05"},{"category":"anti-social-behaviour","location_type":"Force","location":{"latitude":"51.467915","street":{"id":943611,"name":"On or near Conference\/exhibition Centre"},"longitude":"-0.296584"},"context":"","outcome_status":null,"persistent_id":"","id":74288722,"location_subtype":"","month":"2019-05"},{"category":"anti-social-behaviour","location_type":"Force","location":{"latitude":"51.460674","street":{"id":943584,"name":"On or near Houblon Road"},"longitude":"-0.296436"},"context":"","outcome_status":null,"persistent_id":"","id":74288723,"location_subtype":"","month":"2019-05"},{"category":"anti-social-behaviour","location_type":"Force","location":{"latitude":"51.459146","street":{"id":943594,"name":"On or near Church Road"},"longitude":"-0.296536"},"context":"","outcome_status":null,"persistent_id":"","id":74288726,"location_subtype":"","month":"2019-05"},{"category":"anti-social-behaviour","location_type":"Force","location":{"latitude":"51.459146","street":{"id":943594,"name":"On or near Church Road"},"longitude":"-0.296536"},"context":"","outcome_status":null,"persistent_id":"","id":74288727,"location_subtype":"","month":"2019-05"},{"category":"anti-social-behaviour","location_type":"Force","location":{"latitude":"51.459146","street":{"id":943594,"name":"On or near Church Road"},"longitude":"-0.296536"},"context":"","outcome_status":null,"persistent_id":"","id":74288728,"location_subtype":"","month":"2019-05"},{"category":"anti-social-behaviour","location_type":"Force","location":{"latitude":"51.456866","street":{"id":943748,"name":"On or near Onslow Road"},"longitude":"-0.298650"},"context":"","outcome_status":null,"persistent_id":"","id":74288729,"location_subtype":"","month":"2019-05"},{"category":"anti-social-behaviour","location_type":"Force","location":{"latitude":"51.464428","street":{"id":943696,"name":"On or near St John's Road"},"longitude":"-0.299247"},"context":"","outcome_status":null,"persistent_id":"","id":74288730,"location_subtype":"","month":"2019-05"},{"category":"anti-social-behaviour","location_type":"Force","location":{"latitude":"51.464428","street":{"id":943696,"name":"On or near St John's Road"},"longitude":"-0.299247"},"context":"","outcome_status":null,"persistent_id":"","id":74288731,"location_subtype":"","month":"2019-05"},{"category":"anti-social-behaviour","location_type":"Force","location":{"latitude":"51.458964","street":{"id":943720,"name":"On or near Grosvenor Avenue"},"longitude":"-0.300717"},"context":"","outcome_status":null,"persistent_id":"","id":74288732,"location_subtype":"","month":"2019-05"},{"category":"anti-social-behaviour","location_type":"Force","location":{"latitude":"51.456194","street":{"id":943759,"name":"On or near Ellerker Gardens"},"longitude":"-0.301900"},"context":"","outcome_status":null,"persistent_id":"","id":74288733,"location_subtype":"","month":"2019-05"},{"category":"anti-social-behaviour","location_type":"Force","location":{"latitude":"51.465059","street":{"id":943697,"name":"On or near St John's Grove"},"longitude":"-0.301844"},"context":"","outcome_status":null,"persistent_id":"","id":74288734,"location_subtype":"","month":"2019-05"},{"category":"anti-social-behaviour","location_type":"Force","location":{"latitude":"51.462661","street":{"id":943684,"name":"On or near Parking Area"},"longitude":"-0.300767"},"context":"","outcome_status":null,"persistent_id":"","id":74288735,"location_subtype":"","month":"2019-05"},{"category":"anti-social-behaviour","location_type":"Force","location":{"latitude":"51.458291","street":{"id":943744,"name":"On or near The Vineyard"},"longitude":"-0.300181"},"context":"","outcome_status":null,"persistent_id":"","id":74288736,"location_subtype":"","month":"2019-05"},{"category":"anti-social-behaviour","location_type":"Force","location":{"latitude":"51.458291","street":{"id":943744,"name":"On or near The Vineyard"},"longitude":"-0.300181"},"context":"","outcome_status":null,"persistent_id":"","id":74288737,"location_subtype":"","month":"2019-05"},{"category":"anti-social-behaviour","location_type":"Force","location":{"latitude":"51.451406","street":{"id":939092,"name":"On or near Nightingale Lane"},"longitude":"-0.299774"},"context":"","outcome_status":null,"persistent_id":"","id":74288738,"location_subtype":"","month":"2019-05"},{"category":"anti-social-behaviour","location_type":"Force","location":{"latitude":"51.459227","street":{"id":943718,"name":"On or near Halford Road"},"longitude":"-0.302132"},"context":"","outcome_status":null,"persistent_id":"","id":74288739,"location_subtype":"","month":"2019-05"},{"category":"anti-social-behaviour","location_type":"Force","location":{"latitude":"51.458501","street":{"id":943745,"name":"On or near The Hermitage"},"longitude":"-0.302894"},"context":"","outcome_status":null,"persistent_id":"","id":74288740,"location_subtype":"","month":"2019-05"},{"category":"anti-social-behaviour","location_type":"Force","location":{"latitude":"51.460699","street":{"id":943725,"name":"On or near Eton Street"},"longitude":"-0.302553"},"context":"","outcome_status":null,"persistent_id":"","id":74288741,"location_subtype":"","month":"2019-05"},{"category":"anti-social-behaviour","location_type":"Force","location":{"latitude":"51.461264","street":{"id":943692,"name":"On or near The Square"},"longitude":"-0.303021"},"context":"","outcome_status":null,"persistent_id":"","id":74288742,"location_subtype":"","month":"2019-05"},{"category":"anti-social-behaviour","location_type":"Force","location":{"latitude":"51.461264","street":{"id":943692,"name":"On or near The Square"},"longitude":"-0.303021"},"context":"","outcome_status":null,"persistent_id":"","id":74288743,"location_subtype":"","month":"2019-05"},{"category":"anti-social-behaviour","location_type":"Force","location":{"latitude":"51.461264","street":{"id":943692,"name":"On or near The Square"},"longitude":"-0.303021"},"context":"","outcome_status":null,"persistent_id":"","id":74288744,"location_subtype":"","month":"2019-05"},{"category":"anti-social-behaviour","location_type":"Force","location":{"latitude":"51.461264","street":{"id":943692,"name":"On or near The Square"},"longitude":"-0.303021"},"context":"","outcome_status":null,"persistent_id":"","id":74288745,"location_subtype":"","month":"2019-05"},{"category":"anti-social-behaviour","location_type":"Force","location":{"latitude":"51.461264","street":{"id":943692,"name":"On or near The Square"},"longitude":"-0.303021"},"context":"","outcome_status":null,"persistent_id":"","id":74288746,"location_subtype":"","month":"2019-05"},{"category":"anti-social-behaviour","location_type":"Force","location":{"latitude":"51.461264","street":{"id":943692,"name":"On or near The Square"},"longitude":"-0.303021"},"context":"","outcome_status":null,"persistent_id":"","id":74288747,"location_subtype":"","month":"2019-05"},{"category":"anti-social-behaviour","location_type":"Force","location":{"latitude":"51.459995","street":{"id":943704,"name":"On or near Paradise Road"},"longitude":"-0.302996"},"context":"","outcome_status":null,"persistent_id":"","id":74288748,"location_subtype":"","month":"2019-05"},{"category":"anti-social-behaviour","location_type":"Force","location":{"latitude":"51.456194","street":{"id":943759,"name":"On or near Ellerker Gardens"},"longitude":"-0.301900"},"context":"","outcome_status":null,"persistent_id":"","id":74288749,"location_subtype":"","month":"2019-05"},{"category":"anti-social-behaviour","location_type":"Force","location":{"latitude":"51.456741","street":{"id":943761,"name":"On or near Compass Hill"},"longitude":"-0.303679"},"context":"","outcome_status":null,"persistent_id":"","id":74288751,"location_subtype":"","month":"2019-05"},{"category":"anti-social-behaviour","location_type":"Force","location":{"latitude":"51.460545","street":{"id":943721,"name":"On or near George Street"},"longitude":"-0.304963"},"context":"","outcome_status":null,"persistent_id":"","id":74288754,"location_subtype":"","month":"2019-05"},{"category":"anti-social-behaviour","location_type":"Force","location":{"latitude":"51.460545","street":{"id":943721,"name":"On or near George Street"},"longitude":"-0.304963"},"context":"","outcome_status":null,"persistent_id":"","id":74288755,"location_subtype":"","month":"2019-05"},{"category":"anti-social-behaviour","location_type":"Force","location":{"latitude":"51.462600","street":{"id":943679,"name":"On or near Portland Terrace"},"longitude":"-0.306484"},"context":"","outcome_status":null,"persistent_id":"","id":74288759,"location_subtype":"","month":"2019-05"},{"category":"anti-social-behaviour","location_type":"Force","location":{"latitude":"51.453847","street":{"id":939124,"name":"On or near Denton Road"},"longitude":"-0.306880"},"context":"","outcome_status":null,"persistent_id":"","id":74288757,"location_subtype":"","month":"2019-05"},{"category":"anti-social-behaviour","location_type":"Force","location":{"latitude":"51.458932","street":{"id":943785,"name":"On or near Whittaker Avenue"},"longitude":"-0.306606"},"context":"","outcome_status":null,"persistent_id":"","id":74288758,"location_subtype":"","month":"2019-05"},{"category":"anti-social-behaviour","location_type":"Force","location":{"latitude":"51.455912","street":{"id":943786,"name":"On or near Clevedon Road"},"longitude":"-0.306689"},"context":"","outcome_status":null,"persistent_id":"","id":74288760,"location_subtype":"","month":"2019-05"},{"category":"anti-social-behaviour","location_type":"Force","location":{"latitude":"51.463827","street":{"id":943676,"name":"On or near Twickenham Road"},"longitude":"-0.308066"},"context":"","outcome_status":null,"persistent_id":"","id":74288761,"location_subtype":"","month":"2019-05"},{"category":"anti-social-behaviour","location_type":"Force","location":{"latitude":"51.463827","street":{"id":943676,"name":"On or near Twickenham Road"},"longitude":"-0.308066"},"context":"","outcome_status":null,"persistent_id":"","id":74288762,"location_subtype":"","month":"2019-05"},{"category":"anti-social-behaviour","location_type":"Force","location":{"latitude":"51.454630","street":{"id":939109,"name":"On or near Morley Road"},"longitude":"-0.309457"},"context":"","outcome_status":null,"persistent_id":"","id":74288769,"location_subtype":"","month":"2019-05"},{"category":"anti-social-behaviour","location_type":"Force","location":{"latitude":"51.463707","street":{"id":943787,"name":"On or near Sports\/recreation Area"},"longitude":"-0.314073"},"context":"","outcome_status":null,"persistent_id":"","id":74288773,"location_subtype":"","month":"2019-05"},{"category":"anti-social-behaviour","location_type":"Force","location":{"latitude":"51.456863","street":{"id":943774,"name":"On or near Ravensbourne Road"},"longitude":"-0.315232"},"context":"","outcome_status":null,"persistent_id":"","id":74288775,"location_subtype":"","month":"2019-05"},{"category":"anti-social-behaviour","location_type":"Force","location":{"latitude":"51.457274","street":{"id":943783,"name":"On or near Arlington Close"},"longitude":"-0.316340"},"context":"","outcome_status":null,"persistent_id":"","id":74288780,"location_subtype":"","month":"2019-05"},{"category":"anti-social-behaviour","location_type":"Force","location":{"latitude":"51.459180","street":{"id":943668,"name":"On or near The Avenue"},"longitude":"-0.316270"},"context":"","outcome_status":null,"persistent_id":"","id":74288781,"location_subtype":"","month":"2019-05"},{"category":"bicycle-theft","location_type":"Force","location":{"latitude":"51.463352","street":{"id":943694,"name":"On or near The Quadrant"},"longitude":"-0.301951"},"context":"","outcome_status":{"category":"Status update unavailable","date":"2019-09"},"persistent_id":"c2f1e309a875ac8d05f432011b56de9586e6c2bd7449d07d680468554b7130ed","id":74330781,"location_subtype":"","month":"2019-05"},{"category":"bicycle-theft","location_type":"Force","location":{"latitude":"51.466580","street":{"id":943612,"name":"On or near Supermarket"},"longitude":"-0.286469"},"context":"","outcome_status":{"category":"Status update unavailable","date":"2019-09"},"persistent_id":"946395b40a6bb533e8f3a2ff8caacdb1d061ed2d6589e2f8de973346955b826b","id":74295577,"location_subtype":"","month":"2019-05"},{"category":"bicycle-theft","location_type":"Force","location":{"latitude":"51.462420","street":{"id":943693,"name":"On or near The Quadrant"},"longitude":"-0.302763"},"context":"","outcome_status":{"category":"Status update unavailable","date":"2019-09"},"persistent_id":"824ca1e2c717471990cf8d2f0935f606976b21917f477ca33c4360733ecfc724","id":74300048,"location_subtype":"","month":"2019-05"},{"category":"bicycle-theft","location_type":"BTP","location":{"latitude":"51.463369","street":{"id":1489919,"name":"Richmond (station)"},"longitude":"-0.299992"},"context":"","outcome_status":{"category":"Status update unavailable","date":"2019-09"},"persistent_id":"","id":88719021,"location_subtype":"STATION","month":"2019-05"},{"category":"bicycle-theft","location_type":"Force","location":{"latitude":"51.460117","street":{"id":943681,"name":"On or near Shopping Area"},"longitude":"-0.306418"},"context":"","outcome_status":{"category":"Status update unavailable","date":"2019-09"},"persistent_id":"7be407750b377a56cf14f655d695a188b3054e31fe0986e48e9e2e036e28a6b4","id":74301540,"location_subtype":"","month":"2019-05"},{"category":"bicycle-theft","location_type":"BTP","location":{"latitude":"51.463369","street":{"id":1489919,"name":"Richmond (station)"},"longitude":"-0.299992"},"context":"","outcome_status":{"category":"Status update unavailable","date":"2019-09"},"persistent_id":"","id":88719022,"location_subtype":"STATION","month":"2019-05"},{"category":"bicycle-theft","location_type":"BTP","location":{"latitude":"51.463369","street":{"id":1489919,"name":"Richmond (station)"},"longitude":"-0.299992"},"context":"","outcome_status":{"category":"Status update unavailable","date":"2019-09"},"persistent_id":"","id":88719023,"location_subtype":"STATION","month":"2019-05"},{"category":"bicycle-theft","location_type":"BTP","location":{"latitude":"51.463369","street":{"id":1489919,"name":"Richmond (station)"},"longitude":"-0.299992"},"context":"","outcome_status":{"category":"Status update unavailable","date":"2019-09"},"persistent_id":"","id":88719024,"location_subtype":"STATION","month":"2019-05"},{"category":"bicycle-theft","location_type":"BTP","location":{"latitude":"51.463369","street":{"id":1489919,"name":"Richmond (station)"},"longitude":"-0.299992"},"context":"","outcome_status":{"category":"Status update unavailable","date":"2019-09"},"persistent_id":"","id":88719025,"location_subtype":"STATION","month":"2019-05"},{"category":"bicycle-theft","location_type":"Force","location":{"latitude":"51.465953","street":{"id":943724,"name":"On or near Evelyn Gardens"},"longitude":"-0.297722"},"context":"","outcome_status":{"category":"Investigation complete; no suspect identified","date":"2020-03"},"persistent_id":"512c7e0959ca56d36c45028f7cbb1741d1d7a2aebe718ce7c9d81430bc9f4102","id":74294629,"location_subtype":"","month":"2019-05"},{"category":"bicycle-theft","location_type":"Force","location":{"latitude":"51.463352","street":{"id":943694,"name":"On or near The Quadrant"},"longitude":"-0.301951"},"context":"","outcome_status":{"category":"Status update unavailable","date":"2019-09"},"persistent_id":"15590f52ece48c0c80d1d9f744b8b1017b308a05bf01ffe21b10c57284aa3b10","id":74308829,"location_subtype":"","month":"2019-05"},{"category":"bicycle-theft","location_type":"Force","location":{"latitude":"51.460117","street":{"id":943681,"name":"On or near Shopping Area"},"longitude":"-0.306418"},"context":"","outcome_status":{"category":"Status update unavailable","date":"2019-09"},"persistent_id":"d6f0919b6e03d74fd8128b2ba0a221b56f2a2e348e9c89a568212151d7969837","id":74305242,"location_subtype":"","month":"2019-05"},{"category":"bicycle-theft","location_type":"Force","location":{"latitude":"51.460545","street":{"id":943721,"name":"On or near George Street"},"longitude":"-0.304963"},"context":"","outcome_status":{"category":"Status update unavailable","date":"2019-09"},"persistent_id":"2464137a4a031612f898a36baa09fb88692bd4130557db5ee775eaca116c897f","id":74345111,"location_subtype":"","month":"2019-05"},{"category":"bicycle-theft","location_type":"Force","location":{"latitude":"51.460117","street":{"id":943681,"name":"On or near Shopping Area"},"longitude":"-0.306418"},"context":"","outcome_status":{"category":"Status update unavailable","date":"2019-09"},"persistent_id":"67f0d30a5c16139468af157634779425d2e954b666f8837a72b83008a77ad1cd","id":74305524,"location_subtype":"","month":"2019-05"},{"category":"bicycle-theft","location_type":"Force","location":{"latitude":"51.473900","street":{"id":944848,"name":"On or near The Avenue"},"longitude":"-0.291364"},"context":"","outcome_status":{"category":"Status update unavailable","date":"2019-09"},"persistent_id":"7f3e17d29c7db3e044768ae08a0c0536ca763376c57d7299e2b72faf4727fb8d","id":74305529,"location_subtype":"","month":"2019-05"},{"category":"bicycle-theft","location_type":"Force","location":{"latitude":"51.461486","street":{"id":943839,"name":"On or near Newry Road"},"longitude":"-0.324736"},"context":"","outcome_status":{"category":"Status update unavailable","date":"2019-09"},"persistent_id":"b57c91c724b0189f1f0666562a3b7fe89ce163dfb15c79b1545d760b754288b4","id":74346158,"location_subtype":"","month":"2019-05"},{"category":"bicycle-theft","location_type":"Force","location":{"latitude":"51.462420","street":{"id":943693,"name":"On or near The Quadrant"},"longitude":"-0.302763"},"context":"","outcome_status":{"category":"Status update unavailable","date":"2019-09"},"persistent_id":"fe299de69490c2565b6bdea335dc31199d0fd81dbf8804fb9c197a5b76210563","id":74345844,"location_subtype":"","month":"2019-05"},{"category":"bicycle-theft","location_type":"Force","location":{"latitude":"51.461526","street":{"id":943740,"name":"On or near Supermarket"},"longitude":"-0.301918"},"context":"","outcome_status":{"category":"Status update unavailable","date":"2019-09"},"persistent_id":"9bff7c2b059c5f74ba111772cd9e12606d1c75847d1e0b4fbff952de93ac945d","id":74315429,"location_subtype":"","month":"2019-05"},{"category":"bicycle-theft","location_type":"Force","location":{"latitude":"51.466580","street":{"id":943612,"name":"On or near Supermarket"},"longitude":"-0.286469"},"context":"","outcome_status":{"category":"Status update unavailable","date":"2019-09"},"persistent_id":"236b39adeed727dd3ebfe2afbe398659601150a099a1cec0179d5ed68b494e5e","id":74333656,"location_subtype":"","month":"2019-05"},{"category":"burglary","location_type":"Force","location":{"latitude":"51.456194","street":{"id":943759,"name":"On or near Ellerker Gardens"},"longitude":"-0.301900"},"context":"","outcome_status":{"category":"Status update unavailable","date":"2019-09"},"persistent_id":"b758f16b247acd0e0ba46b8890551757fe228e0a07d50aa1be7d62a0f4cd133a","id":74341556,"location_subtype":"","month":"2019-05"},{"category":"burglary","location_type":"Force","location":{"latitude":"51.461526","street":{"id":943740,"name":"On or near Supermarket"},"longitude":"-0.301918"},"context":"","outcome_status":{"category":"Court result unavailable","date":"2019-12"},"persistent_id":"c17cfa225ec10f71ad1eccb354d68ca87d27751d4aa21075af277f1af39af535","id":74305994,"location_subtype":"","month":"2019-05"},{"category":"burglary","location_type":"Force","location":{"latitude":"51.463827","street":{"id":943676,"name":"On or near Twickenham Road"},"longitude":"-0.308066"},"context":"","outcome_status":{"category":"Status update unavailable","date":"2019-09"},"persistent_id":"570b09c9a77fedafaed62388d06263e3f60051737c41735c41303c2fc8ceee9a","id":74330987,"location_subtype":"","month":"2019-05"},{"category":"burglary","location_type":"Force","location":{"latitude":"51.456851","street":{"id":943754,"name":"On or near Lancaster Mews"},"longitude":"-0.302609"},"context":"","outcome_status":{"category":"Status update unavailable","date":"2019-09"},"persistent_id":"dd9ca4d6f4629d48b48c1ffb9568636d33a60ac16dd0b48d5067b59feb079a68","id":74338953,"location_subtype":"","month":"2019-05"},{"category":"burglary","location_type":"Force","location":{"latitude":"51.458164","street":{"id":943652,"name":"On or near Royston Road"},"longitude":"-0.296990"},"context":"","outcome_status":{"category":"Status update unavailable","date":"2019-09"},"persistent_id":"a6ae3dcefda2ac983b767e7305902e6f85f81090c42a004d41bac47a9837e326","id":74338209,"location_subtype":"","month":"2019-05"},{"category":"burglary","location_type":"Force","location":{"latitude":"51.464009","street":{"id":943702,"name":"On or near Parkshot"},"longitude":"-0.302603"},"context":"","outcome_status":{"category":"Status update unavailable","date":"2019-09"},"persistent_id":"0cd8c17651e47c446e1daddf7127bbe3a399592fb7883ec98e4f5aef6e980df8","id":74342612,"location_subtype":"","month":"2019-05"},{"category":"burglary","location_type":"Force","location":{"latitude":"51.464009","street":{"id":943702,"name":"On or near Parkshot"},"longitude":"-0.302603"},"context":"","outcome_status":{"category":"Status update unavailable","date":"2019-09"},"persistent_id":"be228f02279df1e715c7ca93e2308e2f1563cf8c77ed0939686bc9ae9ae84006","id":74342367,"location_subtype":"","month":"2019-05"},{"category":"burglary","location_type":"Force","location":{"latitude":"51.453702","street":{"id":939098,"name":"On or near Ferry Terminal"},"longitude":"-0.303115"},"context":"","outcome_status":{"category":"Status update unavailable","date":"2019-09"},"persistent_id":"86ca49bbf8ff76cb3e526099e74b358f7bb60208379c5244dc9219925be1b7eb","id":74343130,"location_subtype":"","month":"2019-05"},{"category":"burglary","location_type":"Force","location":{"latitude":"51.459164","street":{"id":943581,"name":"On or near Kings Road"},"longitude":"-0.293455"},"context":"","outcome_status":{"category":"Status update unavailable","date":"2019-09"},"persistent_id":"7c66d5f2dbb5cfc7bd9c3b1a6dd263e4dda50f5f5186ebc5698d080fe44336dd","id":74295010,"location_subtype":"","month":"2019-05"},{"category":"burglary","location_type":"Force","location":{"latitude":"51.458932","street":{"id":943785,"name":"On or near Whittaker Avenue"},"longitude":"-0.306606"},"context":"","outcome_status":{"category":"Court result unavailable","date":"2019-11"},"persistent_id":"35b41c23d08b66b93042d5c92a695a0502e60c05497cd21557aad6229f9c787f","id":74344200,"location_subtype":"","month":"2019-05"},{"category":"burglary","location_type":"Force","location":{"latitude":"51.453847","street":{"id":939124,"name":"On or near Denton Road"},"longitude":"-0.306880"},"context":"","outcome_status":{"category":"Status update unavailable","date":"2019-09"},"persistent_id":"80cefa958dfc7bfbd3e418b8979e8351ddde21cbcadfd259d9846764ebaaa750","id":74307234,"location_subtype":"","month":"2019-05"},{"category":"burglary","location_type":"Force","location":{"latitude":"51.462142","street":{"id":943836,"name":"On or near Pomeroy Close"},"longitude":"-0.320307"},"context":"","outcome_status":{"category":"Status update unavailable","date":"2019-09"},"persistent_id":"bc5a212096bbb2fe15a1f56c259ca86d3108b511bceb803fc1813a263697682f","id":74335047,"location_subtype":"","month":"2019-05"},{"category":"burglary","location_type":"Force","location":{"latitude":"51.459535","street":{"id":943850,"name":"On or near Ailsa Road"},"longitude":"-0.320978"},"context":"","outcome_status":{"category":"Status update unavailable","date":"2019-09"},"persistent_id":"a07be3ab5eef5e80594f2df4a75604692f5d216ffc8bc87cbaaba4cc8ee0b377","id":74296345,"location_subtype":"","month":"2019-05"},{"category":"burglary","location_type":"Force","location":{"latitude":"51.462600","street":{"id":943679,"name":"On or near Portland Terrace"},"longitude":"-0.306484"},"context":"","outcome_status":{"category":"Status update unavailable","date":"2019-09"},"persistent_id":"7f419ba31ef2919f2ec2e5715019faceadb7462f05d92a16d4cc2d841f201a79","id":74318011,"location_subtype":"","month":"2019-05"},{"category":"burglary","location_type":"Force","location":{"latitude":"51.458164","street":{"id":943652,"name":"On or near Royston Road"},"longitude":"-0.296990"},"context":"","outcome_status":{"category":"Status update unavailable","date":"2019-09"},"persistent_id":"8a47f829fbd2ea6b26ee3f5ac50a745f4e9d8794ff898e08cea91cc3bd2a4a08","id":74290220,"location_subtype":"","month":"2019-05"},{"category":"burglary","location_type":"Force","location":{"latitude":"51.473047","street":{"id":944871,"name":"On or near Eversfield Road"},"longitude":"-0.291511"},"context":"","outcome_status":{"category":"Investigation complete; no suspect identified","date":"2020-03"},"persistent_id":"1247c1cea447d0875582b0e5f4535117e7b2cf10854d18d2f157fba467e89ba2","id":74307261,"location_subtype":"","month":"2019-05"},{"category":"burglary","location_type":"Force","location":{"latitude":"51.451934","street":{"id":939123,"name":"On or near Powers Court"},"longitude":"-0.308275"},"context":"","outcome_status":{"category":"Status update unavailable","date":"2019-09"},"persistent_id":"0b1c4830f2608b2debf37122de37673c3da4d4b496eb113aea13251756fd48c9","id":74332801,"location_subtype":"","month":"2019-05"},{"category":"burglary","location_type":"Force","location":{"latitude":"51.469046","street":{"id":944897,"name":"On or near Dancer Road"},"longitude":"-0.285988"},"context":"","outcome_status":{"category":"Status update unavailable","date":"2019-09"},"persistent_id":"22e793c3585a0d25e851422aba5235ff6dd25e15ccc3b4991ee87e18ff4905e1","id":74331871,"location_subtype":"","month":"2019-05"},{"category":"burglary","location_type":"Force","location":{"latitude":"51.458052","street":{"id":943749,"name":"On or near Onslow Avenue"},"longitude":"-0.299196"},"context":"","outcome_status":{"category":"Status update unavailable","date":"2019-09"},"persistent_id":"856b147b41437a10b508b76d07dc51438c4134a5e735a0b1894ffef8146cafd4","id":74290222,"location_subtype":"","month":"2019-05"},{"category":"burglary","location_type":"Force","location":{"latitude":"51.456194","street":{"id":943759,"name":"On or near Ellerker Gardens"},"longitude":"-0.301900"},"context":"","outcome_status":{"category":"Court result unavailable","date":"2019-11"},"persistent_id":"7fce4fc5fd8c5313a523a539a96d3935dfc5f40b02d7c956feb1c44dd2d05b30","id":74302358,"location_subtype":"","month":"2019-05"},{"category":"burglary","location_type":"Force","location":{"latitude":"51.462416","street":{"id":943845,"name":"On or near Heron Road"},"longitude":"-0.324356"},"context":"","outcome_status":{"category":"Status update unavailable","date":"2019-09"},"persistent_id":"4262ce18e5e5f5e7880873937d2e11be705ad9b98d723563aef511367e61a07f","id":74353264,"location_subtype":"","month":"2019-05"},{"category":"burglary","location_type":"Force","location":{"latitude":"51.458291","street":{"id":943744,"name":"On or near The Vineyard"},"longitude":"-0.300181"},"context":"","outcome_status":{"category":"Status update unavailable","date":"2019-09"},"persistent_id":"847a2e9b6db608d1f240979fc45a9ba549c4f92ba6f6b0938da89079415df94c","id":74291504,"location_subtype":"","month":"2019-05"},{"category":"burglary","location_type":"Force","location":{"latitude":"51.451406","street":{"id":939092,"name":"On or near Nightingale Lane"},"longitude":"-0.299774"},"context":"","outcome_status":{"category":"Status update unavailable","date":"2019-09"},"persistent_id":"39a60ccc169785616c4576b5f7e682f43aaa5f214b6854407f41494ddfbf5669","id":74309128,"location_subtype":"","month":"2019-05"},{"category":"burglary","location_type":"Force","location":{"latitude":"51.458291","street":{"id":943744,"name":"On or near The Vineyard"},"longitude":"-0.300181"},"context":"","outcome_status":{"category":"Status update unavailable","date":"2019-09"},"persistent_id":"847a2e9b6db608d1f240979fc45a9ba549c4f92ba6f6b0938da89079415df94c","id":74291505,"location_subtype":"","month":"2019-05"},{"category":"burglary","location_type":"Force","location":{"latitude":"51.467915","street":{"id":943611,"name":"On or near Conference\/exhibition Centre"},"longitude":"-0.296584"},"context":"","outcome_status":{"category":"Status update unavailable","date":"2019-09"},"persistent_id":"9677a16a88b30493d62bffcf61ace815ea2640faa8b9009b6c1fb631d9ca64dd","id":74308014,"location_subtype":"","month":"2019-05"},{"category":"burglary","location_type":"Force","location":{"latitude":"51.458164","street":{"id":943652,"name":"On or near Royston Road"},"longitude":"-0.296990"},"context":"","outcome_status":{"category":"Status update unavailable","date":"2019-09"},"persistent_id":"8a47f829fbd2ea6b26ee3f5ac50a745f4e9d8794ff898e08cea91cc3bd2a4a08","id":74290221,"location_subtype":"","month":"2019-05"},{"category":"burglary","location_type":"Force","location":{"latitude":"51.468561","street":{"id":944906,"name":"On or near Niton Road"},"longitude":"-0.284163"},"context":"","outcome_status":{"category":"Status update unavailable","date":"2019-09"},"persistent_id":"ab53f7b4d2609b1f7458214a8d3dcf4272b07c5d0f38370ed989e21c1c46c1f0","id":74364664,"location_subtype":"","month":"2019-05"},{"category":"burglary","location_type":"Force","location":{"latitude":"51.463952","street":{"id":943557,"name":"On or near Townshend Terrace"},"longitude":"-0.291865"},"context":"","outcome_status":{"category":"Status update unavailable","date":"2019-09"},"persistent_id":"fff9e3da61de7f9a8c7eb1ed9f28bf424647e60a848b8b191d3217b8c1e36ebd","id":74342202,"location_subtype":"","month":"2019-05"},{"category":"burglary","location_type":"Force","location":{"latitude":"51.460252","street":{"id":943563,"name":"On or near Spring Grove Road"},"longitude":"-0.292205"},"context":"","outcome_status":{"category":"Status update unavailable","date":"2019-09"},"persistent_id":"eb914d23d2c474b8d67604979e3e114ee994fd33f8a032dfccd1b63e12d939ea","id":74294109,"location_subtype":"","month":"2019-05"},{"category":"burglary","location_type":"Force","location":{"latitude":"51.468561","street":{"id":944906,"name":"On or near Niton Road"},"longitude":"-0.284163"},"context":"","outcome_status":{"category":"Status update unavailable","date":"2019-09"},"persistent_id":"1114ffc59b5c8271d02ee736d8cccf42c18ee71703503f0bdf18eaea066d3848","id":74347688,"location_subtype":"","month":"2019-05"},{"category":"burglary","location_type":"Force","location":{"latitude":"51.456194","street":{"id":943759,"name":"On or near Ellerker Gardens"},"longitude":"-0.301900"},"context":"","outcome_status":{"category":"Status update unavailable","date":"2019-09"},"persistent_id":"2d22406af0b874dd32a0c5d530e861cd804b682392e8c2c362a05bc124e3d637","id":74355052,"location_subtype":"","month":"2019-05"},{"category":"burglary","location_type":"Force","location":{"latitude":"51.462600","street":{"id":943679,"name":"On or near Portland Terrace"},"longitude":"-0.306484"},"context":"","outcome_status":{"category":"Status update unavailable","date":"2019-09"},"persistent_id":"1bcda54392e05928f392ae424575186b930e4ecaa08573de3f5e9abfdae40859","id":74312800,"location_subtype":"","month":"2019-05"},{"category":"burglary","location_type":"Force","location":{"latitude":"51.459377","street":{"id":943731,"name":"On or near Church Terrace"},"longitude":"-0.303739"},"context":"","outcome_status":{"category":"Status update unavailable","date":"2019-09"},"persistent_id":"49ef20ad069917b5cda6e124c03b0369879f4cee4d226131ba68c6d0d6f3a5dd","id":74354289,"location_subtype":"","month":"2019-05"},{"category":"burglary","location_type":"Force","location":{"latitude":"51.454395","street":{"id":939105,"name":"On or near St Margaret's Road"},"longitude":"-0.314344"},"context":"","outcome_status":{"category":"Status update unavailable","date":"2019-09"},"persistent_id":"caa482ab4daadf8f19a8cbe72d570dce50a8ebd3821a2b1d2c1079869571583c","id":74333003,"location_subtype":"","month":"2019-05"},{"category":"burglary","location_type":"Force","location":{"latitude":"51.464983","street":{"id":943591,"name":"On or near Dee Road"},"longitude":"-0.291611"},"context":"","outcome_status":{"category":"Status update unavailable","date":"2019-09"},"persistent_id":"3bfe31d7db1efaba2851e59c4b7e62ed4dd56772af8f6b5da3e142cee642b7f0","id":74333027,"location_subtype":"","month":"2019-05"},{"category":"criminal-damage-arson","location_type":"Force","location":{"latitude":"51.453455","street":{"id":939150,"name":"On or near Reynolds Place"},"longitude":"-0.294157"},"context":"","outcome_status":{"category":"Status update unavailable","date":"2019-09"},"persistent_id":"0dfd8ada533de1465625f24f1c5578b6791679330f993e89f7263878730d0c05","id":74294935,"location_subtype":"","month":"2019-05"},{"category":"criminal-damage-arson","location_type":"Force","location":{"latitude":"51.460252","street":{"id":943563,"name":"On or near Spring Grove Road"},"longitude":"-0.292205"},"context":"","outcome_status":{"category":"Status update unavailable","date":"2019-09"},"persistent_id":"e56f3be836180dff007bffc96127547dded845564cd4cf748f8a84bd27872e0f","id":74351088,"location_subtype":"","month":"2019-05"},{"category":"criminal-damage-arson","location_type":"Force","location":{"latitude":"51.458124","street":{"id":943756,"name":"On or near Hill Street"},"longitude":"-0.305427"},"context":"","outcome_status":{"category":"Local resolution","date":"2019-05"},"persistent_id":"7950462ba3c684695b239decfdc88c46b961488d4212fe2dfa4a9d272f669216","id":74313038,"location_subtype":"","month":"2019-05"},{"category":"criminal-damage-arson","location_type":"BTP","location":{"latitude":"51.463369","street":{"id":1489919,"name":"Richmond (station)"},"longitude":"-0.299992"},"context":"","outcome_status":{"category":"Status update unavailable","date":"2019-09"},"persistent_id":"","id":88719019,"location_subtype":"STATION","month":"2019-05"},{"category":"criminal-damage-arson","location_type":"Force","location":{"latitude":"51.470369","street":{"id":944917,"name":"On or near Sports\/recreation Area"},"longitude":"-0.284844"},"context":"","outcome_status":{"category":"Status update unavailable","date":"2019-09"},"persistent_id":"7766efa094e348563b21a249eb32e13ec5f3f3f6bba452114656fcb73a9c3b8f","id":74342017,"location_subtype":"","month":"2019-05"},{"category":"criminal-damage-arson","location_type":"Force","location":{"latitude":"51.466580","street":{"id":943612,"name":"On or near Supermarket"},"longitude":"-0.286469"},"context":"","outcome_status":{"category":"Status update unavailable","date":"2019-09"},"persistent_id":"2900f61664708d20482541de26be9f9b67b16afd1c446acc7a28b55a7df9d589","id":74348166,"location_subtype":"","month":"2019-05"},{"category":"criminal-damage-arson","location_type":"Force","location":{"latitude":"51.462428","street":{"id":943842,"name":"On or near Kilmorey Road"},"longitude":"-0.321434"},"context":"","outcome_status":{"category":"Status update unavailable","date":"2019-09"},"persistent_id":"3db1ef2646eb80255556e042604e0e87edae5770d897c6c8b0199b070fa9cd30","id":74343581,"location_subtype":"","month":"2019-05"},{"category":"criminal-damage-arson","location_type":"Force","location":{"latitude":"51.472128","street":{"id":944846,"name":"On or near Walpole Avenue"},"longitude":"-0.291992"},"context":"","outcome_status":{"category":"Investigation complete; no suspect identified","date":"2020-06"},"persistent_id":"2dd7b19e6c070ddd33ae281ded5ee4206bb6ef458d50c5efb92db4cea75c1748","id":74306806,"location_subtype":"","month":"2019-05"},{"category":"criminal-damage-arson","location_type":"Force","location":{"latitude":"51.461689","street":{"id":943552,"name":"On or near Worple Way"},"longitude":"-0.295750"},"context":"","outcome_status":{"category":"Status update unavailable","date":"2019-09"},"persistent_id":"11e4c42656201e6a00033b2a9e615aecff325874123a36b36b86694ef6ab5c1d","id":74332996,"location_subtype":"","month":"2019-05"},{"category":"criminal-damage-arson","location_type":"Force","location":{"latitude":"51.466580","street":{"id":943612,"name":"On or near Supermarket"},"longitude":"-0.286469"},"context":"","outcome_status":{"category":"Status update unavailable","date":"2019-09"},"persistent_id":"c0e9f2d6f7399997682f3df1e565650a6a5218cc3374bb562e4c8503aed4fbf8","id":74303445,"location_subtype":"","month":"2019-05"},{"category":"criminal-damage-arson","location_type":"Force","location":{"latitude":"51.463352","street":{"id":943694,"name":"On or near The Quadrant"},"longitude":"-0.301951"},"context":"","outcome_status":{"category":"Status update unavailable","date":"2019-09"},"persistent_id":"f747b56c9cc6c2b726415f88e72992ff0df3bc3a2153ea74e3316fad8e80b62c","id":74330862,"location_subtype":"","month":"2019-05"},{"category":"criminal-damage-arson","location_type":"Force","location":{"latitude":"51.472128","street":{"id":944846,"name":"On or near Walpole Avenue"},"longitude":"-0.291992"},"context":"","outcome_status":{"category":"Status update unavailable","date":"2019-09"},"persistent_id":"6d244093e1734df5ffc8d5dd31bbd97e51f04c7693083745329a0b1cebb2127d","id":74302162,"location_subtype":"","month":"2019-05"},{"category":"criminal-damage-arson","location_type":"Force","location":{"latitude":"51.464588","street":{"id":943576,"name":"On or near Manor Park"},"longitude":"-0.289221"},"context":"","outcome_status":{"category":"Status update unavailable","date":"2019-09"},"persistent_id":"c3893b632fdeed7807b2ae33b6a16f7ed525f35d6397696fb19c9cd463cff675","id":74302204,"location_subtype":"","month":"2019-05"},{"category":"criminal-damage-arson","location_type":"Force","location":{"latitude":"51.460837","street":{"id":943739,"name":"On or near Supermarket"},"longitude":"-0.303987"},"context":"","outcome_status":{"category":"Status update unavailable","date":"2019-09"},"persistent_id":"c4c6f296c8383cef5728df6e077473a837b93b30b68dc9a86f0683c728b8e51e","id":74350633,"location_subtype":"","month":"2019-05"},{"category":"criminal-damage-arson","location_type":"Force","location":{"latitude":"51.463862","street":{"id":943734,"name":"On or near Catherine Drive"},"longitude":"-0.298030"},"context":"","outcome_status":{"category":"Status update unavailable","date":"2019-09"},"persistent_id":"d3e5d030c3a7c18e6116ac230346e046aebf3dda82619ec00d63af63de5f4aea","id":74353720,"location_subtype":"","month":"2019-05"},{"category":"criminal-damage-arson","location_type":"Force","location":{"latitude":"51.466234","street":{"id":943699,"name":"On or near Shaftesbury Road"},"longitude":"-0.299770"},"context":"","outcome_status":{"category":"Status update unavailable","date":"2019-09"},"persistent_id":"d185c8503723bcc27856fa3f8be15234af2b95bb146771c0e66bae0e6a6322d5","id":74352696,"location_subtype":"","month":"2019-05"},{"category":"criminal-damage-arson","location_type":"Force","location":{"latitude":"51.471656","street":{"id":944896,"name":"On or near Dudley Road"},"longitude":"-0.288007"},"context":"","outcome_status":{"category":"Status update unavailable","date":"2019-09"},"persistent_id":"94835a01c7a02e09fc398af38f6e3ffc10169b71a2141e6cf097b978fdfc40ec","id":74297128,"location_subtype":"","month":"2019-05"},{"category":"criminal-damage-arson","location_type":"Force","location":{"latitude":"51.470369","street":{"id":944917,"name":"On or near Sports\/recreation Area"},"longitude":"-0.284844"},"context":"","outcome_status":{"category":"Status update unavailable","date":"2019-09"},"persistent_id":"2374f782f95ca2617219b710b614ba243537668ba28cc6d7bf75a8539ec77cad","id":74336242,"location_subtype":"","month":"2019-05"},{"category":"criminal-damage-arson","location_type":"Force","location":{"latitude":"51.460415","street":{"id":943698,"name":"On or near St James's Cottages"},"longitude":"-0.302823"},"context":"","outcome_status":{"category":"Investigation complete; no suspect identified","date":"2019-07"},"persistent_id":"49dad5cc3b8408a7816fe302318bd65886d6f0e219e630cc9a1337320c32008a","id":74366649,"location_subtype":"","month":"2019-05"},{"category":"criminal-damage-arson","location_type":"Force","location":{"latitude":"51.462420","street":{"id":943693,"name":"On or near The Quadrant"},"longitude":"-0.302763"},"context":"","outcome_status":{"category":"Status update unavailable","date":"2019-09"},"persistent_id":"711ec2b4d0c3dcdcbfdeeba6058eb5655f092832a340d66012a15df55133603e","id":74294515,"location_subtype":"","month":"2019-05"},{"category":"criminal-damage-arson","location_type":"Force","location":{"latitude":"51.466064","street":{"id":943579,"name":"On or near Lower Mortlake Road"},"longitude":"-0.293601"},"context":"","outcome_status":{"category":"Status update unavailable","date":"2019-09"},"persistent_id":"cb4ea62e1dadae9ef44044f583b180fdca1bc8089abb7f072d91ac2774e325c0","id":74366651,"location_subtype":"","month":"2019-05"},{"category":"criminal-damage-arson","location_type":"Force","location":{"latitude":"51.463707","street":{"id":943787,"name":"On or near Sports\/recreation Area"},"longitude":"-0.314073"},"context":"","outcome_status":{"category":"Status update unavailable","date":"2019-09"},"persistent_id":"113203dbbf316995eceeba8c188df960d40cc0ce70d35d87e27abe74abe99f6b","id":74304034,"location_subtype":"","month":"2019-05"},{"category":"criminal-damage-arson","location_type":"Force","location":{"latitude":"51.465322","street":{"id":943831,"name":"On or near Richmond Road"},"longitude":"-0.323185"},"context":"","outcome_status":{"category":"Court result unavailable","date":"2020-02"},"persistent_id":"3e115abf9adaed885ffc877b25c4441a7ec239a3f892e428b9bd13f8333ceca7","id":74302640,"location_subtype":"","month":"2019-05"},{"category":"criminal-damage-arson","location_type":"Force","location":{"latitude":"51.466580","street":{"id":943612,"name":"On or near Supermarket"},"longitude":"-0.286469"},"context":"","outcome_status":{"category":"Status update unavailable","date":"2019-09"},"persistent_id":"af52dd7a641d2915d6b1d5c4c5f3f3c50accd76585da6b4c220a6bba1c5efca9","id":74308540,"location_subtype":"","month":"2019-05"},{"category":"drugs","location_type":"Force","location":{"latitude":"51.461963","street":{"id":943701,"name":"On or near Quadrant Road"},"longitude":"-0.303471"},"context":"","outcome_status":{"category":"Court result unavailable","date":"2020-01"},"persistent_id":"61be9c39ef21ce220e23ad72ebf56afa1fe458ef1cc5d9cd518a2b179d393795","id":74292781,"location_subtype":"","month":"2019-05"},{"category":"drugs","location_type":"Force","location":{"latitude":"51.464641","street":{"id":943575,"name":"On or near Manor Road"},"longitude":"-0.288514"},"context":"","outcome_status":{"category":"Court result unavailable","date":"2019-11"},"persistent_id":"e5603536e19ddee13870f44bb068323251d270ab81747b1da57328e8d6c24347","id":74349170,"location_subtype":"","month":"2019-05"},{"category":"other-theft","location_type":"Force","location":{"latitude":"51.463352","street":{"id":943694,"name":"On or near The Quadrant"},"longitude":"-0.301951"},"context":"","outcome_status":{"category":"Status update unavailable","date":"2019-09"},"persistent_id":"b9e9dc75c745f657d3a867f41d1265abc1d7f8b96769df2f4e69a5b0db823a43","id":74349390,"location_subtype":"","month":"2019-05"},{"category":"other-theft","location_type":"Force","location":{"latitude":"51.459939","street":{"id":943738,"name":"On or near Shopping Area"},"longitude":"-0.305287"},"context":"","outcome_status":{"category":"Investigation complete; no suspect identified","date":"2020-03"},"persistent_id":"1a5e238f69a5441b4d1e5ef9aef405417f28272c302a2b0c29e16c9a04b3775f","id":74347106,"location_subtype":"","month":"2019-05"},{"category":"other-theft","location_type":"Force","location":{"latitude":"51.466231","street":{"id":943715,"name":"On or near Kew Foot Road"},"longitude":"-0.301383"},"context":"","outcome_status":{"category":"Status update unavailable","date":"2019-09"},"persistent_id":"1b722eef4827cfa66fd3c131a749737f63a20e6e50ddffa1da699792efa7d61c","id":74301013,"location_subtype":"","month":"2019-05"},{"category":"other-theft","location_type":"Force","location":{"latitude":"51.460545","street":{"id":943721,"name":"On or near George Street"},"longitude":"-0.304963"},"context":"","outcome_status":{"category":"Status update unavailable","date":"2019-09"},"persistent_id":"e674b801b43c5d652513d2e33c1c10aec3adddf8c6f92ecec3755257a82b9199","id":74342173,"location_subtype":"","month":"2019-05"},{"category":"other-theft","location_type":"Force","location":{"latitude":"51.455102","street":{"id":943660,"name":"On or near Friars Stile Road"},"longitude":"-0.297291"},"context":"","outcome_status":{"category":"Investigation complete; no suspect identified","date":"2020-03"},"persistent_id":"987d5ce3f7816b8a7a6bb07d8d24464a7b9a0c3e54a232553fc073d8ab5210f0","id":74343307,"location_subtype":"","month":"2019-05"},{"category":"other-theft","location_type":"Force","location":{"latitude":"51.472295","street":{"id":944857,"name":"On or near North Road"},"longitude":"-0.286183"},"context":"","outcome_status":{"category":"Status update unavailable","date":"2019-09"},"persistent_id":"cc2c649ee6ec3a4d81024ddc6d3ed5a60cc52a04a8f84f07c84fbf3be8dac9ae","id":74367340,"location_subtype":"","month":"2019-05"},{"category":"other-theft","location_type":"Force","location":{"latitude":"51.464064","street":{"id":943578,"name":"On or near Manor Gardens"},"longitude":"-0.289025"},"context":"","outcome_status":{"category":"Status update unavailable","date":"2019-09"},"persistent_id":"580d0fb11c3da8f37a0b8ab6ab180e58f6d12fd98d02a305241fe48bc86c9e73","id":74362767,"location_subtype":"","month":"2019-05"},{"category":"other-theft","location_type":"Force","location":{"latitude":"51.461298","street":{"id":943741,"name":"On or near Shopping Area"},"longitude":"-0.304186"},"context":"","outcome_status":{"category":"Status update unavailable","date":"2019-09"},"persistent_id":"c57e9af73c19260c2217ed1c4e93039edc5a611a2d98d2789b099557a6eea52b","id":74293316,"location_subtype":"","month":"2019-05"},{"category":"other-theft","location_type":"Force","location":{"latitude":"51.455089","street":{"id":939103,"name":"On or near The Barons"},"longitude":"-0.318248"},"context":"","outcome_status":{"category":"Investigation complete; no suspect identified","date":"2020-03"},"persistent_id":"8f14c2b48e5592df84a8fe8c66f08712dcde94d187ad867cb8cb6026267b8d7d","id":74293401,"location_subtype":"","month":"2019-05"},{"category":"other-theft","location_type":"Force","location":{"latitude":"51.466231","street":{"id":943715,"name":"On or near Kew Foot Road"},"longitude":"-0.301383"},"context":"","outcome_status":{"category":"Status update unavailable","date":"2019-09"},"persistent_id":"ac6ff90811a647062337e2e82b062e0a060faba2cca11f468cefefc62b681c3c","id":74294446,"location_subtype":"","month":"2019-05"},{"category":"other-theft","location_type":"Force","location":{"latitude":"51.454837","street":{"id":939107,"name":"On or near Rosslyn Road"},"longitude":"-0.314429"},"context":"","outcome_status":{"category":"Investigation complete; no suspect identified","date":"2020-03"},"persistent_id":"2173605ebc7d423b922d1a03fc0edd3187e457c7d7f3c7ae3e1eb0025bbc6d4d","id":74294445,"location_subtype":"","month":"2019-05"},{"category":"other-theft","location_type":"Force","location":{"latitude":"51.467837","street":{"id":943608,"name":"On or near Petrol Station"},"longitude":"-0.288769"},"context":"","outcome_status":{"category":"Status update unavailable","date":"2019-09"},"persistent_id":"a1701fa24a309c4de5578d49e98708ab1cb97deff05b104c12770b41cf522a89","id":74351744,"location_subtype":"","month":"2019-05"},{"category":"other-theft","location_type":"Force","location":{"latitude":"51.461600","street":{"id":943673,"name":"On or near Garrick Close"},"longitude":"-0.309530"},"context":"","outcome_status":{"category":"Status update unavailable","date":"2019-09"},"persistent_id":"5fa57c489c4ea1792652706d15454fe2c8e56ba93bdf6e5ed47817c5d40b336f","id":74308136,"location_subtype":"","month":"2019-05"},{"category":"other-theft","location_type":"Force","location":{"latitude":"51.459939","street":{"id":943738,"name":"On or near Shopping Area"},"longitude":"-0.305287"},"context":"","outcome_status":{"category":"Status update unavailable","date":"2019-09"},"persistent_id":"552f04207b7d43d802f051ef11d1d2183a6aac647e3a500f632a4ae3a1219303","id":74308192,"location_subtype":"","month":"2019-05"},{"category":"other-theft","location_type":"Force","location":{"latitude":"51.467266","street":{"id":943595,"name":"On or near Castlegate"},"longitude":"-0.292145"},"context":"","outcome_status":{"category":"Status update unavailable","date":"2019-09"},"persistent_id":"a2e88920b2a0ca4189c3c1d962d996158e1c507c12946521689787494a556ab7","id":74331194,"location_subtype":"","month":"2019-05"},{"category":"other-theft","location_type":"Force","location":{"latitude":"51.461264","street":{"id":943692,"name":"On or near The Square"},"longitude":"-0.303021"},"context":"","outcome_status":{"category":"Status update unavailable","date":"2019-09"},"persistent_id":"0f7ad8be8a20c2498b4cd72c14a65127ef7f8f5a3ef263b15c82be03c737f3de","id":74300535,"location_subtype":"","month":"2019-05"},{"category":"other-theft","location_type":"Force","location":{"latitude":"51.462420","street":{"id":943693,"name":"On or near The Quadrant"},"longitude":"-0.302763"},"context":"","outcome_status":{"category":"Status update unavailable","date":"2019-09"},"persistent_id":"73abfca5358da8e6edf9c9e93e99e6feda861173fc7fbb4867868f1c0a80cbda","id":74332431,"location_subtype":"","month":"2019-05"},{"category":"other-theft","location_type":"Force","location":{"latitude":"51.460545","street":{"id":943721,"name":"On or near George Street"},"longitude":"-0.304963"},"context":"","outcome_status":{"category":"Investigation complete; no suspect identified","date":"2020-03"},"persistent_id":"35a27a57371dd1609a748485f9373ab63503f036d4e069d2e8c42615fb31b783","id":74354804,"location_subtype":"","month":"2019-05"},{"category":"other-theft","location_type":"Force","location":{"latitude":"51.460837","street":{"id":943739,"name":"On or near Supermarket"},"longitude":"-0.303987"},"context":"","outcome_status":{"category":"Investigation complete; no suspect identified","date":"2020-03"},"persistent_id":"0ab5b6023256b2e9f273198e1dbb955d044f55003e0871084d8cfa7bd9e84948","id":74307929,"location_subtype":"","month":"2019-05"},{"category":"other-theft","location_type":"Force","location":{"latitude":"51.460545","street":{"id":943721,"name":"On or near George Street"},"longitude":"-0.304963"},"context":"","outcome_status":{"category":"Investigation complete; no suspect identified","date":"2020-03"},"persistent_id":"1ab862903a26d62d035e8167e1221c17c3726f1b24f2a75c3f548857b3b78f1c","id":74306922,"location_subtype":"","month":"2019-05"},{"category":"other-theft","location_type":"Force","location":{"latitude":"51.466580","street":{"id":943612,"name":"On or near Supermarket"},"longitude":"-0.286469"},"context":"","outcome_status":{"category":"Investigation complete; no suspect identified","date":"2020-03"},"persistent_id":"191e6489b611e3ef691cb3cb7628c4acfcd832f798b9562752ebeda6aa231bfc","id":74363766,"location_subtype":"","month":"2019-05"},{"category":"other-theft","location_type":"Force","location":{"latitude":"51.461264","street":{"id":943692,"name":"On or near The Square"},"longitude":"-0.303021"},"context":"","outcome_status":{"category":"Status update unavailable","date":"2019-09"},"persistent_id":"48c2d1207e06ede7b2dbf21861f2cc6a6076f7fe14d972e17a297dfb4af3edac","id":74328930,"location_subtype":"","month":"2019-05"},{"category":"other-theft","location_type":"Force","location":{"latitude":"51.465923","street":{"id":943555,"name":"On or near Victoria Villas"},"longitude":"-0.291360"},"context":"","outcome_status":{"category":"Investigation complete; no suspect identified","date":"2020-03"},"persistent_id":"b664238a52cb66a6fa7e09009a32d3147df8926e22d4cde322380fe9d52216a8","id":74296889,"location_subtype":"","month":"2019-05"},{"category":"other-theft","location_type":"Force","location":{"latitude":"51.460837","street":{"id":943739,"name":"On or near Supermarket"},"longitude":"-0.303987"},"context":"","outcome_status":{"category":"Status update unavailable","date":"2019-09"},"persistent_id":"546f46f173b63fd86afde9af7fc614aa28a93cdadd2df0b51e017f52dcf8b9c2","id":74328716,"location_subtype":"","month":"2019-05"},{"category":"other-theft","location_type":"Force","location":{"latitude":"51.460595","street":{"id":943690,"name":"On or near Towers Place"},"longitude":"-0.302154"},"context":"","outcome_status":{"category":"Investigation complete; no suspect identified","date":"2020-03"},"persistent_id":"b71649d0e6f1d77973f9e86221c3f4924485cab1c30f0021393cba75e74e995d","id":74304224,"location_subtype":"","month":"2019-05"},{"category":"other-theft","location_type":"Force","location":{"latitude":"51.459939","street":{"id":943738,"name":"On or near Shopping Area"},"longitude":"-0.305287"},"context":"","outcome_status":{"category":"Status update unavailable","date":"2019-09"},"persistent_id":"0609ad404f4c4cf41a12a8c624337064ea170460e0828f5c57312f312aaebf81","id":74330592,"location_subtype":"","month":"2019-05"},{"category":"other-theft","location_type":"Force","location":{"latitude":"51.458124","street":{"id":943756,"name":"On or near Hill Street"},"longitude":"-0.305427"},"context":"","outcome_status":{"category":"Status update unavailable","date":"2019-09"},"persistent_id":"b5b7b77ce0f722ead152d41d44d196bbb2a2b62bd979eb1d062134da8c78ea8d","id":74326980,"location_subtype":"","month":"2019-05"},{"category":"other-theft","location_type":"Force","location":{"latitude":"51.464588","street":{"id":943576,"name":"On or near Manor Park"},"longitude":"-0.289221"},"context":"","outcome_status":{"category":"Investigation complete; no suspect identified","date":"2020-03"},"persistent_id":"d5d2267bac1c07973efbe06f9f022c3b20cf4a0dd6cc3a8fc75aef71f7aaab74","id":74304354,"location_subtype":"","month":"2019-05"},{"category":"other-theft","location_type":"Force","location":{"latitude":"51.459161","street":{"id":943735,"name":"On or near Castle Yard"},"longitude":"-0.305633"},"context":"","outcome_status":{"category":"Status update unavailable","date":"2019-09"},"persistent_id":"3b620e3032174f181cc68b68e11af2fd1058a4ff37c4be08b862eca66023dbd6","id":74325211,"location_subtype":"","month":"2019-05"},{"category":"other-theft","location_type":"Force","location":{"latitude":"51.459377","street":{"id":943731,"name":"On or near Church Terrace"},"longitude":"-0.303739"},"context":"","outcome_status":{"category":"Status update unavailable","date":"2019-09"},"persistent_id":"2374ba48c9f1a9046b94ddcad221bf69ca677c531aaf8a650becf5dbd418f7f3","id":74342300,"location_subtype":"","month":"2019-05"},{"category":"other-theft","location_type":"Force","location":{"latitude":"51.454395","street":{"id":939105,"name":"On or near St Margaret's Road"},"longitude":"-0.314344"},"context":"","outcome_status":{"category":"Status update unavailable","date":"2019-09"},"persistent_id":"1b1a8d74a36366f66a2117d30aec4724d49487e0ce5ad7bed08c69c1337639b7","id":74354402,"location_subtype":"","month":"2019-05"},{"category":"other-theft","location_type":"Force","location":{"latitude":"51.464588","street":{"id":943576,"name":"On or near Manor Park"},"longitude":"-0.289221"},"context":"","outcome_status":{"category":"Status update unavailable","date":"2019-09"},"persistent_id":"591abfa0d934604e53e3b44721cec61506f7205c3082cd07c854bbe677990946","id":74325846,"location_subtype":"","month":"2019-05"},{"category":"other-theft","location_type":"Force","location":{"latitude":"51.461294","street":{"id":943553,"name":"On or near Winter Box Walk"},"longitude":"-0.292728"},"context":"","outcome_status":{"category":"Status update unavailable","date":"2019-09"},"persistent_id":"03a0e7da8f3f7b3898c6cfb49feb6d493064b6fe55ed376a320e6769cb87c334","id":74326768,"location_subtype":"","month":"2019-05"},{"category":"other-theft","location_type":"Force","location":{"latitude":"51.460545","street":{"id":943721,"name":"On or near George Street"},"longitude":"-0.304963"},"context":"","outcome_status":{"category":"Status update unavailable","date":"2019-09"},"persistent_id":"e601141039a8679c232bc5c506dccab1cadcf27ccb69f63abfc2cb769ba0f0e4","id":74290528,"location_subtype":"","month":"2019-05"},{"category":"other-theft","location_type":"Force","location":{"latitude":"51.463352","street":{"id":943694,"name":"On or near The Quadrant"},"longitude":"-0.301951"},"context":"","outcome_status":{"category":"Status update unavailable","date":"2019-09"},"persistent_id":"8dec719d65bc91aa0784844f2583805882d6d1ff9ed7d9d9325883469e260d48","id":74309872,"location_subtype":"","month":"2019-05"},{"category":"other-theft","location_type":"Force","location":{"latitude":"51.463352","street":{"id":943694,"name":"On or near The Quadrant"},"longitude":"-0.301951"},"context":"","outcome_status":{"category":"Investigation complete; no suspect identified","date":"2020-03"},"persistent_id":"8201be875353bca4c03b322b32e59412f44a5f958d030b5711084d6b9987294f","id":74303643,"location_subtype":"","month":"2019-05"},{"category":"other-theft","location_type":"Force","location":{"latitude":"51.462560","street":{"id":943729,"name":"On or near Drummonds Place"},"longitude":"-0.301908"},"context":"","outcome_status":{"category":"Investigation complete; no suspect identified","date":"2020-03"},"persistent_id":"49222ee66a10926e2cafbb91b5b5d7807b85faadc4eca6ea82f211d9095382db","id":74308138,"location_subtype":"","month":"2019-05"},{"category":"other-theft","location_type":"Force","location":{"latitude":"51.454837","street":{"id":939107,"name":"On or near Rosslyn Road"},"longitude":"-0.314429"},"context":"","outcome_status":{"category":"Investigation complete; no suspect identified","date":"2020-03"},"persistent_id":"630e886c30b4370beb6c28d9627e2dc12291d2cf8d4e48c859213ddc040ad9c0","id":74353615,"location_subtype":"","month":"2019-05"},{"category":"other-theft","location_type":"Force","location":{"latitude":"51.461298","street":{"id":943741,"name":"On or near Shopping Area"},"longitude":"-0.304186"},"context":"","outcome_status":{"category":"Status update unavailable","date":"2019-09"},"persistent_id":"c24ee55db1ebbe255fc114b0c1f5eb9a913c79711045e675a67c60329cecc269","id":74296256,"location_subtype":"","month":"2019-05"},{"category":"other-theft","location_type":"Force","location":{"latitude":"51.463269","street":{"id":943582,"name":"On or near Kings Farm Avenue"},"longitude":"-0.286967"},"context":"","outcome_status":{"category":"Status update unavailable","date":"2019-09"},"persistent_id":"ccbdfee8b09708298009c7b75e6bde36ab4b5cbcf65ec49a677821c2929e9c3a","id":74349902,"location_subtype":"","month":"2019-05"},{"category":"other-theft","location_type":"Force","location":{"latitude":"51.465953","street":{"id":943724,"name":"On or near Evelyn Gardens"},"longitude":"-0.297722"},"context":"","outcome_status":{"category":"Investigation complete; no suspect identified","date":"2020-03"},"persistent_id":"c749ec8c378b09f3d156fa4095b3c121024f34415baa2eb22f05a5c4b0ed797d","id":74312008,"location_subtype":"","month":"2019-05"},{"category":"other-theft","location_type":"Force","location":{"latitude":"51.460545","street":{"id":943721,"name":"On or near George Street"},"longitude":"-0.304963"},"context":"","outcome_status":{"category":"Status update unavailable","date":"2019-09"},"persistent_id":"e0bf8bf8f8e6435d0c5dc59a6bb888d4ebebf56469b0708164bdc27ae6b601d4","id":74299589,"location_subtype":"","month":"2019-05"},{"category":"possession-of-weapons","location_type":"Force","location":{"latitude":"51.462786","street":{"id":943616,"name":"On or near Sheen Road"},"longitude":"-0.284063"},"context":"","outcome_status":{"category":"Status update unavailable","date":"2019-09"},"persistent_id":"e99d89ea9f8abb333fd047b3078d37d5107c43581a143d7956e9b159906e070f","id":74299941,"location_subtype":"","month":"2019-05"},{"category":"public-order","location_type":"BTP","location":{"latitude":"51.463369","street":{"id":1489919,"name":"Richmond (station)"},"longitude":"-0.299992"},"context":"","outcome_status":{"category":"Status update unavailable","date":"2019-09"},"persistent_id":"","id":88719020,"location_subtype":"STATION","month":"2019-05"},{"category":"public-order","location_type":"Force","location":{"latitude":"51.455089","street":{"id":939103,"name":"On or near The Barons"},"longitude":"-0.318248"},"context":"","outcome_status":{"category":"Investigation complete; no suspect identified","date":"2020-03"},"persistent_id":"298b905084a2b350baf685c8985ad08e62a478b9a6c40688157a9742c85b3d7d","id":74310339,"location_subtype":"","month":"2019-05"},{"category":"public-order","location_type":"Force","location":{"latitude":"51.461294","street":{"id":943553,"name":"On or near Winter Box Walk"},"longitude":"-0.292728"},"context":"","outcome_status":{"category":"Status update unavailable","date":"2019-09"},"persistent_id":"afc4019dcb9bb907cde00089b5022272aca18197260a404910a9b8365bd7d874","id":74313126,"location_subtype":"","month":"2019-05"},{"category":"public-order","location_type":"Force","location":{"latitude":"51.462817","street":{"id":943709,"name":"On or near Little Green"},"longitude":"-0.304706"},"context":"","outcome_status":{"category":"Investigation complete; no suspect identified","date":"2020-03"},"persistent_id":"7e4555066b4fd508168c0e10845e0490472261224cf978709f54b983e008c153","id":74290888,"location_subtype":"","month":"2019-05"},{"category":"public-order","location_type":"Force","location":{"latitude":"51.462786","street":{"id":943616,"name":"On or near Sheen Road"},"longitude":"-0.284063"},"context":"","outcome_status":{"category":"Status update unavailable","date":"2019-09"},"persistent_id":"e99d89ea9f8abb333fd047b3078d37d5107c43581a143d7956e9b159906e070f","id":74297977,"location_subtype":"","month":"2019-05"},{"category":"public-order","location_type":"Force","location":{"latitude":"51.456194","street":{"id":943759,"name":"On or near Ellerker Gardens"},"longitude":"-0.301900"},"context":"","outcome_status":{"category":"Status update unavailable","date":"2019-09"},"persistent_id":"b52c168dd4f10d71ce2b10b868c454c0cf3dda831ded418a4ed1ffbebaa9fde8","id":74298373,"location_subtype":"","month":"2019-05"},{"category":"public-order","location_type":"Force","location":{"latitude":"51.460674","street":{"id":943584,"name":"On or near Houblon Road"},"longitude":"-0.296436"},"context":"","outcome_status":{"category":"Status update unavailable","date":"2019-09"},"persistent_id":"a115a70b09d231814cd88d808b068efa4ebf8cf0cd1451017a1332fe00d125e9","id":74326847,"location_subtype":"","month":"2019-05"},{"category":"public-order","location_type":"Force","location":{"latitude":"51.456096","street":{"id":943751,"name":"On or near Montague Road"},"longitude":"-0.298852"},"context":"","outcome_status":{"category":"Status update unavailable","date":"2019-09"},"persistent_id":"3e28fb86e0b05d6d440b686af313954ace29552c1fb54fed3d0114c0ad3c3378","id":74328080,"location_subtype":"","month":"2019-05"},{"category":"public-order","location_type":"Force","location":{"latitude":"51.463386","street":{"id":943703,"name":"On or near Park Lane"},"longitude":"-0.304282"},"context":"","outcome_status":{"category":"Status update unavailable","date":"2019-09"},"persistent_id":"f81e97356a24d65ccfbb234429f403c215a04370a1b27da2667b53b1d6faf55e","id":74328775,"location_subtype":"","month":"2019-05"},{"category":"public-order","location_type":"Force","location":{"latitude":"51.461264","street":{"id":943692,"name":"On or near The Square"},"longitude":"-0.303021"},"context":"","outcome_status":{"category":"Status update unavailable","date":"2019-09"},"persistent_id":"48c2d1207e06ede7b2dbf21861f2cc6a6076f7fe14d972e17a297dfb4af3edac","id":74328819,"location_subtype":"","month":"2019-05"},{"category":"public-order","location_type":"Force","location":{"latitude":"51.461963","street":{"id":943701,"name":"On or near Quadrant Road"},"longitude":"-0.303471"},"context":"","outcome_status":{"category":"Status update unavailable","date":"2019-09"},"persistent_id":"cd913b46e016e1a257038060e84802812bbaf82c23c9bd98f6b1ecdbdd6b2500","id":74330139,"location_subtype":"","month":"2019-05"},{"category":"public-order","location_type":"Force","location":{"latitude":"51.455089","street":{"id":939103,"name":"On or near The Barons"},"longitude":"-0.318248"},"context":"","outcome_status":{"category":"Court result unavailable","date":"2020-02"},"persistent_id":"8aba3edaf2aa347ad9454531962e338e896943b4d8906dcc613bce13828c4854","id":74330581,"location_subtype":"","month":"2019-05"},{"category":"public-order","location_type":"Force","location":{"latitude":"51.461750","street":{"id":943585,"name":"On or near Grena Road"},"longitude":"-0.289443"},"context":"","outcome_status":{"category":"Status update unavailable","date":"2019-09"},"persistent_id":"35fdce70e4606a83ccf1f85f2fe9691ee1700333a09f65f08dc60c8d40631157","id":74331493,"location_subtype":"","month":"2019-05"},{"category":"public-order","location_type":"Force","location":{"latitude":"51.461750","street":{"id":943585,"name":"On or near Grena Road"},"longitude":"-0.289443"},"context":"","outcome_status":{"category":"Status update unavailable","date":"2019-09"},"persistent_id":"35fdce70e4606a83ccf1f85f2fe9691ee1700333a09f65f08dc60c8d40631157","id":74331494,"location_subtype":"","month":"2019-05"},{"category":"public-order","location_type":"Force","location":{"latitude":"51.463352","street":{"id":943694,"name":"On or near The Quadrant"},"longitude":"-0.301951"},"context":"","outcome_status":{"category":"Status update unavailable","date":"2019-09"},"persistent_id":"f553a6edcfaf7e20dc420acc7618557395b82d06d860222bf672556cfe2b4e1b","id":74337538,"location_subtype":"","month":"2019-05"},{"category":"public-order","location_type":"Force","location":{"latitude":"51.466752","street":{"id":943568,"name":"On or near Selwyn Avenue"},"longitude":"-0.295187"},"context":"","outcome_status":{"category":"Investigation complete; no suspect identified","date":"2020-03"},"persistent_id":"c8657a764d752e9d4e9595f7908eb69c4b9e68e5f5d41937d94be6b51fcbcc52","id":74347017,"location_subtype":"","month":"2019-05"},{"category":"public-order","location_type":"Force","location":{"latitude":"51.464588","street":{"id":943576,"name":"On or near Manor Park"},"longitude":"-0.289221"},"context":"","outcome_status":{"category":"Status update unavailable","date":"2019-09"},"persistent_id":"f063d11f0aae594eed5093ecb362af0dd7f4640e1a2d8549a18b0219ef7bb2ca","id":74352862,"location_subtype":"","month":"2019-05"},{"category":"public-order","location_type":"Force","location":{"latitude":"51.465953","street":{"id":943724,"name":"On or near Evelyn Gardens"},"longitude":"-0.297722"},"context":"","outcome_status":{"category":"Court result unavailable","date":"2019-11"},"persistent_id":"54039be494df5a52d1a34b0fe60e3608403c1cbb79f0bfc83cd894f63f9df5d4","id":74323252,"location_subtype":"","month":"2019-05"},{"category":"public-order","location_type":"Force","location":{"latitude":"51.465322","street":{"id":943831,"name":"On or near Richmond Road"},"longitude":"-0.323185"},"context":"","outcome_status":{"category":"Investigation complete; no suspect identified","date":"2020-03"},"persistent_id":"dbc264a55d658a7c9301ad1193ef031f22c1df0c314879dd33db75130e7558a0","id":74300727,"location_subtype":"","month":"2019-05"},{"category":"public-order","location_type":"Force","location":{"latitude":"51.467180","street":{"id":943619,"name":"On or near Market Road"},"longitude":"-0.284431"},"context":"","outcome_status":{"category":"Investigation complete; no suspect identified","date":"2020-03"},"persistent_id":"86541dab037fe4aa64f4c83c0cfae1ffecc4a286c03d1c562b2cbaf19df65ed6","id":74320112,"location_subtype":"","month":"2019-05"},{"category":"public-order","location_type":"Force","location":{"latitude":"51.463352","street":{"id":943694,"name":"On or near The Quadrant"},"longitude":"-0.301951"},"context":"","outcome_status":{"category":"Investigation complete; no suspect identified","date":"2020-03"},"persistent_id":"f6c6ed0c93c66ff437208351589b0cfafc91f46c782fe85a643655eadacde504","id":74302938,"location_subtype":"","month":"2019-05"},{"category":"robbery","location_type":"Force","location":{"latitude":"51.462817","street":{"id":943709,"name":"On or near Little Green"},"longitude":"-0.304706"},"context":"","outcome_status":{"category":"Investigation complete; no suspect identified","date":"2020-03"},"persistent_id":"5323cb9f0d11b6ff7367be3cc3669b69188b9471637f86728039794e1c02b500","id":74308013,"location_subtype":"","month":"2019-05"},{"category":"robbery","location_type":"Force","location":{"latitude":"51.470184","street":{"id":944907,"name":"On or near Marksbury Avenue"},"longitude":"-0.283239"},"context":"","outcome_status":{"category":"Court result unavailable","date":"2019-11"},"persistent_id":"2e2b7afb8407145cb196b5f21f1731b38aebb3a01c5495b073efd34faafbac80","id":74295044,"location_subtype":"","month":"2019-05"},{"category":"robbery","location_type":"Force","location":{"latitude":"51.470369","street":{"id":944917,"name":"On or near Sports\/recreation Area"},"longitude":"-0.284844"},"context":"","outcome_status":{"category":"Status update unavailable","date":"2019-09"},"persistent_id":"30fa443e083e2dfb62937978620bafdc860187a033f38a18d5db60da16207502","id":74290558,"location_subtype":"","month":"2019-05"},{"category":"robbery","location_type":"Force","location":{"latitude":"51.471670","street":{"id":944859,"name":"On or near Mcdougall Court"},"longitude":"-0.285846"},"context":"","outcome_status":{"category":"Court result unavailable","date":"2019-11"},"persistent_id":"d67b029832163286b71c1396e8530d987ef99c8f6a79ff63c6bdd5e6a9852ee9","id":74349337,"location_subtype":"","month":"2019-05"},{"category":"robbery","location_type":"Force","location":{"latitude":"51.470369","street":{"id":944917,"name":"On or near Sports\/recreation Area"},"longitude":"-0.284844"},"context":"","outcome_status":{"category":"Status update unavailable","date":"2019-09"},"persistent_id":"5e511f1e4090422ff376bc9cc5f0633f6c1b4f12eaaf4e2e77f4e6fc67f0d951","id":74307896,"location_subtype":"","month":"2019-05"},{"category":"robbery","location_type":"Force","location":{"latitude":"51.462817","street":{"id":943709,"name":"On or near Little Green"},"longitude":"-0.304706"},"context":"","outcome_status":{"category":"Investigation complete; no suspect identified","date":"2020-03"},"persistent_id":"5da0ec3799a3a29b03dd6f00aa1fbb619b9a9b071840bfecef40c3c944ac412b","id":74350369,"location_subtype":"","month":"2019-05"},{"category":"robbery","location_type":"Force","location":{"latitude":"51.462817","street":{"id":943709,"name":"On or near Little Green"},"longitude":"-0.304706"},"context":"","outcome_status":{"category":"Status update unavailable","date":"2019-09"},"persistent_id":"5da0ec3799a3a29b03dd6f00aa1fbb619b9a9b071840bfecef40c3c944ac412b","id":74350368,"location_subtype":"","month":"2019-05"},{"category":"robbery","location_type":"Force","location":{"latitude":"51.455637","street":{"id":943782,"name":"On or near Arlington Road"},"longitude":"-0.316299"},"context":"","outcome_status":{"category":"Status update unavailable","date":"2019-09"},"persistent_id":"b16c736932ac7c3df05cbe59ec0e7ee10f1cb5f557486a4c9846bbbcb7f2ed9d","id":74350366,"location_subtype":"","month":"2019-05"},{"category":"robbery","location_type":"Force","location":{"latitude":"51.468422","street":{"id":944890,"name":"On or near Kew Road"},"longitude":"-0.295010"},"context":"","outcome_status":{"category":"Court result unavailable","date":"2019-12"},"persistent_id":"ec18bcdce01cfc789ec2eb0e2bd940848685981e04edb7945842e2100ff62013","id":74350085,"location_subtype":"","month":"2019-05"},{"category":"robbery","location_type":"Force","location":{"latitude":"51.468422","street":{"id":944890,"name":"On or near Kew Road"},"longitude":"-0.295010"},"context":"","outcome_status":{"category":"Status update unavailable","date":"2019-09"},"persistent_id":"ec18bcdce01cfc789ec2eb0e2bd940848685981e04edb7945842e2100ff62013","id":74350083,"location_subtype":"","month":"2019-05"},{"category":"robbery","location_type":"Force","location":{"latitude":"51.460837","street":{"id":943739,"name":"On or near Supermarket"},"longitude":"-0.303987"},"context":"","outcome_status":{"category":"Status update unavailable","date":"2019-09"},"persistent_id":"02f08535c34c1fbdd91e8cd115cce5ed7e89e7ab77fef0206d43a4b65df011d8","id":74346637,"location_subtype":"","month":"2019-05"},{"category":"robbery","location_type":"Force","location":{"latitude":"51.468177","street":{"id":944908,"name":"On or near Lower Richmond Road"},"longitude":"-0.281932"},"context":"","outcome_status":{"category":"Status update unavailable","date":"2019-09"},"persistent_id":"cc8b0d9d9393eb82fa3748268e7750d83a6ab1b68a3b7f0d56db1be8e8d1ddc5","id":74311529,"location_subtype":"","month":"2019-05"},{"category":"robbery","location_type":"Force","location":{"latitude":"51.463352","street":{"id":943694,"name":"On or near The Quadrant"},"longitude":"-0.301951"},"context":"","outcome_status":{"category":"Status update unavailable","date":"2019-09"},"persistent_id":"0816392514f4162cba416a3e813245346f526cf987ce0508c481be5441eec781","id":74290101,"location_subtype":"","month":"2019-05"},{"category":"robbery","location_type":"Force","location":{"latitude":"51.460545","street":{"id":943721,"name":"On or near George Street"},"longitude":"-0.304963"},"context":"","outcome_status":{"category":"Investigation complete; no suspect identified","date":"2020-03"},"persistent_id":"a38ec897cb399b5ad680ec921b0643c88644bba9a8df6a51019b373ee5ebd9c7","id":74330057,"location_subtype":"","month":"2019-05"},{"category":"robbery","location_type":"Force","location":{"latitude":"51.468177","street":{"id":944908,"name":"On or near Lower Richmond Road"},"longitude":"-0.281932"},"context":"","outcome_status":{"category":"Status update unavailable","date":"2019-09"},"persistent_id":"cc8b0d9d9393eb82fa3748268e7750d83a6ab1b68a3b7f0d56db1be8e8d1ddc5","id":74311530,"location_subtype":"","month":"2019-05"},{"category":"robbery","location_type":"Force","location":{"latitude":"51.465953","street":{"id":943724,"name":"On or near Evelyn Gardens"},"longitude":"-0.297722"},"context":"","outcome_status":{"category":"Status update unavailable","date":"2019-09"},"persistent_id":"2663decca45069b2061cc44e850f6aae4dffcbde6267d7252fc011f2dd18910b","id":74321643,"location_subtype":"","month":"2019-05"},{"category":"robbery","location_type":"Force","location":{"latitude":"51.461671","street":{"id":923959,"name":"On or near Courtlands"},"longitude":"-0.286480"},"context":"","outcome_status":{"category":"Investigation complete; no suspect identified","date":"2020-03"},"persistent_id":"baecda65366d3fd7399cc2461ea24ee018ea50189e1e2db761812c81b0cf8e33","id":74294858,"location_subtype":"","month":"2019-05"},{"category":"robbery","location_type":"Force","location":{"latitude":"51.468422","street":{"id":944890,"name":"On or near Kew Road"},"longitude":"-0.295010"},"context":"","outcome_status":{"category":"Status update unavailable","date":"2019-09"},"persistent_id":"ec18bcdce01cfc789ec2eb0e2bd940848685981e04edb7945842e2100ff62013","id":74350084,"location_subtype":"","month":"2019-05"},{"category":"robbery","location_type":"Force","location":{"latitude":"51.460545","street":{"id":943721,"name":"On or near George Street"},"longitude":"-0.304963"},"context":"","outcome_status":{"category":"Status update unavailable","date":"2019-09"},"persistent_id":"b5db9331bea5aa09ca153ebf4cc875873c662a08eb8ab9cefa18012526043ee3","id":74314990,"location_subtype":"","month":"2019-05"},{"category":"shoplifting","location_type":"Force","location":{"latitude":"51.459939","street":{"id":943738,"name":"On or near Shopping Area"},"longitude":"-0.305287"},"context":"","outcome_status":{"category":"Investigation complete; no suspect identified","date":"2020-03"},"persistent_id":"aabc26534cee744b7715d4cd8ce97fbe11061626a74ded4959b1ae7ad3087bff","id":74356691,"location_subtype":"","month":"2019-05"},{"category":"shoplifting","location_type":"Force","location":{"latitude":"51.466580","street":{"id":943612,"name":"On or near Supermarket"},"longitude":"-0.286469"},"context":"","outcome_status":{"category":"Court result unavailable","date":"2019-12"},"persistent_id":"22a8bf8dc688f1fa20fcacb25bc9bd039f6cb39d36f098edeef1b4de7ff7627e","id":74343560,"location_subtype":"","month":"2019-05"},{"category":"shoplifting","location_type":"Force","location":{"latitude":"51.466580","street":{"id":943612,"name":"On or near Supermarket"},"longitude":"-0.286469"},"context":"","outcome_status":{"category":"Status update unavailable","date":"2019-09"},"persistent_id":"ec2834327f4e521fea4462387ef197437ed09d0a8e4df4663e293a82aa7f3192","id":74347569,"location_subtype":"","month":"2019-05"},{"category":"shoplifting","location_type":"Force","location":{"latitude":"51.460065","street":{"id":943689,"name":"On or near Victoria Place"},"longitude":"-0.304736"},"context":"","outcome_status":{"category":"Investigation complete; no suspect identified","date":"2020-03"},"persistent_id":"06f3c48e539a70be277629774be2ed1dc8c115d959134e0385af321b60ea8cb6","id":74320689,"location_subtype":"","month":"2019-05"},{"category":"shoplifting","location_type":"Force","location":{"latitude":"51.454667","street":{"id":939121,"name":"On or near Alexandra Road"},"longitude":"-0.310722"},"context":"","outcome_status":{"category":"Status update unavailable","date":"2019-09"},"persistent_id":"e7c7c1fb823f43200315f396e8a8decf583e98cfa82533b4025948c68e1406e2","id":74320875,"location_subtype":"","month":"2019-05"},{"category":"shoplifting","location_type":"Force","location":{"latitude":"51.459939","street":{"id":943738,"name":"On or near Shopping Area"},"longitude":"-0.305287"},"context":"","outcome_status":{"category":"Court result unavailable","date":"2020-04"},"persistent_id":"65bc2acb9b1409a3bdb73c0e90d60c2af0d26cf2381e0c6ff2260180d6a12d9e","id":74298418,"location_subtype":"","month":"2019-05"},{"category":"shoplifting","location_type":"Force","location":{"latitude":"51.458970","street":{"id":943717,"name":"On or near Hill Street"},"longitude":"-0.306072"},"context":"","outcome_status":{"category":"Status update unavailable","date":"2019-09"},"persistent_id":"a7c48a50ab9783d6d1e0d4eaddfce105c884139e847466c895ac677985c71a3e","id":74298807,"location_subtype":"","month":"2019-05"},{"category":"shoplifting","location_type":"Force","location":{"latitude":"51.461526","street":{"id":943740,"name":"On or near Supermarket"},"longitude":"-0.301918"},"context":"","outcome_status":{"category":"Offender given a caution","date":"2019-06"},"persistent_id":"26c5a8da2cca9073b25df538ea966cc0bab22163719bf0707a538ab3e09c6d2f","id":74299485,"location_subtype":"","month":"2019-05"},{"category":"shoplifting","location_type":"Force","location":{"latitude":"51.466580","street":{"id":943612,"name":"On or near Supermarket"},"longitude":"-0.286469"},"context":"","outcome_status":{"category":"Status update unavailable","date":"2019-09"},"persistent_id":"e196988f916065a2f2dc36a6bf0d639b67f5a7f25c9248cfb03ff144c938f237","id":74330611,"location_subtype":"","month":"2019-05"},{"category":"shoplifting","location_type":"Force","location":{"latitude":"51.464064","street":{"id":943578,"name":"On or near Manor Gardens"},"longitude":"-0.289025"},"context":"","outcome_status":{"category":"Status update unavailable","date":"2019-09"},"persistent_id":"a224c944cd09d2942d899eeeb26910bb67735b4ed341d8b0421ac4c031effdfa","id":74342187,"location_subtype":"","month":"2019-05"},{"category":"shoplifting","location_type":"Force","location":{"latitude":"51.464588","street":{"id":943576,"name":"On or near Manor Park"},"longitude":"-0.289221"},"context":"","outcome_status":{"category":"Local resolution","date":"2019-05"},"persistent_id":"b72764a817b419ff6aa85811fe59d308a77391393b5bf099437f08c32568ea03","id":74355059,"location_subtype":"","month":"2019-05"},{"category":"shoplifting","location_type":"Force","location":{"latitude":"51.460837","street":{"id":943739,"name":"On or near Supermarket"},"longitude":"-0.303987"},"context":"","outcome_status":{"category":"Status update unavailable","date":"2019-09"},"persistent_id":"7a17b7aa85f293d0870f7fb7a75ca274d861e1f2df88b456a4f5eb083997b317","id":74291738,"location_subtype":"","month":"2019-05"},{"category":"shoplifting","location_type":"Force","location":{"latitude":"51.461963","street":{"id":943701,"name":"On or near Quadrant Road"},"longitude":"-0.303471"},"context":"","outcome_status":{"category":"Status update unavailable","date":"2019-09"},"persistent_id":"d6f07f30d3bcde3870ad35d497842a4fe8307ee71f7cfa51c0bcb399030b0b9a","id":74293809,"location_subtype":"","month":"2019-05"},{"category":"shoplifting","location_type":"Force","location":{"latitude":"51.461526","street":{"id":943740,"name":"On or near Supermarket"},"longitude":"-0.301918"},"context":"","outcome_status":{"category":"Court result unavailable","date":"2020-03"},"persistent_id":"28c6f0d428dfa1d0e8c09d01c26b3c6f9bc84834705d558329a64ef94da40544","id":74306928,"location_subtype":"","month":"2019-05"},{"category":"shoplifting","location_type":"Force","location":{"latitude":"51.459939","street":{"id":943738,"name":"On or near Shopping Area"},"longitude":"-0.305287"},"context":"","outcome_status":{"category":"Investigation complete; no suspect identified","date":"2020-03"},"persistent_id":"234d8e967ce13ba764884e4a4112d46c3a2439d9cc49b0b2288d1b35edbbfc6d","id":74296259,"location_subtype":"","month":"2019-05"},{"category":"theft-from-the-person","location_type":"Force","location":{"latitude":"51.453674","street":{"id":939119,"name":"On or near Baronsfield Road"},"longitude":"-0.317969"},"context":"","outcome_status":{"category":"Investigation complete; no suspect identified","date":"2020-03"},"persistent_id":"d8a06cd4908d838ee7e773854d43f77c98037939887fec77fa5c83c053a669ad","id":74327678,"location_subtype":"","month":"2019-05"},{"category":"theft-from-the-person","location_type":"Force","location":{"latitude":"51.460545","street":{"id":943721,"name":"On or near George Street"},"longitude":"-0.304963"},"context":"","outcome_status":{"category":"Status update unavailable","date":"2019-09"},"persistent_id":"6af78cf72ae097acae35b349185b596409778d3290ad3c58663a4df4264d9a9f","id":74326748,"location_subtype":"","month":"2019-05"},{"category":"theft-from-the-person","location_type":"Force","location":{"latitude":"51.462420","street":{"id":943693,"name":"On or near The Quadrant"},"longitude":"-0.302763"},"context":"","outcome_status":{"category":"Status update unavailable","date":"2019-09"},"persistent_id":"27eb32dd90660dcccae983c9ff870205c78e11fb63e6582e7366661810b4e166","id":74341555,"location_subtype":"","month":"2019-05"},{"category":"theft-from-the-person","location_type":"Force","location":{"latitude":"51.459939","street":{"id":943738,"name":"On or near Shopping Area"},"longitude":"-0.305287"},"context":"","outcome_status":{"category":"Investigation complete; no suspect identified","date":"2020-03"},"persistent_id":"f6bb798f4773b5132ac5722618318b5862c992ccc05fe8f33b16dc25c0574ade","id":74343812,"location_subtype":"","month":"2019-05"},{"category":"theft-from-the-person","location_type":"Force","location":{"latitude":"51.463352","street":{"id":943694,"name":"On or near The Quadrant"},"longitude":"-0.301951"},"context":"","outcome_status":{"category":"Status update unavailable","date":"2019-09"},"persistent_id":"6e4723cf2cd7f3d23cd166610cdb5a1fc428841cd682a6e2bb31ecf11955e400","id":74347232,"location_subtype":"","month":"2019-05"},{"category":"theft-from-the-person","location_type":"Force","location":{"latitude":"51.460545","street":{"id":943721,"name":"On or near George Street"},"longitude":"-0.304963"},"context":"","outcome_status":{"category":"Status update unavailable","date":"2019-09"},"persistent_id":"981f63e9e0c85026c9141f12bf2f77aa98aff1501b667022cf2733713ef0f3e9","id":74326622,"location_subtype":"","month":"2019-05"},{"category":"theft-from-the-person","location_type":"Force","location":{"latitude":"51.459229","street":{"id":943675,"name":"On or near Water Lane"},"longitude":"-0.307243"},"context":"","outcome_status":{"category":"Status update unavailable","date":"2019-09"},"persistent_id":"32d2b97ef4dc9b0384706b9d72a2431531e36c4b74f66f3044b3d6da8c8f2f65","id":74312528,"location_subtype":"","month":"2019-05"},{"category":"theft-from-the-person","location_type":"Force","location":{"latitude":"51.455089","street":{"id":939103,"name":"On or near The Barons"},"longitude":"-0.318248"},"context":"","outcome_status":{"category":"Status update unavailable","date":"2019-09"},"persistent_id":"9e348f734c6eeb37e67d14f2f2d2bfa546fbfa24ddf0e73cff940aef00f4fc2d","id":74320116,"location_subtype":"","month":"2019-05"},{"category":"theft-from-the-person","location_type":"Force","location":{"latitude":"51.460117","street":{"id":943681,"name":"On or near Shopping Area"},"longitude":"-0.306418"},"context":"","outcome_status":{"category":"Investigation complete; no suspect identified","date":"2020-03"},"persistent_id":"454c2db6a0aea6c74074fd455e8ee2ef45743ecfc4dfce911332c2f404963762","id":74326747,"location_subtype":"","month":"2019-05"},{"category":"theft-from-the-person","location_type":"Force","location":{"latitude":"51.456154","street":{"id":943771,"name":"On or near Ryde Place"},"longitude":"-0.309746"},"context":"","outcome_status":{"category":"Status update unavailable","date":"2019-09"},"persistent_id":"fa10d196cb93dc886f0c058009bc5977ca55ffde25de89388702693cc3dc23d7","id":74348189,"location_subtype":"","month":"2019-05"},{"category":"vehicle-crime","location_type":"Force","location":{"latitude":"51.470542","street":{"id":944915,"name":"On or near Chaucer Avenue"},"longitude":"-0.281929"},"context":"","outcome_status":{"category":"Status update unavailable","date":"2019-09"},"persistent_id":"ed3c8a75ed4118dd59a73f36fca1a01b9997c0abc1dd4ca39dc00550d49b151e","id":74321402,"location_subtype":"","month":"2019-05"},{"category":"vehicle-crime","location_type":"Force","location":{"latitude":"51.468422","street":{"id":944890,"name":"On or near Kew Road"},"longitude":"-0.295010"},"context":"","outcome_status":{"category":"Status update unavailable","date":"2019-09"},"persistent_id":"6af27daed37f79442f62c940e05a43229b8b7220387052d7f27d581229ef985a","id":74293390,"location_subtype":"","month":"2019-05"},{"category":"vehicle-crime","location_type":"Force","location":{"latitude":"51.466738","street":{"id":943723,"name":"On or near Evelyn Road"},"longitude":"-0.299147"},"context":"","outcome_status":{"category":"Status update unavailable","date":"2019-09"},"persistent_id":"4c45dcce66190e290000018410887b833cb2ebcba3c7b661ecea8b27443086db","id":74321584,"location_subtype":"","month":"2019-05"},{"category":"vehicle-crime","location_type":"Force","location":{"latitude":"51.454260","street":{"id":939155,"name":"On or near King George Square"},"longitude":"-0.290759"},"context":"","outcome_status":{"category":"Status update unavailable","date":"2019-09"},"persistent_id":"0f66f0ea2b702d0c4cbab23fffa25050582f63a2d6912be631a636447e7a8fac","id":74303412,"location_subtype":"","month":"2019-05"},{"category":"vehicle-crime","location_type":"Force","location":{"latitude":"51.459777","street":{"id":943571,"name":"On or near Queens Crescent"},"longitude":"-0.289819"},"context":"","outcome_status":{"category":"Status update unavailable","date":"2019-09"},"persistent_id":"4248b06e98797586c9e53f12d2dd6952fc9b6f3e9c90c8f43eeaa940270e55d1","id":74342425,"location_subtype":"","month":"2019-05"},{"category":"vehicle-crime","location_type":"Force","location":{"latitude":"51.462420","street":{"id":943693,"name":"On or near The Quadrant"},"longitude":"-0.302763"},"context":"","outcome_status":{"category":"Status update unavailable","date":"2019-09"},"persistent_id":"4d58b3bd693f944ad88bf3f0bc3cd11ba69f9aadbf9d91fd1b7545b41f8b0513","id":74360321,"location_subtype":"","month":"2019-05"},{"category":"vehicle-crime","location_type":"Force","location":{"latitude":"51.466580","street":{"id":943612,"name":"On or near Supermarket"},"longitude":"-0.286469"},"context":"","outcome_status":{"category":"Status update unavailable","date":"2019-09"},"persistent_id":"551b61157516739d34faa9ce38b6c834985fa81ae0902c0b64ee36da30727437","id":74314528,"location_subtype":"","month":"2019-05"},{"category":"vehicle-crime","location_type":"Force","location":{"latitude":"51.456467","street":{"id":943775,"name":"On or near Park Road"},"longitude":"-0.312138"},"context":"","outcome_status":{"category":"Status update unavailable","date":"2019-09"},