[{"category":"anti-social-behaviour","location_type":"Force","location":{"latitude":"51.581979","street":{"id":975238,"name":"On or near Page Green Terrace"},"longitude":"-0.072049"},"context":"","outcome_status":null,"persistent_id":"","id":74289018,"location_subtype":"","month":"2019-05"},{"category":"anti-social-behaviour","location_type":"Force","location":{"latitude":"51.596238","street":{"id":977985,"name":"On or near Bruce Grove"},"longitude":"-0.072384"},"context":"","outcome_status":null,"persistent_id":"","id":74289020,"location_subtype":"","month":"2019-05"},{"category":"anti-social-behaviour","location_type":"Force","location":{"latitude":"51.575891","street":{"id":975196,"name":"On or near Petrol Station"},"longitude":"-0.072018"},"context":"","outcome_status":null,"persistent_id":"","id":74289022,"location_subtype":"","month":"2019-05"},{"category":"anti-social-behaviour","location_type":"Force","location":{"latitude":"51.575891","street":{"id":975196,"name":"On or near Petrol Station"},"longitude":"-0.072018"},"context":"","outcome_status":null,"persistent_id":"","id":74289023,"location_subtype":"","month":"2019-05"},{"category":"anti-social-behaviour","location_type":"Force","location":{"latitude":"51.589592","street":{"id":977989,"name":"On or near Arnold Road"},"longitude":"-0.072882"},"context":"","outcome_status":null,"persistent_id":"","id":74289030,"location_subtype":"","month":"2019-05"},{"category":"anti-social-behaviour","location_type":"Force","location":{"latitude":"51.587579","street":{"id":977991,"name":"On or near Theatre\/concert Hall"},"longitude":"-0.072433"},"context":"","outcome_status":null,"persistent_id":"","id":74289031,"location_subtype":"","month":"2019-05"},{"category":"anti-social-behaviour","location_type":"Force","location":{"latitude":"51.584959","street":{"id":978118,"name":"On or near Pelham Road"},"longitude":"-0.073338"},"context":"","outcome_status":null,"persistent_id":"","id":74289032,"location_subtype":"","month":"2019-05"},{"category":"anti-social-behaviour","location_type":"Force","location":{"latitude":"51.583279","street":{"id":975216,"name":"On or near Shopping Area"},"longitude":"-0.072875"},"context":"","outcome_status":null,"persistent_id":"","id":74289033,"location_subtype":"","month":"2019-05"},{"category":"anti-social-behaviour","location_type":"Force","location":{"latitude":"51.591318","street":{"id":977940,"name":"On or near Felixstowe Road"},"longitude":"-0.071798"},"context":"","outcome_status":null,"persistent_id":"","id":74289035,"location_subtype":"","month":"2019-05"},{"category":"anti-social-behaviour","location_type":"Force","location":{"latitude":"51.594650","street":{"id":977941,"name":"On or near Woodside Gardens"},"longitude":"-0.073187"},"context":"","outcome_status":null,"persistent_id":"","id":74289038,"location_subtype":"","month":"2019-05"},{"category":"anti-social-behaviour","location_type":"Force","location":{"latitude":"51.596834","street":{"id":977968,"name":"On or near Hartham Road"},"longitude":"-0.072012"},"context":"","outcome_status":null,"persistent_id":"","id":74289039,"location_subtype":"","month":"2019-05"},{"category":"anti-social-behaviour","location_type":"Force","location":{"latitude":"51.596834","street":{"id":977968,"name":"On or near Hartham Road"},"longitude":"-0.072012"},"context":"","outcome_status":null,"persistent_id":"","id":74289040,"location_subtype":"","month":"2019-05"},{"category":"anti-social-behaviour","location_type":"Force","location":{"latitude":"51.578526","street":{"id":975255,"name":"On or near Ermine Road"},"longitude":"-0.073667"},"context":"","outcome_status":null,"persistent_id":"","id":74289041,"location_subtype":"","month":"2019-05"},{"category":"anti-social-behaviour","location_type":"Force","location":{"latitude":"51.578526","street":{"id":975255,"name":"On or near Ermine Road"},"longitude":"-0.073667"},"context":"","outcome_status":null,"persistent_id":"","id":74289042,"location_subtype":"","month":"2019-05"},{"category":"anti-social-behaviour","location_type":"Force","location":{"latitude":"51.577524","street":{"id":975219,"name":"On or near Westcott Close"},"longitude":"-0.073998"},"context":"","outcome_status":null,"persistent_id":"","id":74289043,"location_subtype":"","month":"2019-05"},{"category":"anti-social-behaviour","location_type":"Force","location":{"latitude":"51.576104","street":{"id":975248,"name":"On or near Hillside Road"},"longitude":"-0.074015"},"context":"","outcome_status":null,"persistent_id":"","id":74289044,"location_subtype":"","month":"2019-05"},{"category":"anti-social-behaviour","location_type":"Force","location":{"latitude":"51.589592","street":{"id":977989,"name":"On or near Arnold Road"},"longitude":"-0.072882"},"context":"","outcome_status":null,"persistent_id":"","id":74289045,"location_subtype":"","month":"2019-05"},{"category":"anti-social-behaviour","location_type":"Force","location":{"latitude":"51.589592","street":{"id":977989,"name":"On or near Arnold Road"},"longitude":"-0.072882"},"context":"","outcome_status":null,"persistent_id":"","id":74289046,"location_subtype":"","month":"2019-05"},{"category":"anti-social-behaviour","location_type":"Force","location":{"latitude":"51.589592","street":{"id":977989,"name":"On or near Arnold Road"},"longitude":"-0.072882"},"context":"","outcome_status":null,"persistent_id":"","id":74289047,"location_subtype":"","month":"2019-05"},{"category":"anti-social-behaviour","location_type":"Force","location":{"latitude":"51.589592","street":{"id":977989,"name":"On or near Arnold Road"},"longitude":"-0.072882"},"context":"","outcome_status":null,"persistent_id":"","id":74289048,"location_subtype":"","month":"2019-05"},{"category":"anti-social-behaviour","location_type":"Force","location":{"latitude":"51.589592","street":{"id":977989,"name":"On or near Arnold Road"},"longitude":"-0.072882"},"context":"","outcome_status":null,"persistent_id":"","id":74289049,"location_subtype":"","month":"2019-05"},{"category":"anti-social-behaviour","location_type":"Force","location":{"latitude":"51.589592","street":{"id":977989,"name":"On or near Arnold Road"},"longitude":"-0.072882"},"context":"","outcome_status":null,"persistent_id":"","id":74289050,"location_subtype":"","month":"2019-05"},{"category":"anti-social-behaviour","location_type":"Force","location":{"latitude":"51.578526","street":{"id":975255,"name":"On or near Ermine Road"},"longitude":"-0.073667"},"context":"","outcome_status":null,"persistent_id":"","id":74289052,"location_subtype":"","month":"2019-05"},{"category":"anti-social-behaviour","location_type":"Force","location":{"latitude":"51.583972","street":{"id":978119,"name":"On or near Maynard Close"},"longitude":"-0.075660"},"context":"","outcome_status":null,"persistent_id":"","id":74289056,"location_subtype":"","month":"2019-05"},{"category":"anti-social-behaviour","location_type":"Force","location":{"latitude":"51.586223","street":{"id":977988,"name":"On or near Beaconsfield Road"},"longitude":"-0.075825"},"context":"","outcome_status":null,"persistent_id":"","id":74289058,"location_subtype":"","month":"2019-05"},{"category":"anti-social-behaviour","location_type":"Force","location":{"latitude":"51.582188","street":{"id":975266,"name":"On or near Birstall Road"},"longitude":"-0.075995"},"context":"","outcome_status":null,"persistent_id":"","id":74289059,"location_subtype":"","month":"2019-05"},{"category":"anti-social-behaviour","location_type":"Force","location":{"latitude":"51.583972","street":{"id":978119,"name":"On or near Maynard Close"},"longitude":"-0.075660"},"context":"","outcome_status":null,"persistent_id":"","id":74289060,"location_subtype":"","month":"2019-05"},{"category":"anti-social-behaviour","location_type":"Force","location":{"latitude":"51.578554","street":{"id":975236,"name":"On or near Plevna Crescent"},"longitude":"-0.077606"},"context":"","outcome_status":null,"persistent_id":"","id":74289064,"location_subtype":"","month":"2019-05"},{"category":"anti-social-behaviour","location_type":"Force","location":{"latitude":"51.587326","street":{"id":977956,"name":"On or near Nelson Road"},"longitude":"-0.077265"},"context":"","outcome_status":null,"persistent_id":"","id":74289065,"location_subtype":"","month":"2019-05"},{"category":"anti-social-behaviour","location_type":"Force","location":{"latitude":"51.587326","street":{"id":977956,"name":"On or near Nelson Road"},"longitude":"-0.077265"},"context":"","outcome_status":null,"persistent_id":"","id":74289066,"location_subtype":"","month":"2019-05"},{"category":"anti-social-behaviour","location_type":"Force","location":{"latitude":"51.587326","street":{"id":977956,"name":"On or near Nelson Road"},"longitude":"-0.077265"},"context":"","outcome_status":null,"persistent_id":"","id":74289067,"location_subtype":"","month":"2019-05"},{"category":"anti-social-behaviour","location_type":"Force","location":{"latitude":"51.574906","street":{"id":975244,"name":"On or near Hurstdene Gardens"},"longitude":"-0.075047"},"context":"","outcome_status":null,"persistent_id":"","id":74279314,"location_subtype":"","month":"2019-05"},{"category":"anti-social-behaviour","location_type":"Force","location":{"latitude":"51.583775","street":{"id":975130,"name":"On or near Cranleigh Road"},"longitude":"-0.092759"},"context":"","outcome_status":null,"persistent_id":"","id":74279778,"location_subtype":"","month":"2019-05"},{"category":"anti-social-behaviour","location_type":"Force","location":{"latitude":"51.586150","street":{"id":978191,"name":"On or near West Green Road"},"longitude":"-0.091172"},"context":"","outcome_status":null,"persistent_id":"","id":74279779,"location_subtype":"","month":"2019-05"},{"category":"anti-social-behaviour","location_type":"Force","location":{"latitude":"51.579948","street":{"id":975084,"name":"On or near Warwick Gardens"},"longitude":"-0.093597"},"context":"","outcome_status":null,"persistent_id":"","id":74279781,"location_subtype":"","month":"2019-05"},{"category":"anti-social-behaviour","location_type":"Force","location":{"latitude":"51.585715","street":{"id":978260,"name":"On or near Culross Close"},"longitude":"-0.094280"},"context":"","outcome_status":null,"persistent_id":"","id":74279785,"location_subtype":"","month":"2019-05"},{"category":"anti-social-behaviour","location_type":"Force","location":{"latitude":"51.582148","street":{"id":975122,"name":"On or near Brampton Road"},"longitude":"-0.094472"},"context":"","outcome_status":null,"persistent_id":"","id":74279797,"location_subtype":"","month":"2019-05"},{"category":"anti-social-behaviour","location_type":"Force","location":{"latitude":"51.571713","street":{"id":975292,"name":"On or near Leweston Place"},"longitude":"-0.071170"},"context":"","outcome_status":null,"persistent_id":"","id":74279245,"location_subtype":"","month":"2019-05"},{"category":"anti-social-behaviour","location_type":"Force","location":{"latitude":"51.571713","street":{"id":975292,"name":"On or near Leweston Place"},"longitude":"-0.071170"},"context":"","outcome_status":null,"persistent_id":"","id":74279246,"location_subtype":"","month":"2019-05"},{"category":"anti-social-behaviour","location_type":"Force","location":{"latitude":"51.571145","street":{"id":975283,"name":"On or near Colberg Place"},"longitude":"-0.074311"},"context":"","outcome_status":null,"persistent_id":"","id":74279263,"location_subtype":"","month":"2019-05"},{"category":"anti-social-behaviour","location_type":"Force","location":{"latitude":"51.571145","street":{"id":975283,"name":"On or near Colberg Place"},"longitude":"-0.074311"},"context":"","outcome_status":null,"persistent_id":"","id":74279264,"location_subtype":"","month":"2019-05"},{"category":"anti-social-behaviour","location_type":"Force","location":{"latitude":"51.569124","street":{"id":971721,"name":"On or near Leatherhead Close"},"longitude":"-0.075046"},"context":"","outcome_status":null,"persistent_id":"","id":74279265,"location_subtype":"","month":"2019-05"},{"category":"anti-social-behaviour","location_type":"Force","location":{"latitude":"51.573252","street":{"id":975270,"name":"On or near Supermarket"},"longitude":"-0.073414"},"context":"","outcome_status":null,"persistent_id":"","id":74279282,"location_subtype":"","month":"2019-05"},{"category":"anti-social-behaviour","location_type":"Force","location":{"latitude":"51.569641","street":{"id":971722,"name":"On or near Holmleigh Road"},"longitude":"-0.075298"},"context":"","outcome_status":null,"persistent_id":"","id":74279315,"location_subtype":"","month":"2019-05"},{"category":"anti-social-behaviour","location_type":"Force","location":{"latitude":"51.571882","street":{"id":975280,"name":"On or near Linthorpe Road"},"longitude":"-0.075391"},"context":"","outcome_status":null,"persistent_id":"","id":74279342,"location_subtype":"","month":"2019-05"},{"category":"anti-social-behaviour","location_type":"Force","location":{"latitude":"51.574657","street":{"id":975247,"name":"On or near Holmdale Terrace"},"longitude":"-0.076847"},"context":"","outcome_status":null,"persistent_id":"","id":74279357,"location_subtype":"","month":"2019-05"},{"category":"anti-social-behaviour","location_type":"Force","location":{"latitude":"51.574657","street":{"id":975247,"name":"On or near Holmdale Terrace"},"longitude":"-0.076847"},"context":"","outcome_status":null,"persistent_id":"","id":74279358,"location_subtype":"","month":"2019-05"},{"category":"anti-social-behaviour","location_type":"Force","location":{"latitude":"51.574657","street":{"id":975247,"name":"On or near Holmdale Terrace"},"longitude":"-0.076847"},"context":"","outcome_status":null,"persistent_id":"","id":74279359,"location_subtype":"","month":"2019-05"},{"category":"anti-social-behaviour","location_type":"Force","location":{"latitude":"51.570072","street":{"id":971724,"name":"On or near East Bank"},"longitude":"-0.078007"},"context":"","outcome_status":null,"persistent_id":"","id":74279368,"location_subtype":"","month":"2019-05"},{"category":"anti-social-behaviour","location_type":"Force","location":{"latitude":"51.569972","street":{"id":971717,"name":"On or near St Andrew's Mews"},"longitude":"-0.079007"},"context":"","outcome_status":null,"persistent_id":"","id":74279397,"location_subtype":"","month":"2019-05"},{"category":"anti-social-behaviour","location_type":"Force","location":{"latitude":"51.573124","street":{"id":975258,"name":"On or near Durley Road"},"longitude":"-0.079322"},"context":"","outcome_status":null,"persistent_id":"","id":74279404,"location_subtype":"","month":"2019-05"},{"category":"anti-social-behaviour","location_type":"Force","location":{"latitude":"51.587825","street":{"id":977905,"name":"On or near Ferry Lane"},"longitude":"-0.056803"},"context":"","outcome_status":null,"persistent_id":"","id":74288375,"location_subtype":"","month":"2019-05"},{"category":"anti-social-behaviour","location_type":"Force","location":{"latitude":"51.587825","street":{"id":977905,"name":"On or near Ferry Lane"},"longitude":"-0.056803"},"context":"","outcome_status":null,"persistent_id":"","id":74288380,"location_subtype":"","month":"2019-05"},{"category":"anti-social-behaviour","location_type":"Force","location":{"latitude":"51.583188","street":{"id":975317,"name":"On or near Kessock Close"},"longitude":"-0.058646"},"context":"","outcome_status":null,"persistent_id":"","id":74288381,"location_subtype":"","month":"2019-05"},{"category":"anti-social-behaviour","location_type":"Force","location":{"latitude":"51.584513","street":{"id":977937,"name":"On or near Runcorn Close"},"longitude":"-0.058301"},"context":"","outcome_status":null,"persistent_id":"","id":74288383,"location_subtype":"","month":"2019-05"},{"category":"anti-social-behaviour","location_type":"Force","location":{"latitude":"51.589032","street":{"id":977999,"name":"On or near Parking Area"},"longitude":"-0.060173"},"context":"","outcome_status":null,"persistent_id":"","id":74288384,"location_subtype":"","month":"2019-05"},{"category":"anti-social-behaviour","location_type":"Force","location":{"latitude":"51.580725","street":{"id":975197,"name":"On or near Sports\/recreation Area"},"longitude":"-0.063601"},"context":"","outcome_status":null,"persistent_id":"","id":74288408,"location_subtype":"","month":"2019-05"},{"category":"anti-social-behaviour","location_type":"Force","location":{"latitude":"51.595540","street":{"id":978047,"name":"On or near Havelock Road"},"longitude":"-0.060560"},"context":"","outcome_status":null,"persistent_id":"","id":74288399,"location_subtype":"","month":"2019-05"},{"category":"anti-social-behaviour","location_type":"Force","location":{"latitude":"51.589032","street":{"id":977999,"name":"On or near Parking Area"},"longitude":"-0.060173"},"context":"","outcome_status":null,"persistent_id":"","id":74288402,"location_subtype":"","month":"2019-05"},{"category":"anti-social-behaviour","location_type":"Force","location":{"latitude":"51.587120","street":{"id":978082,"name":"On or near Shopping Area"},"longitude":"-0.062030"},"context":"","outcome_status":null,"persistent_id":"","id":74288407,"location_subtype":"","month":"2019-05"},{"category":"anti-social-behaviour","location_type":"Force","location":{"latitude":"51.580725","street":{"id":975197,"name":"On or near Sports\/recreation Area"},"longitude":"-0.063601"},"context":"","outcome_status":null,"persistent_id":"","id":74288409,"location_subtype":"","month":"2019-05"},{"category":"anti-social-behaviour","location_type":"Force","location":{"latitude":"51.589160","street":{"id":978046,"name":"On or near High Cross Road"},"longitude":"-0.063617"},"context":"","outcome_status":null,"persistent_id":"","id":74288413,"location_subtype":"","month":"2019-05"},{"category":"anti-social-behaviour","location_type":"Force","location":{"latitude":"51.589160","street":{"id":978046,"name":"On or near High Cross Road"},"longitude":"-0.063617"},"context":"","outcome_status":null,"persistent_id":"","id":74288414,"location_subtype":"","month":"2019-05"},{"category":"anti-social-behaviour","location_type":"Force","location":{"latitude":"51.589160","street":{"id":978046,"name":"On or near High Cross Road"},"longitude":"-0.063617"},"context":"","outcome_status":null,"persistent_id":"","id":74288415,"location_subtype":"","month":"2019-05"},{"category":"anti-social-behaviour","location_type":"Force","location":{"latitude":"51.588909","street":{"id":978050,"name":"On or near Hale Gardens"},"longitude":"-0.064162"},"context":"","outcome_status":null,"persistent_id":"","id":74288418,"location_subtype":"","month":"2019-05"},{"category":"anti-social-behaviour","location_type":"Force","location":{"latitude":"51.585895","street":{"id":978017,"name":"On or near Spondon Road"},"longitude":"-0.065214"},"context":"","outcome_status":null,"persistent_id":"","id":74288425,"location_subtype":"","month":"2019-05"},{"category":"anti-social-behaviour","location_type":"Force","location":{"latitude":"51.578422","street":{"id":975174,"name":"On or near Grovelands Road"},"longitude":"-0.064088"},"context":"","outcome_status":null,"persistent_id":"","id":74288426,"location_subtype":"","month":"2019-05"},{"category":"anti-social-behaviour","location_type":"Force","location":{"latitude":"51.589834","street":{"id":978011,"name":"On or near The Hale"},"longitude":"-0.064123"},"context":"","outcome_status":null,"persistent_id":"","id":74288428,"location_subtype":"","month":"2019-05"},{"category":"anti-social-behaviour","location_type":"Force","location":{"latitude":"51.589445","street":{"id":977996,"name":"On or near Pedestrian Subway"},"longitude":"-0.065063"},"context":"","outcome_status":null,"persistent_id":"","id":74288431,"location_subtype":"","month":"2019-05"},{"category":"anti-social-behaviour","location_type":"Force","location":{"latitude":"51.584768","street":{"id":978103,"name":"On or near Fountayne Road"},"longitude":"-0.065522"},"context":"","outcome_status":null,"persistent_id":"","id":74288432,"location_subtype":"","month":"2019-05"},{"category":"anti-social-behaviour","location_type":"Force","location":{"latitude":"51.575337","street":{"id":975164,"name":"On or near Moundfield Road"},"longitude":"-0.065691"},"context":"","outcome_status":null,"persistent_id":"","id":74288433,"location_subtype":"","month":"2019-05"},{"category":"anti-social-behaviour","location_type":"Force","location":{"latitude":"51.588092","street":{"id":978031,"name":"On or near Montague Road"},"longitude":"-0.065352"},"context":"","outcome_status":null,"persistent_id":"","id":74288435,"location_subtype":"","month":"2019-05"},{"category":"anti-social-behaviour","location_type":"Force","location":{"latitude":"51.592709","street":{"id":978042,"name":"On or near Holcombe Road"},"longitude":"-0.066137"},"context":"","outcome_status":null,"persistent_id":"","id":74288441,"location_subtype":"","month":"2019-05"},{"category":"anti-social-behaviour","location_type":"Force","location":{"latitude":"51.590656","street":{"id":978066,"name":"On or near Chesnut Grove"},"longitude":"-0.066513"},"context":"","outcome_status":null,"persistent_id":"","id":74288444,"location_subtype":"","month":"2019-05"},{"category":"anti-social-behaviour","location_type":"Force","location":{"latitude":"51.590656","street":{"id":978066,"name":"On or near Chesnut Grove"},"longitude":"-0.066513"},"context":"","outcome_status":null,"persistent_id":"","id":74288445,"location_subtype":"","month":"2019-05"},{"category":"anti-social-behaviour","location_type":"Force","location":{"latitude":"51.587967","street":{"id":978015,"name":"On or near Stainby Road"},"longitude":"-0.067061"},"context":"","outcome_status":null,"persistent_id":"","id":74288447,"location_subtype":"","month":"2019-05"},{"category":"anti-social-behaviour","location_type":"Force","location":{"latitude":"51.578687","street":{"id":975180,"name":"On or near Elm Park Avenue"},"longitude":"-0.067079"},"context":"","outcome_status":null,"persistent_id":"","id":74288450,"location_subtype":"","month":"2019-05"},{"category":"anti-social-behaviour","location_type":"Force","location":{"latitude":"51.596971","street":{"id":981764,"name":"On or near Scotland Green"},"longitude":"-0.066635"},"context":"","outcome_status":null,"persistent_id":"","id":74288451,"location_subtype":"","month":"2019-05"},{"category":"anti-social-behaviour","location_type":"Force","location":{"latitude":"51.596971","street":{"id":981764,"name":"On or near Scotland Green"},"longitude":"-0.066635"},"context":"","outcome_status":null,"persistent_id":"","id":74288452,"location_subtype":"","month":"2019-05"},{"category":"anti-social-behaviour","location_type":"Force","location":{"latitude":"51.595067","street":{"id":978078,"name":"On or near Albion Road"},"longitude":"-0.066802"},"context":"","outcome_status":null,"persistent_id":"","id":74288456,"location_subtype":"","month":"2019-05"},{"category":"anti-social-behaviour","location_type":"Force","location":{"latitude":"51.595067","street":{"id":978078,"name":"On or near Albion Road"},"longitude":"-0.066802"},"context":"","outcome_status":null,"persistent_id":"","id":74288458,"location_subtype":"","month":"2019-05"},{"category":"anti-social-behaviour","location_type":"Force","location":{"latitude":"51.590218","street":{"id":978049,"name":"On or near Hamilton Close"},"longitude":"-0.067225"},"context":"","outcome_status":null,"persistent_id":"","id":74288459,"location_subtype":"","month":"2019-05"},{"category":"anti-social-behaviour","location_type":"Force","location":{"latitude":"51.593510","street":{"id":978025,"name":"On or near Reed Road"},"longitude":"-0.067793"},"context":"","outcome_status":null,"persistent_id":"","id":74288463,"location_subtype":"","month":"2019-05"},{"category":"anti-social-behaviour","location_type":"Force","location":{"latitude":"51.585229","street":{"id":978102,"name":"On or near Hanover Road"},"longitude":"-0.068404"},"context":"","outcome_status":null,"persistent_id":"","id":74288465,"location_subtype":"","month":"2019-05"},{"category":"anti-social-behaviour","location_type":"Force","location":{"latitude":"51.588013","street":{"id":978021,"name":"On or near Saltram Close"},"longitude":"-0.068748"},"context":"","outcome_status":null,"persistent_id":"","id":74288467,"location_subtype":"","month":"2019-05"},{"category":"anti-social-behaviour","location_type":"Force","location":{"latitude":"51.588013","street":{"id":978021,"name":"On or near Saltram Close"},"longitude":"-0.068748"},"context":"","outcome_status":null,"persistent_id":"","id":74288468,"location_subtype":"","month":"2019-05"},{"category":"anti-social-behaviour","location_type":"Force","location":{"latitude":"51.588013","street":{"id":978021,"name":"On or near Saltram Close"},"longitude":"-0.068748"},"context":"","outcome_status":null,"persistent_id":"","id":74288469,"location_subtype":"","month":"2019-05"},{"category":"anti-social-behaviour","location_type":"Force","location":{"latitude":"51.587205","street":{"id":978062,"name":"On or near Copperfield Drive"},"longitude":"-0.068811"},"context":"","outcome_status":null,"persistent_id":"","id":74288470,"location_subtype":"","month":"2019-05"},{"category":"anti-social-behaviour","location_type":"Force","location":{"latitude":"51.592950","street":{"id":978014,"name":"On or near Stoneleigh Road"},"longitude":"-0.068769"},"context":"","outcome_status":null,"persistent_id":"","id":74288472,"location_subtype":"","month":"2019-05"},{"category":"anti-social-behaviour","location_type":"Force","location":{"latitude":"51.594364","street":{"id":978084,"name":"On or near Supermarket"},"longitude":"-0.068911"},"context":"","outcome_status":null,"persistent_id":"","id":74288489,"location_subtype":"","month":"2019-05"},{"category":"anti-social-behaviour","location_type":"Force","location":{"latitude":"51.594364","street":{"id":978084,"name":"On or near Supermarket"},"longitude":"-0.068911"},"context":"","outcome_status":null,"persistent_id":"","id":74288490,"location_subtype":"","month":"2019-05"},{"category":"anti-social-behaviour","location_type":"Force","location":{"latitude":"51.588998","street":{"id":977995,"name":"On or near Parking Area"},"longitude":"-0.069615"},"context":"","outcome_status":null,"persistent_id":"","id":74288491,"location_subtype":"","month":"2019-05"},{"category":"anti-social-behaviour","location_type":"Force","location":{"latitude":"51.593190","street":{"id":978075,"name":"On or near Brook Street"},"longitude":"-0.069134"},"context":"","outcome_status":null,"persistent_id":"","id":74288494,"location_subtype":"","month":"2019-05"},{"category":"anti-social-behaviour","location_type":"Force","location":{"latitude":"51.593190","street":{"id":978075,"name":"On or near Brook Street"},"longitude":"-0.069134"},"context":"","outcome_status":null,"persistent_id":"","id":74288495,"location_subtype":"","month":"2019-05"},{"category":"anti-social-behaviour","location_type":"Force","location":{"latitude":"51.593190","street":{"id":978075,"name":"On or near Brook Street"},"longitude":"-0.069134"},"context":"","outcome_status":null,"persistent_id":"","id":74288496,"location_subtype":"","month":"2019-05"},{"category":"anti-social-behaviour","location_type":"Force","location":{"latitude":"51.594364","street":{"id":978084,"name":"On or near Supermarket"},"longitude":"-0.068911"},"context":"","outcome_status":null,"persistent_id":"","id":74288498,"location_subtype":"","month":"2019-05"},{"category":"anti-social-behaviour","location_type":"Force","location":{"latitude":"51.594364","street":{"id":978084,"name":"On or near Supermarket"},"longitude":"-0.068911"},"context":"","outcome_status":null,"persistent_id":"","id":74288499,"location_subtype":"","month":"2019-05"},{"category":"anti-social-behaviour","location_type":"Force","location":{"latitude":"51.594364","street":{"id":978084,"name":"On or near Supermarket"},"longitude":"-0.068911"},"context":"","outcome_status":null,"persistent_id":"","id":74288500,"location_subtype":"","month":"2019-05"},{"category":"anti-social-behaviour","location_type":"Force","location":{"latitude":"51.594364","street":{"id":978084,"name":"On or near Supermarket"},"longitude":"-0.068911"},"context":"","outcome_status":null,"persistent_id":"","id":74288501,"location_subtype":"","month":"2019-05"},{"category":"anti-social-behaviour","location_type":"Force","location":{"latitude":"51.594364","street":{"id":978084,"name":"On or near Supermarket"},"longitude":"-0.068911"},"context":"","outcome_status":null,"persistent_id":"","id":74288502,"location_subtype":"","month":"2019-05"},{"category":"anti-social-behaviour","location_type":"Force","location":{"latitude":"51.594364","street":{"id":978084,"name":"On or near Supermarket"},"longitude":"-0.068911"},"context":"","outcome_status":null,"persistent_id":"","id":74288503,"location_subtype":"","month":"2019-05"},{"category":"anti-social-behaviour","location_type":"Force","location":{"latitude":"51.585129","street":{"id":978099,"name":"On or near Talbot Road"},"longitude":"-0.070010"},"context":"","outcome_status":null,"persistent_id":"","id":74288504,"location_subtype":"","month":"2019-05"},{"category":"anti-social-behaviour","location_type":"Force","location":{"latitude":"51.586963","street":{"id":978008,"name":"On or near Tottenham Green East"},"longitude":"-0.070539"},"context":"","outcome_status":null,"persistent_id":"","id":74288508,"location_subtype":"","month":"2019-05"},{"category":"anti-social-behaviour","location_type":"Force","location":{"latitude":"51.586963","street":{"id":978008,"name":"On or near Tottenham Green East"},"longitude":"-0.070539"},"context":"","outcome_status":null,"persistent_id":"","id":74288509,"location_subtype":"","month":"2019-05"},{"category":"anti-social-behaviour","location_type":"Force","location":{"latitude":"51.586963","street":{"id":978008,"name":"On or near Tottenham Green East"},"longitude":"-0.070539"},"context":"","outcome_status":null,"persistent_id":"","id":74288510,"location_subtype":"","month":"2019-05"},{"category":"anti-social-behaviour","location_type":"Force","location":{"latitude":"51.586963","street":{"id":978008,"name":"On or near Tottenham Green East"},"longitude":"-0.070539"},"context":"","outcome_status":null,"persistent_id":"","id":74288511,"location_subtype":"","month":"2019-05"},{"category":"anti-social-behaviour","location_type":"Force","location":{"latitude":"51.586963","street":{"id":978008,"name":"On or near Tottenham Green East"},"longitude":"-0.070539"},"context":"","outcome_status":null,"persistent_id":"","id":74288513,"location_subtype":"","month":"2019-05"},{"category":"anti-social-behaviour","location_type":"Force","location":{"latitude":"51.586963","street":{"id":978008,"name":"On or near Tottenham Green East"},"longitude":"-0.070539"},"context":"","outcome_status":null,"persistent_id":"","id":74288514,"location_subtype":"","month":"2019-05"},{"category":"anti-social-behaviour","location_type":"Force","location":{"latitude":"51.586963","street":{"id":978008,"name":"On or near Tottenham Green East"},"longitude":"-0.070539"},"context":"","outcome_status":null,"persistent_id":"","id":74288516,"location_subtype":"","month":"2019-05"},{"category":"anti-social-behaviour","location_type":"Force","location":{"latitude":"51.586963","street":{"id":978008,"name":"On or near Tottenham Green East"},"longitude":"-0.070539"},"context":"","outcome_status":null,"persistent_id":"","id":74288517,"location_subtype":"","month":"2019-05"},{"category":"anti-social-behaviour","location_type":"Force","location":{"latitude":"51.590899","street":{"id":978087,"name":"On or near Police Station"},"longitude":"-0.069809"},"context":"","outcome_status":null,"persistent_id":"","id":74288518,"location_subtype":"","month":"2019-05"},{"category":"anti-social-behaviour","location_type":"Force","location":{"latitude":"51.590899","street":{"id":978087,"name":"On or near Police Station"},"longitude":"-0.069809"},"context":"","outcome_status":null,"persistent_id":"","id":74288520,"location_subtype":"","month":"2019-05"},{"category":"anti-social-behaviour","location_type":"Force","location":{"latitude":"51.590125","street":{"id":923740,"name":"On or near Further\/higher Educational Building"},"longitude":"-0.069741"},"context":"","outcome_status":null,"persistent_id":"","id":74288522,"location_subtype":"","month":"2019-05"},{"category":"anti-social-behaviour","location_type":"Force","location":{"latitude":"51.590125","street":{"id":923740,"name":"On or near Further\/higher Educational Building"},"longitude":"-0.069741"},"context":"","outcome_status":null,"persistent_id":"","id":74288524,"location_subtype":"","month":"2019-05"},{"category":"anti-social-behaviour","location_type":"Force","location":{"latitude":"51.590125","street":{"id":923740,"name":"On or near Further\/higher Educational Building"},"longitude":"-0.069741"},"context":"","outcome_status":null,"persistent_id":"","id":74288525,"location_subtype":"","month":"2019-05"},{"category":"anti-social-behaviour","location_type":"Force","location":{"latitude":"51.586493","street":{"id":978007,"name":"On or near Tottenham Green East South Side"},"longitude":"-0.070891"},"context":"","outcome_status":null,"persistent_id":"","id":74288526,"location_subtype":"","month":"2019-05"},{"category":"anti-social-behaviour","location_type":"Force","location":{"latitude":"51.586493","street":{"id":978007,"name":"On or near Tottenham Green East South Side"},"longitude":"-0.070891"},"context":"","outcome_status":null,"persistent_id":"","id":74288527,"location_subtype":"","month":"2019-05"},{"category":"anti-social-behaviour","location_type":"Force","location":{"latitude":"51.586493","street":{"id":978007,"name":"On or near Tottenham Green East South Side"},"longitude":"-0.070891"},"context":"","outcome_status":null,"persistent_id":"","id":74288528,"location_subtype":"","month":"2019-05"},{"category":"anti-social-behaviour","location_type":"Force","location":{"latitude":"51.586493","street":{"id":978007,"name":"On or near Tottenham Green East South Side"},"longitude":"-0.070891"},"context":"","outcome_status":null,"persistent_id":"","id":74288529,"location_subtype":"","month":"2019-05"},{"category":"anti-social-behaviour","location_type":"Force","location":{"latitude":"51.587579","street":{"id":978063,"name":"On or near Colsterworth Road"},"longitude":"-0.070267"},"context":"","outcome_status":null,"persistent_id":"","id":74288530,"location_subtype":"","month":"2019-05"},{"category":"anti-social-behaviour","location_type":"Force","location":{"latitude":"51.587579","street":{"id":978063,"name":"On or near Colsterworth Road"},"longitude":"-0.070267"},"context":"","outcome_status":null,"persistent_id":"","id":74288531,"location_subtype":"","month":"2019-05"},{"category":"anti-social-behaviour","location_type":"Force","location":{"latitude":"51.586493","street":{"id":978007,"name":"On or near Tottenham Green East South Side"},"longitude":"-0.070891"},"context":"","outcome_status":null,"persistent_id":"","id":74288533,"location_subtype":"","month":"2019-05"},{"category":"anti-social-behaviour","location_type":"Force","location":{"latitude":"51.597609","street":{"id":981768,"name":"On or near Newlyn Road"},"longitude":"-0.071012"},"context":"","outcome_status":null,"persistent_id":"","id":74288534,"location_subtype":"","month":"2019-05"},{"category":"anti-social-behaviour","location_type":"Force","location":{"latitude":"51.586212","street":{"id":977993,"name":"On or near Further\/higher Educational Building"},"longitude":"-0.072433"},"context":"","outcome_status":null,"persistent_id":"","id":74288536,"location_subtype":"","month":"2019-05"},{"category":"anti-social-behaviour","location_type":"Force","location":{"latitude":"51.585659","street":{"id":978013,"name":"On or near Talbot Close"},"longitude":"-0.070507"},"context":"","outcome_status":null,"persistent_id":"","id":74288537,"location_subtype":"","month":"2019-05"},{"category":"anti-social-behaviour","location_type":"Force","location":{"latitude":"51.589029","street":{"id":978079,"name":"On or near Bus\/coach Station"},"longitude":"-0.071476"},"context":"","outcome_status":null,"persistent_id":"","id":74288538,"location_subtype":"","month":"2019-05"},{"category":"anti-social-behaviour","location_type":"Force","location":{"latitude":"51.587084","street":{"id":977965,"name":"On or near Lawrence Road"},"longitude":"-0.079527"},"context":"","outcome_status":null,"persistent_id":"","id":74289080,"location_subtype":"","month":"2019-05"},{"category":"anti-social-behaviour","location_type":"Force","location":{"latitude":"51.596195","street":{"id":977973,"name":"On or near Grant Close"},"longitude":"-0.079648"},"context":"","outcome_status":null,"persistent_id":"","id":74289088,"location_subtype":"","month":"2019-05"},{"category":"anti-social-behaviour","location_type":"Force","location":{"latitude":"51.580994","street":{"id":975220,"name":"On or near Victoria Crescent"},"longitude":"-0.079943"},"context":"","outcome_status":null,"persistent_id":"","id":74289079,"location_subtype":"","month":"2019-05"},{"category":"anti-social-behaviour","location_type":"Force","location":{"latitude":"51.580994","street":{"id":975220,"name":"On or near Victoria Crescent"},"longitude":"-0.079943"},"context":"","outcome_status":null,"persistent_id":"","id":74289078,"location_subtype":"","month":"2019-05"},{"category":"anti-social-behaviour","location_type":"Force","location":{"latitude":"51.576024","street":{"id":975237,"name":"On or near Paignton Road"},"longitude":"-0.079012"},"context":"","outcome_status":null,"persistent_id":"","id":74289075,"location_subtype":"","month":"2019-05"},{"category":"anti-social-behaviour","location_type":"Force","location":{"latitude":"51.593746","street":{"id":977958,"name":"On or near Mount Pleasant Road"},"longitude":"-0.078365"},"context":"","outcome_status":null,"persistent_id":"","id":74289072,"location_subtype":"","month":"2019-05"},{"category":"anti-social-behaviour","location_type":"Force","location":{"latitude":"51.585441","street":{"id":978121,"name":"On or near Lawrence Yard"},"longitude":"-0.078629"},"context":"","outcome_status":null,"persistent_id":"","id":74289071,"location_subtype":"","month":"2019-05"},{"category":"anti-social-behaviour","location_type":"Force","location":{"latitude":"51.587326","street":{"id":977956,"name":"On or near Nelson Road"},"longitude":"-0.077265"},"context":"","outcome_status":null,"persistent_id":"","id":74289069,"location_subtype":"","month":"2019-05"},{"category":"anti-social-behaviour","location_type":"Force","location":{"latitude":"51.587326","street":{"id":977956,"name":"On or near Nelson Road"},"longitude":"-0.077265"},"context":"","outcome_status":null,"persistent_id":"","id":74289068,"location_subtype":"","month":"2019-05"},{"category":"anti-social-behaviour","location_type":"Force","location":{"latitude":"51.584701","street":{"id":978124,"name":"On or near High Road"},"longitude":"-0.071890"},"context":"","outcome_status":null,"persistent_id":"","id":74289016,"location_subtype":"","month":"2019-05"},{"category":"anti-social-behaviour","location_type":"Force","location":{"latitude":"51.584701","street":{"id":978124,"name":"On or near High Road"},"longitude":"-0.071890"},"context":"","outcome_status":null,"persistent_id":"","id":74289017,"location_subtype":"","month":"2019-05"},{"category":"anti-social-behaviour","location_type":"Force","location":{"latitude":"51.581979","street":{"id":975238,"name":"On or near Page Green Terrace"},"longitude":"-0.072049"},"context":"","outcome_status":null,"persistent_id":"","id":74289019,"location_subtype":"","month":"2019-05"},{"category":"anti-social-behaviour","location_type":"Force","location":{"latitude":"51.590656","street":{"id":978066,"name":"On or near Chesnut Grove"},"longitude":"-0.066513"},"context":"","outcome_status":null,"persistent_id":"","id":74288442,"location_subtype":"","month":"2019-05"},{"category":"anti-social-behaviour","location_type":"Force","location":{"latitude":"51.586437","street":{"id":977902,"name":"On or near Reedham Close"},"longitude":"-0.057194"},"context":"","outcome_status":null,"persistent_id":"","id":74287723,"location_subtype":"","month":"2019-05"},{"category":"anti-social-behaviour","location_type":"Force","location":{"latitude":"51.577953","street":{"id":975144,"name":"On or near Wellington Avenue"},"longitude":"-0.066721"},"context":"","outcome_status":null,"persistent_id":"","id":74288446,"location_subtype":"","month":"2019-05"},{"category":"anti-social-behaviour","location_type":"Force","location":{"latitude":"51.595067","street":{"id":978078,"name":"On or near Albion Road"},"longitude":"-0.066802"},"context":"","outcome_status":null,"persistent_id":"","id":74288455,"location_subtype":"","month":"2019-05"},{"category":"anti-social-behaviour","location_type":"Force","location":{"latitude":"51.595067","street":{"id":978078,"name":"On or near Albion Road"},"longitude":"-0.066802"},"context":"","outcome_status":null,"persistent_id":"","id":74288457,"location_subtype":"","month":"2019-05"},{"category":"anti-social-behaviour","location_type":"Force","location":{"latitude":"51.586963","street":{"id":978008,"name":"On or near Tottenham Green East"},"longitude":"-0.070539"},"context":"","outcome_status":null,"persistent_id":"","id":74288512,"location_subtype":"","month":"2019-05"},{"category":"anti-social-behaviour","location_type":"Force","location":{"latitude":"51.590899","street":{"id":978087,"name":"On or near Police Station"},"longitude":"-0.069809"},"context":"","outcome_status":null,"persistent_id":"","id":74288519,"location_subtype":"","month":"2019-05"},{"category":"anti-social-behaviour","location_type":"Force","location":{"latitude":"51.590899","street":{"id":978087,"name":"On or near Police Station"},"longitude":"-0.069809"},"context":"","outcome_status":null,"persistent_id":"","id":74288521,"location_subtype":"","month":"2019-05"},{"category":"anti-social-behaviour","location_type":"Force","location":{"latitude":"51.590125","street":{"id":923740,"name":"On or near Further\/higher Educational Building"},"longitude":"-0.069741"},"context":"","outcome_status":null,"persistent_id":"","id":74288523,"location_subtype":"","month":"2019-05"},{"category":"anti-social-behaviour","location_type":"Force","location":{"latitude":"51.575891","street":{"id":975196,"name":"On or near Petrol Station"},"longitude":"-0.072018"},"context":"","outcome_status":null,"persistent_id":"","id":74289021,"location_subtype":"","month":"2019-05"},{"category":"anti-social-behaviour","location_type":"Force","location":{"latitude":"51.586437","street":{"id":977902,"name":"On or near Reedham Close"},"longitude":"-0.057194"},"context":"","outcome_status":null,"persistent_id":"","id":74287722,"location_subtype":"","month":"2019-05"},{"category":"anti-social-behaviour","location_type":"Force","location":{"latitude":"51.574094","street":{"id":975181,"name":"On or near Egerton Road"},"longitude":"-0.070478"},"context":"","outcome_status":null,"persistent_id":"","id":74278261,"location_subtype":"","month":"2019-05"},{"category":"anti-social-behaviour","location_type":"Force","location":{"latitude":"51.590656","street":{"id":978066,"name":"On or near Chesnut Grove"},"longitude":"-0.066513"},"context":"","outcome_status":null,"persistent_id":"","id":74288443,"location_subtype":"","month":"2019-05"},{"category":"anti-social-behaviour","location_type":"Force","location":{"latitude":"51.588754","street":{"id":978010,"name":"On or near The Hale"},"longitude":"-0.063490"},"context":"","outcome_status":null,"persistent_id":"","id":74288403,"location_subtype":"","month":"2019-05"},{"category":"anti-social-behaviour","location_type":"Force","location":{"latitude":"51.583922","street":{"id":977938,"name":"On or near Armadale Close"},"longitude":"-0.057864"},"context":"","outcome_status":null,"persistent_id":"","id":74287721,"location_subtype":"","month":"2019-05"},{"category":"anti-social-behaviour","location_type":"Force","location":{"latitude":"51.583922","street":{"id":977938,"name":"On or near Armadale Close"},"longitude":"-0.057864"},"context":"","outcome_status":null,"persistent_id":"","id":74287720,"location_subtype":"","month":"2019-05"},{"category":"anti-social-behaviour","location_type":"Force","location":{"latitude":"51.596238","street":{"id":977985,"name":"On or near Bruce Grove"},"longitude":"-0.072384"},"context":"","outcome_status":null,"persistent_id":"","id":74289029,"location_subtype":"","month":"2019-05"},{"category":"anti-social-behaviour","location_type":"Force","location":{"latitude":"51.587579","street":{"id":977991,"name":"On or near Theatre\/concert Hall"},"longitude":"-0.072433"},"context":"","outcome_status":null,"persistent_id":"","id":74289024,"location_subtype":"","month":"2019-05"},{"category":"anti-social-behaviour","location_type":"Force","location":{"latitude":"51.589517","street":{"id":977903,"name":"On or near Mill Mead Road"},"longitude":"-0.056341"},"context":"","outcome_status":null,"persistent_id":"","id":74287715,"location_subtype":"","month":"2019-05"},{"category":"anti-social-behaviour","location_type":"Force","location":{"latitude":"51.594388","street":{"id":978221,"name":"On or near Gloucester Road"},"longitude":"-0.082958"},"context":"","outcome_status":null,"persistent_id":"","id":74289113,"location_subtype":"","month":"2019-05"},{"category":"anti-social-behaviour","location_type":"Force","location":{"latitude":"51.589517","street":{"id":977903,"name":"On or near Mill Mead Road"},"longitude":"-0.056341"},"context":"","outcome_status":null,"persistent_id":"","id":74287714,"location_subtype":"","month":"2019-05"},{"category":"anti-social-behaviour","location_type":"Force","location":{"latitude":"51.585895","street":{"id":978017,"name":"On or near Spondon Road"},"longitude":"-0.065214"},"context":"","outcome_status":null,"persistent_id":"","id":74288429,"location_subtype":"","month":"2019-05"},{"category":"anti-social-behaviour","location_type":"Force","location":{"latitude":"51.581969","street":{"id":975017,"name":"On or near South Grove"},"longitude":"-0.083524"},"context":"","outcome_status":null,"persistent_id":"","id":74289112,"location_subtype":"","month":"2019-05"},{"category":"anti-social-behaviour","location_type":"Force","location":{"latitude":"51.580441","street":{"id":975213,"name":"On or near Pedestrian Subway"},"longitude":"-0.072028"},"context":"","outcome_status":null,"persistent_id":"","id":74289034,"location_subtype":"","month":"2019-05"},{"category":"anti-social-behaviour","location_type":"Force","location":{"latitude":"51.587683","street":{"id":978225,"name":"On or near Elizabeth Place"},"longitude":"-0.082100"},"context":"","outcome_status":null,"persistent_id":"","id":74289104,"location_subtype":"","month":"2019-05"},{"category":"anti-social-behaviour","location_type":"Force","location":{"latitude":"51.590370","street":{"id":978233,"name":"On or near Clonmell Road"},"longitude":"-0.083633"},"context":"","outcome_status":null,"persistent_id":"","id":74289114,"location_subtype":"","month":"2019-05"},{"category":"anti-social-behaviour","location_type":"Force","location":{"latitude":"51.591318","street":{"id":977940,"name":"On or near Felixstowe Road"},"longitude":"-0.071798"},"context":"","outcome_status":null,"persistent_id":"","id":74289036,"location_subtype":"","month":"2019-05"},{"category":"anti-social-behaviour","location_type":"Force","location":{"latitude":"51.594650","street":{"id":977941,"name":"On or near Woodside Gardens"},"longitude":"-0.073187"},"context":"","outcome_status":null,"persistent_id":"","id":74289037,"location_subtype":"","month":"2019-05"},{"category":"anti-social-behaviour","location_type":"Force","location":{"latitude":"51.581703","street":{"id":975224,"name":"On or near Stonebridge Road"},"longitude":"-0.074385"},"context":"","outcome_status":null,"persistent_id":"","id":74289051,"location_subtype":"","month":"2019-05"},{"category":"anti-social-behaviour","location_type":"Force","location":{"latitude":"51.576606","street":{"id":975222,"name":"On or near Thorpe Road"},"longitude":"-0.076115"},"context":"","outcome_status":null,"persistent_id":"","id":74289062,"location_subtype":"","month":"2019-05"},{"category":"anti-social-behaviour","location_type":"Force","location":{"latitude":"51.591241","street":{"id":978224,"name":"On or near Field Road"},"longitude":"-0.081344"},"context":"","outcome_status":null,"persistent_id":"","id":74289094,"location_subtype":"","month":"2019-05"},{"category":"anti-social-behaviour","location_type":"Force","location":{"latitude":"51.592709","street":{"id":978042,"name":"On or near Holcombe Road"},"longitude":"-0.066137"},"context":"","outcome_status":null,"persistent_id":"","id":74288440,"location_subtype":"","month":"2019-05"},{"category":"anti-social-behaviour","location_type":"Force","location":{"latitude":"51.593484","street":{"id":977947,"name":"On or near Strode Road"},"longitude":"-0.076615"},"context":"","outcome_status":null,"persistent_id":"","id":74289063,"location_subtype":"","month":"2019-05"},{"category":"anti-social-behaviour","location_type":"Force","location":{"latitude":"51.596238","street":{"id":977985,"name":"On or near Bruce Grove"},"longitude":"-0.072384"},"context":"","outcome_status":null,"persistent_id":"","id":74289028,"location_subtype":"","month":"2019-05"},{"category":"anti-social-behaviour","location_type":"Force","location":{"latitude":"51.595721","street":{"id":977990,"name":"On or near Adams Road"},"longitude":"-0.078715"},"context":"","outcome_status":null,"persistent_id":"","id":74289073,"location_subtype":"","month":"2019-05"},{"category":"anti-social-behaviour","location_type":"Force","location":{"latitude":"51.595721","street":{"id":977990,"name":"On or near Adams Road"},"longitude":"-0.078715"},"context":"","outcome_status":null,"persistent_id":"","id":74289074,"location_subtype":"","month":"2019-05"},{"category":"anti-social-behaviour","location_type":"Force","location":{"latitude":"51.586725","street":{"id":978215,"name":"On or near Mansfield Avenue"},"longitude":"-0.085057"},"context":"","outcome_status":null,"persistent_id":"","id":74289115,"location_subtype":"","month":"2019-05"},{"category":"anti-social-behaviour","location_type":"Force","location":{"latitude":"51.583344","street":{"id":975026,"name":"On or near Newsam Avenue"},"longitude":"-0.084549"},"context":"","outcome_status":null,"persistent_id":"","id":74289111,"location_subtype":"","month":"2019-05"},{"category":"anti-social-behaviour","location_type":"Force","location":{"latitude":"51.583344","street":{"id":975026,"name":"On or near Newsam Avenue"},"longitude":"-0.084549"},"context":"","outcome_status":null,"persistent_id":"","id":74289110,"location_subtype":"","month":"2019-05"},{"category":"anti-social-behaviour","location_type":"Force","location":{"latitude":"51.583344","street":{"id":975026,"name":"On or near Newsam Avenue"},"longitude":"-0.084549"},"context":"","outcome_status":null,"persistent_id":"","id":74289109,"location_subtype":"","month":"2019-05"},{"category":"anti-social-behaviour","location_type":"Force","location":{"latitude":"51.570313","street":{"id":971790,"name":"On or near Clapton Terrace"},"longitude":"-0.064765"},"context":"","outcome_status":null,"persistent_id":"","id":74277371,"location_subtype":"","month":"2019-05"},{"category":"anti-social-behaviour","location_type":"Force","location":{"latitude":"51.583260","street":{"id":975069,"name":"On or near Alexandra Road"},"longitude":"-0.086588"},"context":"","outcome_status":null,"persistent_id":"","id":74279754,"location_subtype":"","month":"2019-05"},{"category":"anti-social-behaviour","location_type":"Force","location":{"latitude":"51.590986","street":{"id":978222,"name":"On or near Gloucester Road"},"longitude":"-0.082264"},"context":"","outcome_status":null,"persistent_id":"","id":74289107,"location_subtype":"","month":"2019-05"},{"category":"anti-social-behaviour","location_type":"Force","location":{"latitude":"51.577952","street":{"id":975021,"name":"On or near Pulford Road"},"longitude":"-0.083679"},"context":"","outcome_status":null,"persistent_id":"","id":74289106,"location_subtype":"","month":"2019-05"},{"category":"anti-social-behaviour","location_type":"Force","location":{"latitude":"51.572702","street":{"id":975038,"name":"On or near Cranwich Road"},"longitude":"-0.080999"},"context":"","outcome_status":null,"persistent_id":"","id":74282704,"location_subtype":"","month":"2019-05"},{"category":"anti-social-behaviour","location_type":"Force","location":{"latitude":"51.572419","street":{"id":975138,"name":"On or near Bethune Road"},"longitude":"-0.082425"},"context":"","outcome_status":null,"persistent_id":"","id":74282725,"location_subtype":"","month":"2019-05"},{"category":"anti-social-behaviour","location_type":"Force","location":{"latitude":"51.572419","street":{"id":975138,"name":"On or near Bethune Road"},"longitude":"-0.082425"},"context":"","outcome_status":null,"persistent_id":"","id":74282726,"location_subtype":"","month":"2019-05"},{"category":"anti-social-behaviour","location_type":"Force","location":{"latitude":"51.572419","street":{"id":975138,"name":"On or near Bethune Road"},"longitude":"-0.082425"},"context":"","outcome_status":null,"persistent_id":"","id":74282727,"location_subtype":"","month":"2019-05"},{"category":"anti-social-behaviour","location_type":"Force","location":{"latitude":"51.573612","street":{"id":975057,"name":"On or near Seven Sisters Road"},"longitude":"-0.087715"},"context":"","outcome_status":null,"persistent_id":"","id":74282772,"location_subtype":"","month":"2019-05"},{"category":"anti-social-behaviour","location_type":"Force","location":{"latitude":"51.573612","street":{"id":975057,"name":"On or near Seven Sisters Road"},"longitude":"-0.087715"},"context":"","outcome_status":null,"persistent_id":"","id":74282773,"location_subtype":"","month":"2019-05"},{"category":"anti-social-behaviour","location_type":"Force","location":{"latitude":"51.573612","street":{"id":975057,"name":"On or near Seven Sisters Road"},"longitude":"-0.087715"},"context":"","outcome_status":null,"persistent_id":"","id":74282774,"location_subtype":"","month":"2019-05"},{"category":"anti-social-behaviour","location_type":"Force","location":{"latitude":"51.573612","street":{"id":975057,"name":"On or near Seven Sisters Road"},"longitude":"-0.087715"},"context":"","outcome_status":null,"persistent_id":"","id":74282781,"location_subtype":"","month":"2019-05"},{"category":"anti-social-behaviour","location_type":"Force","location":{"latitude":"51.587683","street":{"id":978225,"name":"On or near Elizabeth Place"},"longitude":"-0.082100"},"context":"","outcome_status":null,"persistent_id":"","id":74289103,"location_subtype":"","month":"2019-05"},{"category":"anti-social-behaviour","location_type":"Force","location":{"latitude":"51.587683","street":{"id":978225,"name":"On or near Elizabeth Place"},"longitude":"-0.082100"},"context":"","outcome_status":null,"persistent_id":"","id":74289102,"location_subtype":"","month":"2019-05"},{"category":"anti-social-behaviour","location_type":"Force","location":{"latitude":"51.578595","street":{"id":975263,"name":"On or near Chisley Road"},"longitude":"-0.079553"},"context":"","outcome_status":null,"persistent_id":"","id":74289084,"location_subtype":"","month":"2019-05"},{"category":"anti-social-behaviour","location_type":"Force","location":{"latitude":"51.595616","street":{"id":978238,"name":"On or near Adams Road"},"longitude":"-0.081073"},"context":"","outcome_status":null,"persistent_id":"","id":74289097,"location_subtype":"","month":"2019-05"},{"category":"anti-social-behaviour","location_type":"Force","location":{"latitude":"51.595616","street":{"id":978238,"name":"On or near Adams Road"},"longitude":"-0.081073"},"context":"","outcome_status":null,"persistent_id":"","id":74289096,"location_subtype":"","month":"2019-05"},{"category":"anti-social-behaviour","location_type":"Force","location":{"latitude":"51.591241","street":{"id":978224,"name":"On or near Field Road"},"longitude":"-0.081344"},"context":"","outcome_status":null,"persistent_id":"","id":74289095,"location_subtype":"","month":"2019-05"},{"category":"anti-social-behaviour","location_type":"Force","location":{"latitude":"51.591241","street":{"id":978224,"name":"On or near Field Road"},"longitude":"-0.081344"},"context":"","outcome_status":null,"persistent_id":"","id":74289093,"location_subtype":"","month":"2019-05"},{"category":"anti-social-behaviour","location_type":"Force","location":{"latitude":"51.584714","street":{"id":978248,"name":"On or near Turner Avenue"},"longitude":"-0.080912"},"context":"","outcome_status":null,"persistent_id":"","id":74289085,"location_subtype":"","month":"2019-05"},{"category":"anti-social-behaviour","location_type":"Force","location":{"latitude":"51.590364","street":{"id":978217,"name":"On or near Kitchener Road"},"longitude":"-0.081078"},"context":"","outcome_status":null,"persistent_id":"","id":74289092,"location_subtype":"","month":"2019-05"},{"category":"anti-social-behaviour","location_type":"Force","location":{"latitude":"51.582334","street":{"id":975264,"name":"On or near Braemar Road"},"longitude":"-0.079987"},"context":"","outcome_status":null,"persistent_id":"","id":74289091,"location_subtype":"","month":"2019-05"},{"category":"anti-social-behaviour","location_type":"Force","location":{"latitude":"51.582334","street":{"id":975264,"name":"On or near Braemar Road"},"longitude":"-0.079987"},"context":"","outcome_status":null,"persistent_id":"","id":74289090,"location_subtype":"","month":"2019-05"},{"category":"anti-social-behaviour","location_type":"Force","location":{"latitude":"51.576545","street":{"id":975253,"name":"On or near Franklin Street"},"longitude":"-0.080621"},"context":"","outcome_status":null,"persistent_id":"","id":74289087,"location_subtype":"","month":"2019-05"},{"category":"anti-social-behaviour","location_type":"Force","location":{"latitude":"51.595056","street":{"id":977970,"name":"On or near Griffin Road"},"longitude":"-0.079826"},"context":"","outcome_status":null,"persistent_id":"","id":74289086,"location_subtype":"","month":"2019-05"},{"category":"anti-social-behaviour","location_type":"Force","location":{"latitude":"51.578595","street":{"id":975263,"name":"On or near Chisley Road"},"longitude":"-0.079553"},"context":"","outcome_status":null,"persistent_id":"","id":74289083,"location_subtype":"","month":"2019-05"},{"category":"anti-social-behaviour","location_type":"Force","location":{"latitude":"51.573748","street":{"id":975198,"name":"On or near Sports\/recreation Area"},"longitude":"-0.060968"},"context":"","outcome_status":null,"persistent_id":"","id":74277303,"location_subtype":"","month":"2019-05"},{"category":"anti-social-behaviour","location_type":"Force","location":{"latitude":"51.571720","street":{"id":975288,"name":"On or near Spring Hill"},"longitude":"-0.061732"},"context":"","outcome_status":null,"persistent_id":"","id":74277331,"location_subtype":"","month":"2019-05"},{"category":"anti-social-behaviour","location_type":"Force","location":{"latitude":"51.571720","street":{"id":975288,"name":"On or near Spring Hill"},"longitude":"-0.061732"},"context":"","outcome_status":null,"persistent_id":"","id":74277332,"location_subtype":"","month":"2019-05"},{"category":"anti-social-behaviour","location_type":"Force","location":{"latitude":"51.573748","street":{"id":975198,"name":"On or near Sports\/recreation Area"},"longitude":"-0.060968"},"context":"","outcome_status":null,"persistent_id":"","id":74277337,"location_subtype":"","month":"2019-05"},{"category":"anti-social-behaviour","location_type":"Force","location":{"latitude":"51.576345","street":{"id":975152,"name":"On or near Saw Mill Way"},"longitude":"-0.062459"},"context":"","outcome_status":null,"persistent_id":"","id":74277364,"location_subtype":"","month":"2019-05"},{"category":"anti-social-behaviour","location_type":"Force","location":{"latitude":"51.570313","street":{"id":971790,"name":"On or near Clapton Terrace"},"longitude":"-0.064765"},"context":"","outcome_status":null,"persistent_id":"","id":74277372,"location_subtype":"","month":"2019-05"},{"category":"anti-social-behaviour","location_type":"Force","location":{"latitude":"51.570313","street":{"id":971790,"name":"On or near Clapton Terrace"},"longitude":"-0.064765"},"context":"","outcome_status":null,"persistent_id":"","id":74277373,"location_subtype":"","month":"2019-05"},{"category":"anti-social-behaviour","location_type":"Force","location":{"latitude":"51.570313","street":{"id":971790,"name":"On or near Clapton Terrace"},"longitude":"-0.064765"},"context":"","outcome_status":null,"persistent_id":"","id":74277374,"location_subtype":"","month":"2019-05"},{"category":"anti-social-behaviour","location_type":"Force","location":{"latitude":"51.572703","street":{"id":975194,"name":"On or near Ashtead Road"},"longitude":"-0.062989"},"context":"","outcome_status":null,"persistent_id":"","id":74277376,"location_subtype":"","month":"2019-05"},{"category":"anti-social-behaviour","location_type":"Force","location":{"latitude":"51.574796","street":{"id":975145,"name":"On or near Watermint Quay"},"longitude":"-0.061775"},"context":"","outcome_status":null,"persistent_id":"","id":74277379,"location_subtype":"","month":"2019-05"},{"category":"anti-social-behaviour","location_type":"Force","location":{"latitude":"51.575712","street":{"id":975171,"name":"On or near Leadale Road"},"longitude":"-0.063900"},"context":"","outcome_status":null,"persistent_id":"","id":74277380,"location_subtype":"","month":"2019-05"},{"category":"anti-social-behaviour","location_type":"Force","location":{"latitude":"51.572095","street":{"id":975291,"name":"On or near Overlea Road"},"longitude":"-0.063737"},"context":"","outcome_status":null,"persistent_id":"","id":74278152,"location_subtype":"","month":"2019-05"},{"category":"anti-social-behaviour","location_type":"Force","location":{"latitude":"51.574430","street":{"id":975172,"name":"On or near Leabourne Road"},"longitude":"-0.066278"},"context":"","outcome_status":null,"persistent_id":"","id":74278165,"location_subtype":"","month":"2019-05"},{"category":"anti-social-behaviour","location_type":"Force","location":{"latitude":"51.575337","street":{"id":975164,"name":"On or near Moundfield Road"},"longitude":"-0.065691"},"context":"","outcome_status":null,"persistent_id":"","id":74278168,"location_subtype":"","month":"2019-05"},{"category":"anti-social-behaviour","location_type":"Force","location":{"latitude":"51.575337","street":{"id":975164,"name":"On or near Moundfield Road"},"longitude":"-0.065691"},"context":"","outcome_status":null,"persistent_id":"","id":74278169,"location_subtype":"","month":"2019-05"},{"category":"anti-social-behaviour","location_type":"Force","location":{"latitude":"51.571691","street":{"id":975287,"name":"On or near Park\/open Space"},"longitude":"-0.065976"},"context":"","outcome_status":null,"persistent_id":"","id":74278170,"location_subtype":"","month":"2019-05"},{"category":"anti-social-behaviour","location_type":"Force","location":{"latitude":"51.569351","street":{"id":971784,"name":"On or near Firsby Road"},"longitude":"-0.067518"},"context":"","outcome_status":null,"persistent_id":"","id":74278214,"location_subtype":"","month":"2019-05"},{"category":"anti-social-behaviour","location_type":"Force","location":{"latitude":"51.569351","street":{"id":971784,"name":"On or near Firsby Road"},"longitude":"-0.067518"},"context":"","outcome_status":null,"persistent_id":"","id":74278215,"location_subtype":"","month":"2019-05"},{"category":"anti-social-behaviour","location_type":"Force","location":{"latitude":"51.569351","street":{"id":971784,"name":"On or near Firsby Road"},"longitude":"-0.067518"},"context":"","outcome_status":null,"persistent_id":"","id":74278216,"location_subtype":"","month":"2019-05"},{"category":"anti-social-behaviour","location_type":"Force","location":{"latitude":"51.573508","street":{"id":975199,"name":"On or near Sports\/recreation Area"},"longitude":"-0.069290"},"context":"","outcome_status":null,"persistent_id":"","id":74278217,"location_subtype":"","month":"2019-05"},{"category":"anti-social-behaviour","location_type":"Force","location":{"latitude":"51.573508","street":{"id":975199,"name":"On or near Sports\/recreation Area"},"longitude":"-0.069290"},"context":"","outcome_status":null,"persistent_id":"","id":74278218,"location_subtype":"","month":"2019-05"},{"category":"anti-social-behaviour","location_type":"Force","location":{"latitude":"51.570636","street":{"id":975293,"name":"On or near Kyverdale Road"},"longitude":"-0.068561"},"context":"","outcome_status":null,"persistent_id":"","id":74278219,"location_subtype":"","month":"2019-05"},{"category":"anti-social-behaviour","location_type":"Force","location":{"latitude":"51.570636","street":{"id":975293,"name":"On or near Kyverdale Road"},"longitude":"-0.068561"},"context":"","outcome_status":null,"persistent_id":"","id":74278225,"location_subtype":"","month":"2019-05"},{"category":"anti-social-behaviour","location_type":"Force","location":{"latitude":"51.570636","street":{"id":975293,"name":"On or near Kyverdale Road"},"longitude":"-0.068561"},"context":"","outcome_status":null,"persistent_id":"","id":74278226,"location_subtype":"","month":"2019-05"},{"category":"anti-social-behaviour","location_type":"Force","location":{"latitude":"51.575124","street":{"id":975212,"name":"On or near Lewis Gardens"},"longitude":"-0.072931"},"context":"","outcome_status":null,"persistent_id":"","id":74278284,"location_subtype":"","month":"2019-05"},{"category":"anti-social-behaviour","location_type":"Force","location":{"latitude":"51.575124","street":{"id":975212,"name":"On or near Lewis Gardens"},"longitude":"-0.072931"},"context":"","outcome_status":null,"persistent_id":"","id":74278285,"location_subtype":"","month":"2019-05"},{"category":"anti-social-behaviour","location_type":"Force","location":{"latitude":"51.575124","street":{"id":975212,"name":"On or near Lewis Gardens"},"longitude":"-0.072931"},"context":"","outcome_status":null,"persistent_id":"","id":74278296,"location_subtype":"","month":"2019-05"},{"category":"anti-social-behaviour","location_type":"Force","location":{"latitude":"51.575124","street":{"id":975212,"name":"On or near Lewis Gardens"},"longitude":"-0.072931"},"context":"","outcome_status":null,"persistent_id":"","id":74278297,"location_subtype":"","month":"2019-05"},{"category":"anti-social-behaviour","location_type":"Force","location":{"latitude":"51.573533","street":{"id":975151,"name":"On or near Tatton Crescent"},"longitude":"-0.071382"},"context":"","outcome_status":null,"persistent_id":"","id":74278298,"location_subtype":"","month":"2019-05"},{"category":"anti-social-behaviour","location_type":"Force","location":{"latitude":"51.573533","street":{"id":975151,"name":"On or near Tatton Crescent"},"longitude":"-0.071382"},"context":"","outcome_status":null,"persistent_id":"","id":74278299,"location_subtype":"","month":"2019-05"},{"category":"anti-social-behaviour","location_type":"Force","location":{"latitude":"51.573533","street":{"id":975151,"name":"On or near Tatton Crescent"},"longitude":"-0.071382"},"context":"","outcome_status":null,"persistent_id":"","id":74278300,"location_subtype":"","month":"2019-05"},{"category":"anti-social-behaviour","location_type":"Force","location":{"latitude":"51.572949","street":{"id":975226,"name":"On or near Stamford Hill"},"longitude":"-0.072503"},"context":"","outcome_status":null,"persistent_id":"","id":74278302,"location_subtype":"","month":"2019-05"},{"category":"anti-social-behaviour","location_type":"Force","location":{"latitude":"51.572949","street":{"id":975226,"name":"On or near Stamford Hill"},"longitude":"-0.072503"},"context":"","outcome_status":null,"persistent_id":"","id":74278303,"location_subtype":"","month":"2019-05"},{"category":"anti-social-behaviour","location_type":"Force","location":{"latitude":"51.586725","street":{"id":978215,"name":"On or near Mansfield Avenue"},"longitude":"-0.085057"},"context":"","outcome_status":null,"persistent_id":"","id":74279729,"location_subtype":"","month":"2019-05"},{"category":"anti-social-behaviour","location_type":"Force","location":{"latitude":"51.584116","street":{"id":978254,"name":"On or near Avenue Road"},"longitude":"-0.084459"},"context":"","outcome_status":null,"persistent_id":"","id":74279730,"location_subtype":"","month":"2019-05"},{"category":"anti-social-behaviour","location_type":"Force","location":{"latitude":"51.590992","street":{"id":978227,"name":"On or near Dunloe Avenue"},"longitude":"-0.084271"},"context":"","outcome_status":null,"persistent_id":"","id":74279731,"location_subtype":"","month":"2019-05"},{"category":"anti-social-behaviour","location_type":"Force","location":{"latitude":"51.585510","street":{"id":978253,"name":"On or near Caradon Way"},"longitude":"-0.085050"},"context":"","outcome_status":null,"persistent_id":"","id":74279732,"location_subtype":"","month":"2019-05"},{"category":"anti-social-behaviour","location_type":"Force","location":{"latitude":"51.583335","street":{"id":975043,"name":"On or near Avenue Road"},"longitude":"-0.084564"},"context":"","outcome_status":null,"persistent_id":"","id":74279733,"location_subtype":"","month":"2019-05"},{"category":"anti-social-behaviour","location_type":"Force","location":{"latitude":"51.584988","street":{"id":978249,"name":"On or near Sturrock Close"},"longitude":"-0.085519"},"context":"","outcome_status":null,"persistent_id":"","id":74279734,"location_subtype":"","month":"2019-05"},{"category":"anti-social-behaviour","location_type":"Force","location":{"latitude":"51.585510","street":{"id":978253,"name":"On or near Caradon Way"},"longitude":"-0.085050"},"context":"","outcome_status":null,"persistent_id":"","id":74279735,"location_subtype":"","month":"2019-05"},{"category":"anti-social-behaviour","location_type":"Force","location":{"latitude":"51.585510","street":{"id":978253,"name":"On or near Caradon Way"},"longitude":"-0.085050"},"context":"","outcome_status":null,"persistent_id":"","id":74279736,"location_subtype":"","month":"2019-05"},{"category":"anti-social-behaviour","location_type":"Force","location":{"latitude":"51.585510","street":{"id":978253,"name":"On or near Caradon Way"},"longitude":"-0.085050"},"context":"","outcome_status":null,"persistent_id":"","id":74279737,"location_subtype":"","month":"2019-05"},{"category":"anti-social-behaviour","location_type":"Force","location":{"latitude":"51.585510","street":{"id":978253,"name":"On or near Caradon Way"},"longitude":"-0.085050"},"context":"","outcome_status":null,"persistent_id":"","id":74279738,"location_subtype":"","month":"2019-05"},{"category":"anti-social-behaviour","location_type":"Force","location":{"latitude":"51.591851","street":{"id":978219,"name":"On or near Hastings Road"},"longitude":"-0.085664"},"context":"","outcome_status":null,"persistent_id":"","id":74279740,"location_subtype":"","month":"2019-05"},{"category":"anti-social-behaviour","location_type":"Force","location":{"latitude":"51.582359","street":{"id":975025,"name":"On or near North Grove"},"longitude":"-0.085890"},"context":"","outcome_status":null,"persistent_id":"","id":74279741,"location_subtype":"","month":"2019-05"},{"category":"anti-social-behaviour","location_type":"Force","location":{"latitude":"51.577599","street":{"id":975054,"name":"On or near Tiverton Road"},"longitude":"-0.086826"},"context":"","outcome_status":null,"persistent_id":"","id":74279743,"location_subtype":"","month":"2019-05"},{"category":"anti-social-behaviour","location_type":"Force","location":{"latitude":"51.588488","street":{"id":978197,"name":"On or near Keston Road"},"longitude":"-0.086772"},"context":"","outcome_status":null,"persistent_id":"","id":74279745,"location_subtype":"","month":"2019-05"},{"category":"anti-social-behaviour","location_type":"Force","location":{"latitude":"51.581684","street":{"id":975067,"name":"On or near Ascot Road"},"longitude":"-0.086943"},"context":"","outcome_status":null,"persistent_id":"","id":74279746,"location_subtype":"","month":"2019-05"},{"category":"anti-social-behaviour","location_type":"Force","location":{"latitude":"51.581684","street":{"id":975067,"name":"On or near Ascot Road"},"longitude":"-0.086943"},"context":"","outcome_status":null,"persistent_id":"","id":74279747,"location_subtype":"","month":"2019-05"},{"category":"anti-social-behaviour","location_type":"Force","location":{"latitude":"51.581684","street":{"id":975067,"name":"On or near Ascot Road"},"longitude":"-0.086943"},"context":"","outcome_status":null,"persistent_id":"","id":74279748,"location_subtype":"","month":"2019-05"},{"category":"anti-social-behaviour","location_type":"Force","location":{"latitude":"51.581684","street":{"id":975067,"name":"On or near Ascot Road"},"longitude":"-0.086943"},"context":"","outcome_status":null,"persistent_id":"","id":74279749,"location_subtype":"","month":"2019-05"},{"category":"anti-social-behaviour","location_type":"Force","location":{"latitude":"51.573612","street":{"id":975057,"name":"On or near Seven Sisters Road"},"longitude":"-0.087715"},"context":"","outcome_status":null,"persistent_id":"","id":74279750,"location_subtype":"","month":"2019-05"},{"category":"anti-social-behaviour","location_type":"Force","location":{"latitude":"51.573612","street":{"id":975057,"name":"On or near Seven Sisters Road"},"longitude":"-0.087715"},"context":"","outcome_status":null,"persistent_id":"","id":74279753,"location_subtype":"","month":"2019-05"},{"category":"anti-social-behaviour","location_type":"Force","location":{"latitude":"51.573612","street":{"id":975057,"name":"On or near Seven Sisters Road"},"longitude":"-0.087715"},"context":"","outcome_status":null,"persistent_id":"","id":74279751,"location_subtype":"","month":"2019-05"},{"category":"anti-social-behaviour","location_type":"Force","location":{"latitude":"51.573612","street":{"id":975057,"name":"On or near Seven Sisters Road"},"longitude":"-0.087715"},"context":"","outcome_status":null,"persistent_id":"","id":74279752,"location_subtype":"","month":"2019-05"},{"category":"anti-social-behaviour","location_type":"Force","location":{"latitude":"51.577460","street":{"id":975064,"name":"On or near Frogwell Close"},"longitude":"-0.087654"},"context":"","outcome_status":null,"persistent_id":"","id":74279755,"location_subtype":"","month":"2019-05"},{"category":"anti-social-behaviour","location_type":"Force","location":{"latitude":"51.583758","street":{"id":975075,"name":"On or near Falmer Road"},"longitude":"-0.088429"},"context":"","outcome_status":null,"persistent_id":"","id":74279756,"location_subtype":"","month":"2019-05"},{"category":"anti-social-behaviour","location_type":"Force","location":{"latitude":"51.583758","street":{"id":975075,"name":"On or near Falmer Road"},"longitude":"-0.088429"},"context":"","outcome_status":null,"persistent_id":"","id":74279757,"location_subtype":"","month":"2019-05"},{"category":"anti-social-behaviour","location_type":"Force","location":{"latitude":"51.591453","street":{"id":978201,"name":"On or near Colton Gardens"},"longitude":"-0.091008"},"context":"","outcome_status":null,"persistent_id":"","id":74279765,"location_subtype":"","month":"2019-05"},{"category":"anti-social-behaviour","location_type":"Force","location":{"latitude":"51.591453","street":{"id":978201,"name":"On or near Colton Gardens"},"longitude":"-0.091008"},"context":"","outcome_status":null,"persistent_id":"","id":74279766,"location_subtype":"","month":"2019-05"},{"category":"anti-social-behaviour","location_type":"Force","location":{"latitude":"51.586607","street":{"id":978202,"name":"On or near Ashleys Alley"},"longitude":"-0.090547"},"context":"","outcome_status":null,"persistent_id":"","id":74279767,"location_subtype":"","month":"2019-05"},{"category":"anti-social-behaviour","location_type":"Force","location":{"latitude":"51.585239","street":{"id":978247,"name":"On or near Abbotsford Avenue"},"longitude":"-0.090474"},"context":"","outcome_status":null,"persistent_id":"","id":74279768,"location_subtype":"","month":"2019-05"},{"category":"anti-social-behaviour","location_type":"Force","location":{"latitude":"51.586150","street":{"id":978191,"name":"On or near West Green Road"},"longitude":"-0.091172"},"context":"","outcome_status":null,"persistent_id":"","id":74279770,"location_subtype":"","month":"2019-05"},{"category":"anti-social-behaviour","location_type":"Force","location":{"latitude":"51.575924","street":{"id":975063,"name":"On or near Hermitage Road"},"longitude":"-0.091644"},"context":"","outcome_status":null,"persistent_id":"","id":74279773,"location_subtype":"","month":"2019-05"},{"category":"anti-social-behaviour","location_type":"Force","location":{"latitude":"51.591453","street":{"id":978201,"name":"On or near Colton Gardens"},"longitude":"-0.091008"},"context":"","outcome_status":null,"persistent_id":"","id":74279774,"location_subtype":"","month":"2019-05"},{"category":"anti-social-behaviour","location_type":"Force","location":{"latitude":"51.591453","street":{"id":978201,"name":"On or near Colton Gardens"},"longitude":"-0.091008"},"context":"","outcome_status":null,"persistent_id":"","id":74279775,"location_subtype":"","month":"2019-05"},{"category":"anti-social-behaviour","location_type":"Force","location":{"latitude":"51.591453","street":{"id":978201,"name":"On or near Colton Gardens"},"longitude":"-0.091008"},"context":"","outcome_status":null,"persistent_id":"","id":74279776,"location_subtype":"","month":"2019-05"},{"category":"bicycle-theft","location_type":"Force","location":{"latitude":"51.584408","street":{"id":978107,"name":"On or near Supermarket"},"longitude":"-0.071528"},"context":"","outcome_status":{"category":"Status update unavailable","date":"2019-09"},"persistent_id":"e5e4af9bc9297e378048f6bc7060c5ea970261c502b2632f777ac7600d6212f3","id":74322137,"location_subtype":"","month":"2019-05"},{"category":"bicycle-theft","location_type":"Force","location":{"latitude":"51.587579","street":{"id":977991,"name":"On or near Theatre\/concert Hall"},"longitude":"-0.072433"},"context":"","outcome_status":{"category":"Status update unavailable","date":"2019-09"},"persistent_id":"8622fbc73cc74a886cb3d61ef994a985a96fc5a0771d0e986092c846cbe56a1c","id":74319819,"location_subtype":"","month":"2019-05"},{"category":"bicycle-theft","location_type":"Force","location":{"latitude":"51.575924","street":{"id":975063,"name":"On or near Hermitage Road"},"longitude":"-0.091644"},"context":"","outcome_status":{"category":"Status update unavailable","date":"2019-09"},"persistent_id":"d28a1795010efece6c2568fa11a4c152349aac74344c62ad9809fd79c93be60a","id":74341280,"location_subtype":"","month":"2019-05"},{"category":"bicycle-theft","location_type":"Force","location":{"latitude":"51.587120","street":{"id":978082,"name":"On or near Shopping Area"},"longitude":"-0.062030"},"context":"","outcome_status":{"category":"Status update unavailable","date":"2019-09"},"persistent_id":"8e6f8b503a0489582b81b1e05963bd398448f8d0df97d630979aa51fad8005cb","id":74333641,"location_subtype":"","month":"2019-05"},{"category":"bicycle-theft","location_type":"Force","location":{"latitude":"51.588754","street":{"id":978010,"name":"On or near The Hale"},"longitude":"-0.063490"},"context":"","outcome_status":{"category":"Status update unavailable","date":"2019-09"},"persistent_id":"f22bbe6f7069385035781533d9f8eb102f0d103ed680b352c0be832d0cac6533","id":74325140,"location_subtype":"","month":"2019-05"},{"category":"bicycle-theft","location_type":"BTP","location":{"latitude":"51.593900","street":{"id":1486561,"name":"Bruce Grove (station)"},"longitude":"-0.069925"},"context":"","outcome_status":{"category":"Status update unavailable","date":"2019-09"},"persistent_id":"","id":88718003,"location_subtype":"STATION","month":"2019-05"},{"category":"bicycle-theft","location_type":"Force","location":{"latitude":"51.596971","street":{"id":981764,"name":"On or near Scotland Green"},"longitude":"-0.066635"},"context":"","outcome_status":{"category":"Status update unavailable","date":"2019-09"},"persistent_id":"297811612ba2f50ad72190a840eb3b64ac7d9586d331bcf7f19548c4f3a1025b","id":74294511,"location_subtype":"","month":"2019-05"},{"category":"bicycle-theft","location_type":"Force","location":{"latitude":"51.578526","street":{"id":975255,"name":"On or near Ermine Road"},"longitude":"-0.073667"},"context":"","outcome_status":{"category":"Status update unavailable","date":"2019-09"},"persistent_id":"ed678802c11813152b85c8d39a7646fd74458569d1aac1d67c3537b4c41090ca","id":74314781,"location_subtype":"","month":"2019-05"},{"category":"bicycle-theft","location_type":"Force","location":{"latitude":"51.575891","street":{"id":975196,"name":"On or near Petrol Station"},"longitude":"-0.072018"},"context":"","outcome_status":{"category":"Status update unavailable","date":"2019-09"},"persistent_id":"f78b13dd334a3e463af39d790a08865cbd49db7a0e0d731aa1d3ea306070b88d","id":74345125,"location_subtype":"","month":"2019-05"},{"category":"bicycle-theft","location_type":"Force","location":{"latitude":"51.582369","street":{"id":975230,"name":"On or near Seven Sisters Road"},"longitude":"-0.073894"},"context":"","outcome_status":{"category":"Status update unavailable","date":"2019-09"},"persistent_id":"946bc4ebf935bb6a78fd6f923b4b75b9926b38006ad22bf0d5741c8b6e54683e","id":74362106,"location_subtype":"","month":"2019-05"},{"category":"bicycle-theft","location_type":"Force","location":{"latitude":"51.588754","street":{"id":978010,"name":"On or near The Hale"},"longitude":"-0.063490"},"context":"","outcome_status":{"category":"Status update unavailable","date":"2019-09"},"persistent_id":"f17c614af89dd02509f242c3c2d33b5942d6bf13d087a8273f2608f8bdeaeab4","id":74325433,"location_subtype":"","month":"2019-05"},{"category":"bicycle-theft","location_type":"Force","location":{"latitude":"51.576473","street":{"id":975034,"name":"On or near Heysham Road"},"longitude":"-0.082832"},"context":"","outcome_status":{"category":"Status update unavailable","date":"2019-09"},"persistent_id":"60c771bb8526e0bbe2faeda8b75cda6c43bed51f36f24fdc3a99952b42b79b32","id":74297637,"location_subtype":"","month":"2019-05"},{"category":"bicycle-theft","location_type":"Force","location":{"latitude":"51.586212","street":{"id":977993,"name":"On or near Further\/higher Educational Building"},"longitude":"-0.072433"},"context":"","outcome_status":{"category":"Status update unavailable","date":"2019-09"},"persistent_id":"578eb1ef943799ffe21f11ab946761dc25aae4b1c1b55af818f5322bbbf3c30e","id":74322134,"location_subtype":"","month":"2019-05"},{"category":"bicycle-theft","location_type":"Force","location":{"latitude":"51.589032","street":{"id":977999,"name":"On or near Parking Area"},"longitude":"-0.060173"},"context":"","outcome_status":{"category":"Status update unavailable","date":"2019-09"},"persistent_id":"92a6b77f858c807b6801dd23542d63c56906c0b7463d102edffb90fd356f876a","id":74297624,"location_subtype":"","month":"2019-05"},{"category":"bicycle-theft","location_type":"Force","location":{"latitude":"51.586461","street":{"id":978236,"name":"On or near Bedford Road"},"longitude":"-0.081040"},"context":"","outcome_status":{"category":"Status update unavailable","date":"2019-09"},"persistent_id":"dcf434881c033471996e765f303d07ec386b4765094a6037b240ef05e9e487dc","id":74297625,"location_subtype":"","month":"2019-05"},{"category":"bicycle-theft","location_type":"Force","location":{"latitude":"51.571255","street":{"id":975290,"name":"On or near Portland Avenue"},"longitude":"-0.068462"},"context":"","outcome_status":{"category":"Status update unavailable","date":"2019-09"},"persistent_id":"8ed27797babbccab5afa2271c5d2893a72cc6f5c6094775d0f81da6badaeabfd","id":74315334,"location_subtype":"","month":"2019-05"},{"category":"burglary","location_type":"Force","location":{"latitude":"51.583765","street":{"id":975129,"name":"On or near Woodlands Park Road"},"longitude":"-0.094939"},"context":"","outcome_status":{"category":"Status update unavailable","date":"2019-09"},"persistent_id":"d771d5ad1d8ad73f1df934c3992ac586454a1abc4fea9e66623b481763b37fdc","id":74301704,"location_subtype":"","month":"2019-05"},{"category":"burglary","location_type":"Force","location":{"latitude":"51.584536","street":{"id":978105,"name":"On or near Broad Lane"},"longitude":"-0.067293"},"context":"","outcome_status":{"category":"Status update unavailable","date":"2019-09"},"persistent_id":"33bc356b83b8b79ea1f410d02c11ffd1a2f2e7e37efd5931d3a2be72bafd8ef7","id":74300958,"location_subtype":"","month":"2019-05"},{"category":"burglary","location_type":"Force","location":{"latitude":"51.596482","street":{"id":978061,"name":"On or near Cromer Road"},"longitude":"-0.064259"},"context":"","outcome_status":{"category":"Status update unavailable","date":"2019-09"},"persistent_id":"b95a1f01f7b4ec5353b5a063eef57a9b35f462b0f0a95b165e543b016ccd1da8","id":74345449,"location_subtype":"","month":"2019-05"},{"category":"burglary","location_type":"Force","location":{"latitude":"51.574657","street":{"id":975247,"name":"On or near Holmdale Terrace"},"longitude":"-0.076847"},"context":"","outcome_status":{"category":"Status update unavailable","date":"2019-09"},"persistent_id":"da2c3d545a1e0e77b62bdfda47d7b7831415963f911f62ec318aa79f22e7eb09","id":74325925,"location_subtype":"","month":"2019-05"},{"category":"burglary","location_type":"Force","location":{"latitude":"51.572562","street":{"id":975279,"name":"On or near West Bank"},"longitude":"-0.078494"},"context":"","outcome_status":{"category":"Status update unavailable","date":"2019-09"},"persistent_id":"cfcf9a4356b0c1fc0a744e9559eaa09d00bb3d2983c39b45d91af787fc2240aa","id":74365357,"location_subtype":"","month":"2019-05"},{"category":"burglary","location_type":"Force","location":{"latitude":"51.571182","street":{"id":975296,"name":"On or near Clapton Common"},"longitude":"-0.065651"},"context":"","outcome_status":{"category":"Status update unavailable","date":"2019-09"},"persistent_id":"61a23625cbf4a39d94aa6285a0df865a3022af592d625041cbd6946bd5e008a8","id":74297979,"location_subtype":"","month":"2019-05"},{"category":"burglary","location_type":"Force","location":{"latitude":"51.577682","street":{"id":975013,"name":"On or near Tewkesbury Close"},"longitude":"-0.084210"},"context":"","outcome_status":{"category":"Status update unavailable","date":"2019-09"},"persistent_id":"dbb5db82a98ea5a36f5ada3f43c538658c93aa366e74dc5f4590bc55e8019085","id":74338250,"location_subtype":"","month":"2019-05"},{"category":"burglary","location_type":"Force","location":{"latitude":"51.570542","street":{"id":975289,"name":"On or near Portland Avenue"},"longitude":"-0.071003"},"context":"","outcome_status":{"category":"Status update unavailable","date":"2019-09"},"persistent_id":"3fede88113fbad6ae0e0af808bbb84e7faeaab57470bbf6d0eb57f9106190c12","id":74335953,"location_subtype":"","month":"2019-05"},{"category":"burglary","location_type":"Force","location":{"latitude":"51.579622","street":{"id":975176,"name":"On or near Ferndale Road"},"longitude":"-0.070301"},"context":"","outcome_status":{"category":"Status update unavailable","date":"2019-09"},"persistent_id":"f8fea5debf95c66a535c2d71c7ba7cec41e9b3eca55ecedfee9bcdc826d4f249","id":74300736,"location_subtype":"","month":"2019-05"},{"category":"burglary","location_type":"Force","location":{"latitude":"51.575908","street":{"id":975221,"name":"On or near Vartry Road"},"longitude":"-0.080763"},"context":"","outcome_status":{"category":"Investigation complete; no suspect identified","date":"2020-03"},"persistent_id":"dfc0cd05cbca722c508696ee0334fb1e1aa4883c59e0f54e220321b8df4b39c5","id":74371856,"location_subtype":"","month":"2019-05"},{"category":"burglary","location_type":"Force","location":{"latitude":"51.583344","street":{"id":975026,"name":"On or near Newsam Avenue"},"longitude":"-0.084549"},"context":"","outcome_status":{"category":"Status update unavailable","date":"2019-09"},"persistent_id":"5070374e9a53b2934dc459750d1c30e339bf3cc7a6e431bff9d9f71a52135dca","id":74332733,"location_subtype":"","month":"2019-05"},{"category":"burglary","location_type":"Force","location":{"latitude":"51.571882","street":{"id":975280,"name":"On or near Linthorpe Road"},"longitude":"-0.075391"},"context":"","outcome_status":{"category":"Status update unavailable","date":"2019-09"},"persistent_id":"fc3986133c0bc962d6cb0b484db062023fc981c1da888a69822b7e379d0deb3f","id":74332246,"location_subtype":"","month":"2019-05"},{"category":"burglary","location_type":"Force","location":{"latitude":"51.584570","street":{"id":978244,"name":"On or near Dagmar Road"},"longitude":"-0.087486"},"context":"","outcome_status":{"category":"Status update unavailable","date":"2019-09"},"persistent_id":"4d9903aff30f4363e3949aed5a0bab6af3105246c04500d7468935698e05b469","id":74334366,"location_subtype":"","month":"2019-05"},{"category":"burglary","location_type":"Force","location":{"latitude":"51.582256","street":{"id":975097,"name":"On or near Rowley Road"},"longitude":"-0.092822"},"context":"","outcome_status":{"category":"Status update unavailable","date":"2019-09"},"persistent_id":"b73c855a8e10c0badc76940a131a5603c269c5148d88f81f29f1a41bafb32ca6","id":74328181,"location_subtype":"","month":"2019-05"},{"category":"burglary","location_type":"Force","location":{"latitude":"51.588092","street":{"id":978031,"name":"On or near Montague Road"},"longitude":"-0.065352"},"context":"","outcome_status":{"category":"Status update unavailable","date":"2019-09"},"persistent_id":"227d59333df04f7a0ed372aaa164f3bb90b9e0bdc59aa4ad7bf955fb72bfefb8","id":74321900,"location_subtype":"","month":"2019-05"},{"category":"burglary","location_type":"Force","location":{"latitude":"51.576024","street":{"id":975237,"name":"On or near Paignton Road"},"longitude":"-0.079012"},"context":"","outcome_status":{"category":"Status update unavailable","date":"2019-09"},"persistent_id":"02e9b5978477a1e185ac89f832f1d27d4c0ca28fae7ed807ea0283f22529569b","id":74291525,"location_subtype":"","month":"2019-05"},{"category":"burglary","location_type":"Force","location":{"latitude":"51.588857","street":{"id":978045,"name":"On or near High Cross Road"},"longitude":"-0.064829"},"context":"","outcome_status":{"category":"Investigation complete; no suspect identified","date":"2020-06"},"persistent_id":"25eeaa8edf8a26cf40154e749875c115cbdc84880dfb94445d5c520bf3e88c2c","id":74295259,"location_subtype":"","month":"2019-05"},{"category":"burglary","location_type":"Force","location":{"latitude":"51.580002","street":{"id":975251,"name":"On or near Gourley Place"},"longitude":"-0.078700"},"context":"","outcome_status":{"category":"Status update unavailable","date":"2019-09"},"persistent_id":"0ac1b6b7e97402d0acdd62a6d13d05fba7191556c4ad75bcfd77001aed82fff4","id":74336469,"location_subtype":"","month":"2019-05"},{"category":"burglary","location_type":"Force","location":{"latitude":"51.574993","street":{"id":975156,"name":"On or near Ravensdale Road"},"longitude":"-0.069386"},"context":"","outcome_status":{"category":"Status update unavailable","date":"2019-09"},"persistent_id":"bd326db638eea564fbec4f4fe33dad5841b56745c94ffb1b2e4b506b3abeeba8","id":74334106,"location_subtype":"","month":"2019-05"},{"category":"burglary","location_type":"Force","location":{"latitude":"51.584933","street":{"id":978241,"name":"On or near Terront Road"},"longitude":"-0.092638"},"context":"","outcome_status":{"category":"Status update unavailable","date":"2019-09"},"persistent_id":"a94f7d03f4c64d21c09d821e12bb12e3c40099f61a8ead953584a19a0c82b34c","id":74336474,"location_subtype":"","month":"2019-05"},{"category":"burglary","location_type":"Force","location":{"latitude":"51.590992","street":{"id":978227,"name":"On or near Dunloe Avenue"},"longitude":"-0.084271"},"context":"","outcome_status":{"category":"Status update unavailable","date":"2019-09"},"persistent_id":"94807d63e7d1fb31b93a1363b80416b57f136096b15081938b84cd56e75a0130","id":74345164,"location_subtype":"","month":"2019-05"},{"category":"burglary","location_type":"Force","location":{"latitude":"51.584714","street":{"id":978126,"name":"On or near Shopping Area"},"longitude":"-0.076480"},"context":"","outcome_status":{"category":"Status update unavailable","date":"2019-09"},"persistent_id":"4089208f0a3a71ef77c3908a88b4773f6086d2db9e05ee28a2ef2707dd098be1","id":74323806,"location_subtype":"","month":"2019-05"},{"category":"burglary","location_type":"Force","location":{"latitude":"51.595056","street":{"id":977970,"name":"On or near Griffin Road"},"longitude":"-0.079826"},"context":"","outcome_status":{"category":"Investigation complete; no suspect identified","date":"2020-04"},"persistent_id":"8f2fec513241cfb99bab8a0d21bdb1cc36c3aa03ef2f34520b21bbb1c16a0022","id":74331998,"location_subtype":"","month":"2019-05"},{"category":"burglary","location_type":"Force","location":{"latitude":"51.573669","street":{"id":975235,"name":"On or near Rav Pinter Close"},"longitude":"-0.075229"},"context":"","outcome_status":{"category":"Court result unavailable","date":"2020-08"},"persistent_id":"cc826e55b8667fef808a84869d44237958fac559259cce57b7f4da6b307044f0","id":74320155,"location_subtype":"","month":"2019-05"},{"category":"burglary","location_type":"Force","location":{"latitude":"51.570636","street":{"id":975293,"name":"On or near Kyverdale Road"},"longitude":"-0.068561"},"context":"","outcome_status":{"category":"Status update unavailable","date":"2019-09"},"persistent_id":"be1f989d4c6ada17db1468abde5c20e161d1c3a39123cdcb95747ef65138ad47","id":74331872,"location_subtype":"","month":"2019-05"},{"category":"burglary","location_type":"Force","location":{"latitude":"51.581335","street":{"id":975261,"name":"On or near Culvert Road"},"longitude":"-0.079928"},"context":"","outcome_status":{"category":"Status update unavailable","date":"2019-09"},"persistent_id":"37a15edbcb3dc4523360323f7d84ac9bacda91c26a7b1caeeca0fbfa63509a49","id":74326521,"location_subtype":"","month":"2019-05"},{"category":"burglary","location_type":"Force","location":{"latitude":"51.577477","street":{"id":975191,"name":"On or near Castlewood Road"},"longitude":"-0.065644"},"context":"","outcome_status":{"category":"Status update unavailable","date":"2019-09"},"persistent_id":"ccdbea720706bc288201e999fa99d5c74ffd23fd395dc7414f73d5e3a30b2257","id":74309967,"location_subtype":"","month":"2019-05"},{"category":"burglary","location_type":"Force","location":{"latitude":"51.596991","street":{"id":977963,"name":"On or near Lordsmead Road"},"longitude":"-0.077203"},"context":"","outcome_status":{"category":"Court result unavailable","date":"2020-04"},"persistent_id":"00581b431b97cfb7a7914b24f5d52fc2cf433f2085e3a6cdbee50998254e8054","id":74344402,"location_subtype":"","month":"2019-05"},{"category":"burglary","location_type":"Force","location":{"latitude":"51.576669","street":{"id":975165,"name":"On or near Maple Close"},"longitude":"-0.062503"},"context":"","outcome_status":{"category":"Status update unavailable","date":"2019-09"},"persistent_id":"d86443bfd44da54ea01117511d910f42f602e768f134f654eb2972f8f6f68cab","id":74335557,"location_subtype":"","month":"2019-05"},{"category":"burglary","location_type":"Force","location":{"latitude":"51.594636","street":{"id":978005,"name":"On or near Wilson's Avenue"},"longitude":"-0.068496"},"context":"","outcome_status":{"category":"Status update unavailable","date":"2019-09"},"persistent_id":"3bcf5ecbde486c7567ea032227510871a51e237d69a8d37f11dc6bcd8ff3ed3c","id":74293377,"location_subtype":"","month":"2019-05"},{"category":"burglary","location_type":"Force","location":{"latitude":"51.588230","street":{"id":978226,"name":"On or near Elizabeth Clyde Close"},"longitude":"-0.080330"},"context":"","outcome_status":{"category":"Status update unavailable","date":"2019-09"},"persistent_id":"fc8d84cf0b6506eccfc42319bbb74b985e203689d145575d21375e94972720f5","id":74293376,"location_subtype":"","month":"2019-05"},{"category":"burglary","location_type":"Force","location":{"latitude":"51.577345","street":{"id":923607,"name":"On or near Ashfield Road"},"longitude":"-0.090545"},"context":"","outcome_status":{"category":"Status update unavailable","date":"2019-09"},"persistent_id":"8dab4486f1832d8b73488d6e2d0f29d4c88e43e14e4ab214d808cb167f6a19d9","id":74329087,"location_subtype":"","month":"2019-05"},{"category":"burglary","location_type":"Force","location":{"latitude":"51.591198","street":{"id":978232,"name":"On or near Dongola Road"},"longitude":"-0.080350"},"context":"","outcome_status":{"category":"Status update unavailable","date":"2019-09"},"persistent_id":"55249d6808a4d61c807c268acec232c9eea6cc08508e0e500a338f91be990b28","id":74290292,"location_subtype":"","month":"2019-05"},{"category":"burglary","location_type":"Force","location":{"latitude":"51.571145","street":{"id":975283,"name":"On or near Colberg Place"},"longitude":"-0.074311"},"context":"","outcome_status":{"category":"Status update unavailable","date":"2019-09"},"persistent_id":"bf509d6a07f319f706a6946694f8a2e3282e97e2691cd3523dc1551c967cca8c","id":74328837,"location_subtype":"","month":"2019-05"},{"category":"burglary","location_type":"Force","location":{"latitude":"51.584714","street":{"id":978126,"name":"On or near Shopping Area"},"longitude":"-0.076480"},"context":"","outcome_status":{"category":"Status update unavailable","date":"2019-09"},"persistent_id":"ffab4ccd2f1fe8e3d5c2afbd64b23ff73daab9dad7cfa1ed9c3980c2b28fe3ad","id":74292716,"location_subtype":"","month":"2019-05"},{"category":"burglary","location_type":"Force","location":{"latitude":"51.593727","street":{"id":978073,"name":"On or near Burbridge Way"},"longitude":"-0.066267"},"context":"","outcome_status":{"category":"Status update unavailable","date":"2019-09"},"persistent_id":"f6ca1f1c077d7403e6519f469c0fdbb41cb783ec6f3efb2bf4ddd375f850ab6b","id":74363521,"location_subtype":"","month":"2019-05"},{"category":"burglary","location_type":"Force","location":{"latitude":"51.580663","street":{"id":975073,"name":"On or near Hospital"},"longitude":"-0.092182"},"context":"","outcome_status":{"category":"Status update unavailable","date":"2019-09"},"persistent_id":"7636b50a6a633436f026b2d4ae946ea1432122b1a51555e006a9ea5e5d94ddb3","id":74312546,"location_subtype":"","month":"2019-05"},{"category":"burglary","location_type":"Force","location":{"latitude":"51.574741","street":{"id":975268,"name":"On or near Amhurst Park"},"longitude":"-0.079196"},"context":"","outcome_status":{"category":"Status update unavailable","date":"2019-09"},"persistent_id":"65dd295357ffdb966d16b10e105367091d19400d56c55f93258c5b2709be7875","id":74323584,"location_subtype":"","month":"2019-05"},{"category":"burglary","location_type":"Force","location":{"latitude":"51.590666","street":{"id":978065,"name":"On or near Chesnut Road"},"longitude":"-0.067148"},"context":"","outcome_status":{"category":"Status update unavailable","date":"2019-09"},"persistent_id":"3d22b9aff1ece2a4f6a158b67826a29086860f818de70451ca6919e42063641c","id":74292705,"location_subtype":"","month":"2019-05"},{"category":"burglary","location_type":"Force","location":{"latitude":"51.577345","street":{"id":923607,"name":"On or near Ashfield Road"},"longitude":"-0.090545"},"context":"","outcome_status":{"category":"Status update unavailable","date":"2019-09"},"persistent_id":"7e1cb09abadd8ad8cc3f23cbbde088f87e81958837a0ee01fcd3839a6ec18591","id":74306523,"location_subtype":"","month":"2019-05"},{"category":"burglary","location_type":"Force","location":{"latitude":"51.591749","street":{"id":978052,"name":"On or near Forster Road"},"longitude":"-0.071217"},