[{"category":"anti-social-behaviour","location_type":"Force","location":{"latitude":"51.391926","street":{"id":930167,"name":"On or near Hillcross Avenue"},"longitude":"-0.219576"},"context":"","outcome_status":null,"persistent_id":"","id":74273094,"location_subtype":"","month":"2019-05"},{"category":"anti-social-behaviour","location_type":"Force","location":{"latitude":"51.397742","street":{"id":930314,"name":"On or near Hospital"},"longitude":"-0.189535"},"context":"","outcome_status":null,"persistent_id":"","id":74272526,"location_subtype":"","month":"2019-05"},{"category":"anti-social-behaviour","location_type":"Force","location":{"latitude":"51.395342","street":{"id":930300,"name":"On or near Calder Road"},"longitude":"-0.188423"},"context":"","outcome_status":null,"persistent_id":"","id":74272527,"location_subtype":"","month":"2019-05"},{"category":"anti-social-behaviour","location_type":"Force","location":{"latitude":"51.393669","street":{"id":930299,"name":"On or near Cartmel Gardens"},"longitude":"-0.188963"},"context":"","outcome_status":null,"persistent_id":"","id":74272529,"location_subtype":"","month":"2019-05"},{"category":"anti-social-behaviour","location_type":"Force","location":{"latitude":"51.397742","street":{"id":930314,"name":"On or near Hospital"},"longitude":"-0.189535"},"context":"","outcome_status":null,"persistent_id":"","id":74272531,"location_subtype":"","month":"2019-05"},{"category":"anti-social-behaviour","location_type":"Force","location":{"latitude":"51.395342","street":{"id":930300,"name":"On or near Calder Road"},"longitude":"-0.188423"},"context":"","outcome_status":null,"persistent_id":"","id":74272533,"location_subtype":"","month":"2019-05"},{"category":"anti-social-behaviour","location_type":"Force","location":{"latitude":"51.395342","street":{"id":930300,"name":"On or near Calder Road"},"longitude":"-0.188423"},"context":"","outcome_status":null,"persistent_id":"","id":74272534,"location_subtype":"","month":"2019-05"},{"category":"anti-social-behaviour","location_type":"Force","location":{"latitude":"51.395990","street":{"id":930286,"name":"On or near Schoolgate Drive"},"longitude":"-0.190783"},"context":"","outcome_status":null,"persistent_id":"","id":74272536,"location_subtype":"","month":"2019-05"},{"category":"anti-social-behaviour","location_type":"Force","location":{"latitude":"51.395990","street":{"id":930286,"name":"On or near Schoolgate Drive"},"longitude":"-0.190783"},"context":"","outcome_status":null,"persistent_id":"","id":74272538,"location_subtype":"","month":"2019-05"},{"category":"anti-social-behaviour","location_type":"Force","location":{"latitude":"51.394888","street":{"id":930281,"name":"On or near Willows Avenue"},"longitude":"-0.192192"},"context":"","outcome_status":null,"persistent_id":"","id":74272548,"location_subtype":"","month":"2019-05"},{"category":"anti-social-behaviour","location_type":"Force","location":{"latitude":"51.401684","street":{"id":933216,"name":"On or near Abbotsbury Road"},"longitude":"-0.192629"},"context":"","outcome_status":null,"persistent_id":"","id":74272549,"location_subtype":"","month":"2019-05"},{"category":"anti-social-behaviour","location_type":"Force","location":{"latitude":"51.401563","street":{"id":933214,"name":"On or near Aberconway Road"},"longitude":"-0.192389"},"context":"","outcome_status":null,"persistent_id":"","id":74272550,"location_subtype":"","month":"2019-05"},{"category":"anti-social-behaviour","location_type":"Force","location":{"latitude":"51.394888","street":{"id":930281,"name":"On or near Willows Avenue"},"longitude":"-0.192192"},"context":"","outcome_status":null,"persistent_id":"","id":74272551,"location_subtype":"","month":"2019-05"},{"category":"anti-social-behaviour","location_type":"Force","location":{"latitude":"51.414220","street":{"id":934912,"name":"On or near Morden Road"},"longitude":"-0.192638"},"context":"","outcome_status":null,"persistent_id":"","id":74272552,"location_subtype":"","month":"2019-05"},{"category":"anti-social-behaviour","location_type":"Force","location":{"latitude":"51.404211","street":{"id":933221,"name":"On or near Hospital"},"longitude":"-0.192069"},"context":"","outcome_status":null,"persistent_id":"","id":74272553,"location_subtype":"","month":"2019-05"},{"category":"anti-social-behaviour","location_type":"Force","location":{"latitude":"51.398742","street":{"id":930310,"name":"On or near Alnwick Grove"},"longitude":"-0.193737"},"context":"","outcome_status":null,"persistent_id":"","id":74272556,"location_subtype":"","month":"2019-05"},{"category":"anti-social-behaviour","location_type":"Force","location":{"latitude":"51.414413","street":{"id":934913,"name":"On or near Morden Road"},"longitude":"-0.192918"},"context":"","outcome_status":null,"persistent_id":"","id":74272558,"location_subtype":"","month":"2019-05"},{"category":"anti-social-behaviour","location_type":"Force","location":{"latitude":"51.414413","street":{"id":934913,"name":"On or near Morden Road"},"longitude":"-0.192918"},"context":"","outcome_status":null,"persistent_id":"","id":74272559,"location_subtype":"","month":"2019-05"},{"category":"anti-social-behaviour","location_type":"Force","location":{"latitude":"51.401607","street":{"id":933215,"name":"On or near Aberconway Road"},"longitude":"-0.193480"},"context":"","outcome_status":null,"persistent_id":"","id":74272560,"location_subtype":"","month":"2019-05"},{"category":"anti-social-behaviour","location_type":"Force","location":{"latitude":"51.401607","street":{"id":933215,"name":"On or near Aberconway Road"},"longitude":"-0.193480"},"context":"","outcome_status":null,"persistent_id":"","id":74272561,"location_subtype":"","month":"2019-05"},{"category":"anti-social-behaviour","location_type":"Force","location":{"latitude":"51.413847","street":{"id":933281,"name":"On or near Bathurst Avenue"},"longitude":"-0.194723"},"context":"","outcome_status":null,"persistent_id":"","id":74272567,"location_subtype":"","month":"2019-05"},{"category":"anti-social-behaviour","location_type":"Force","location":{"latitude":"51.403329","street":{"id":933294,"name":"On or near Windermere Avenue"},"longitude":"-0.196087"},"context":"","outcome_status":null,"persistent_id":"","id":74272568,"location_subtype":"","month":"2019-05"},{"category":"anti-social-behaviour","location_type":"Force","location":{"latitude":"51.403329","street":{"id":933294,"name":"On or near Windermere Avenue"},"longitude":"-0.196087"},"context":"","outcome_status":null,"persistent_id":"","id":74272569,"location_subtype":"","month":"2019-05"},{"category":"anti-social-behaviour","location_type":"Force","location":{"latitude":"51.398381","street":{"id":930194,"name":"On or near Birchwood Close"},"longitude":"-0.194829"},"context":"","outcome_status":null,"persistent_id":"","id":74272570,"location_subtype":"","month":"2019-05"},{"category":"anti-social-behaviour","location_type":"Force","location":{"latitude":"51.391834","street":{"id":930247,"name":"On or near Sports\/recreation Area"},"longitude":"-0.194799"},"context":"","outcome_status":null,"persistent_id":"","id":74272571,"location_subtype":"","month":"2019-05"},{"category":"anti-social-behaviour","location_type":"Force","location":{"latitude":"51.404041","street":{"id":933290,"name":"On or near Parking Area"},"longitude":"-0.195023"},"context":"","outcome_status":null,"persistent_id":"","id":74272572,"location_subtype":"","month":"2019-05"},{"category":"anti-social-behaviour","location_type":"Force","location":{"latitude":"51.404041","street":{"id":933290,"name":"On or near Parking Area"},"longitude":"-0.195023"},"context":"","outcome_status":null,"persistent_id":"","id":74272573,"location_subtype":"","month":"2019-05"},{"category":"anti-social-behaviour","location_type":"Force","location":{"latitude":"51.407055","street":{"id":933266,"name":"On or near Sandbourne Avenue"},"longitude":"-0.195710"},"context":"","outcome_status":null,"persistent_id":"","id":74272574,"location_subtype":"","month":"2019-05"},{"category":"anti-social-behaviour","location_type":"Force","location":{"latitude":"51.399613","street":{"id":930207,"name":"On or near Morden Court"},"longitude":"-0.196549"},"context":"","outcome_status":null,"persistent_id":"","id":74272575,"location_subtype":"","month":"2019-05"},{"category":"anti-social-behaviour","location_type":"Force","location":{"latitude":"51.399613","street":{"id":930207,"name":"On or near Morden Court"},"longitude":"-0.196549"},"context":"","outcome_status":null,"persistent_id":"","id":74272576,"location_subtype":"","month":"2019-05"},{"category":"anti-social-behaviour","location_type":"Force","location":{"latitude":"51.399613","street":{"id":930207,"name":"On or near Morden Court"},"longitude":"-0.196549"},"context":"","outcome_status":null,"persistent_id":"","id":74272577,"location_subtype":"","month":"2019-05"},{"category":"anti-social-behaviour","location_type":"Force","location":{"latitude":"51.393785","street":{"id":930192,"name":"On or near Central Road"},"longitude":"-0.196534"},"context":"","outcome_status":null,"persistent_id":"","id":74272578,"location_subtype":"","month":"2019-05"},{"category":"anti-social-behaviour","location_type":"Force","location":{"latitude":"51.393785","street":{"id":930192,"name":"On or near Central Road"},"longitude":"-0.196534"},"context":"","outcome_status":null,"persistent_id":"","id":74272579,"location_subtype":"","month":"2019-05"},{"category":"anti-social-behaviour","location_type":"Force","location":{"latitude":"51.393785","street":{"id":930192,"name":"On or near Central Road"},"longitude":"-0.196534"},"context":"","outcome_status":null,"persistent_id":"","id":74272580,"location_subtype":"","month":"2019-05"},{"category":"anti-social-behaviour","location_type":"Force","location":{"latitude":"51.393785","street":{"id":930192,"name":"On or near Central Road"},"longitude":"-0.196534"},"context":"","outcome_status":null,"persistent_id":"","id":74272581,"location_subtype":"","month":"2019-05"},{"category":"anti-social-behaviour","location_type":"Force","location":{"latitude":"51.393785","street":{"id":930192,"name":"On or near Central Road"},"longitude":"-0.196534"},"context":"","outcome_status":null,"persistent_id":"","id":74272582,"location_subtype":"","month":"2019-05"},{"category":"anti-social-behaviour","location_type":"Force","location":{"latitude":"51.393785","street":{"id":930192,"name":"On or near Central Road"},"longitude":"-0.196534"},"context":"","outcome_status":null,"persistent_id":"","id":74272583,"location_subtype":"","month":"2019-05"},{"category":"anti-social-behaviour","location_type":"Force","location":{"latitude":"51.390030","street":{"id":930239,"name":"On or near Green Lane"},"longitude":"-0.197918"},"context":"","outcome_status":null,"persistent_id":"","id":74272585,"location_subtype":"","month":"2019-05"},{"category":"anti-social-behaviour","location_type":"Force","location":{"latitude":"51.391431","street":{"id":930238,"name":"On or near Legion Court"},"longitude":"-0.200148"},"context":"","outcome_status":null,"persistent_id":"","id":74272589,"location_subtype":"","month":"2019-05"},{"category":"anti-social-behaviour","location_type":"Force","location":{"latitude":"51.391431","street":{"id":930238,"name":"On or near Legion Court"},"longitude":"-0.200148"},"context":"","outcome_status":null,"persistent_id":"","id":74272590,"location_subtype":"","month":"2019-05"},{"category":"anti-social-behaviour","location_type":"Force","location":{"latitude":"51.415694","street":{"id":934789,"name":"On or near Further\/higher Educational Building"},"longitude":"-0.199023"},"context":"","outcome_status":null,"persistent_id":"","id":74272591,"location_subtype":"","month":"2019-05"},{"category":"anti-social-behaviour","location_type":"Force","location":{"latitude":"51.399333","street":{"id":930206,"name":"On or near Queen Elizabeth Gardens"},"longitude":"-0.199982"},"context":"","outcome_status":null,"persistent_id":"","id":74272595,"location_subtype":"","month":"2019-05"},{"category":"anti-social-behaviour","location_type":"Force","location":{"latitude":"51.416288","street":{"id":934800,"name":"On or near Granville Road"},"longitude":"-0.199675"},"context":"","outcome_status":null,"persistent_id":"","id":74272600,"location_subtype":"","month":"2019-05"},{"category":"anti-social-behaviour","location_type":"Force","location":{"latitude":"51.394476","street":{"id":930183,"name":"On or near Redclose Avenue"},"longitude":"-0.201092"},"context":"","outcome_status":null,"persistent_id":"","id":74272601,"location_subtype":"","month":"2019-05"},{"category":"anti-social-behaviour","location_type":"Force","location":{"latitude":"51.395467","street":{"id":930184,"name":"On or near London Road"},"longitude":"-0.201197"},"context":"","outcome_status":null,"persistent_id":"","id":74272603,"location_subtype":"","month":"2019-05"},{"category":"anti-social-behaviour","location_type":"Force","location":{"latitude":"51.414121","street":{"id":934779,"name":"On or near Rutlish Road"},"longitude":"-0.200853"},"context":"","outcome_status":null,"persistent_id":"","id":74272609,"location_subtype":"","month":"2019-05"},{"category":"anti-social-behaviour","location_type":"Force","location":{"latitude":"51.394385","street":{"id":930179,"name":"On or near London Road"},"longitude":"-0.203353"},"context":"","outcome_status":null,"persistent_id":"","id":74272610,"location_subtype":"","month":"2019-05"},{"category":"anti-social-behaviour","location_type":"Force","location":{"latitude":"51.412730","street":{"id":933287,"name":"On or near Langley Road"},"longitude":"-0.203367"},"context":"","outcome_status":null,"persistent_id":"","id":74272613,"location_subtype":"","month":"2019-05"},{"category":"anti-social-behaviour","location_type":"Force","location":{"latitude":"51.411091","street":{"id":933226,"name":"On or near The Rush"},"longitude":"-0.208493"},"context":"","outcome_status":null,"persistent_id":"","id":74272628,"location_subtype":"","month":"2019-05"},{"category":"anti-social-behaviour","location_type":"Force","location":{"latitude":"51.411091","street":{"id":933226,"name":"On or near The Rush"},"longitude":"-0.208493"},"context":"","outcome_status":null,"persistent_id":"","id":74272629,"location_subtype":"","month":"2019-05"},{"category":"anti-social-behaviour","location_type":"Force","location":{"latitude":"51.411568","street":{"id":933234,"name":"On or near Merton Hall Road"},"longitude":"-0.209725"},"context":"","outcome_status":null,"persistent_id":"","id":74272630,"location_subtype":"","month":"2019-05"},{"category":"anti-social-behaviour","location_type":"Force","location":{"latitude":"51.414281","street":{"id":934764,"name":"On or near Avebury Road"},"longitude":"-0.209519"},"context":"","outcome_status":null,"persistent_id":"","id":74272635,"location_subtype":"","month":"2019-05"},{"category":"anti-social-behaviour","location_type":"Force","location":{"latitude":"51.403843","street":{"id":933316,"name":"On or near Beaford Grove"},"longitude":"-0.210889"},"context":"","outcome_status":null,"persistent_id":"","id":74272637,"location_subtype":"","month":"2019-05"},{"category":"anti-social-behaviour","location_type":"Force","location":{"latitude":"51.407541","street":{"id":933224,"name":"On or near Whatley Avenue"},"longitude":"-0.211608"},"context":"","outcome_status":null,"persistent_id":"","id":74272638,"location_subtype":"","month":"2019-05"},{"category":"anti-social-behaviour","location_type":"Force","location":{"latitude":"51.407541","street":{"id":933224,"name":"On or near Whatley Avenue"},"longitude":"-0.211608"},"context":"","outcome_status":null,"persistent_id":"","id":74273075,"location_subtype":"","month":"2019-05"},{"category":"anti-social-behaviour","location_type":"Force","location":{"latitude":"51.407541","street":{"id":933224,"name":"On or near Whatley Avenue"},"longitude":"-0.211608"},"context":"","outcome_status":null,"persistent_id":"","id":74273076,"location_subtype":"","month":"2019-05"},{"category":"anti-social-behaviour","location_type":"Force","location":{"latitude":"51.407541","street":{"id":933224,"name":"On or near Whatley Avenue"},"longitude":"-0.211608"},"context":"","outcome_status":null,"persistent_id":"","id":74273077,"location_subtype":"","month":"2019-05"},{"category":"anti-social-behaviour","location_type":"Force","location":{"latitude":"51.409214","street":{"id":933259,"name":"On or near Supermarket"},"longitude":"-0.212779"},"context":"","outcome_status":null,"persistent_id":"","id":74273080,"location_subtype":"","month":"2019-05"},{"category":"anti-social-behaviour","location_type":"Force","location":{"latitude":"51.409214","street":{"id":933259,"name":"On or near Supermarket"},"longitude":"-0.212779"},"context":"","outcome_status":null,"persistent_id":"","id":74273081,"location_subtype":"","month":"2019-05"},{"category":"anti-social-behaviour","location_type":"Force","location":{"latitude":"51.409214","street":{"id":933259,"name":"On or near Supermarket"},"longitude":"-0.212779"},"context":"","outcome_status":null,"persistent_id":"","id":74273082,"location_subtype":"","month":"2019-05"},{"category":"anti-social-behaviour","location_type":"Force","location":{"latitude":"51.414160","street":{"id":934763,"name":"On or near Braeside Avenue"},"longitude":"-0.212802"},"context":"","outcome_status":null,"persistent_id":"","id":74273084,"location_subtype":"","month":"2019-05"},{"category":"anti-social-behaviour","location_type":"Force","location":{"latitude":"51.401692","street":{"id":933393,"name":"On or near North Close"},"longitude":"-0.214898"},"context":"","outcome_status":null,"persistent_id":"","id":74273088,"location_subtype":"","month":"2019-05"},{"category":"anti-social-behaviour","location_type":"Force","location":{"latitude":"51.401692","street":{"id":933393,"name":"On or near North Close"},"longitude":"-0.214898"},"context":"","outcome_status":null,"persistent_id":"","id":74273089,"location_subtype":"","month":"2019-05"},{"category":"anti-social-behaviour","location_type":"Force","location":{"latitude":"51.401692","street":{"id":933393,"name":"On or near North Close"},"longitude":"-0.214898"},"context":"","outcome_status":null,"persistent_id":"","id":74273090,"location_subtype":"","month":"2019-05"},{"category":"anti-social-behaviour","location_type":"Force","location":{"latitude":"51.399700","street":{"id":930132,"name":"On or near The Green"},"longitude":"-0.216902"},"context":"","outcome_status":null,"persistent_id":"","id":74273095,"location_subtype":"","month":"2019-05"},{"category":"anti-social-behaviour","location_type":"Force","location":{"latitude":"51.399700","street":{"id":930132,"name":"On or near The Green"},"longitude":"-0.216902"},"context":"","outcome_status":null,"persistent_id":"","id":74273096,"location_subtype":"","month":"2019-05"},{"category":"anti-social-behaviour","location_type":"Force","location":{"latitude":"51.399700","street":{"id":930132,"name":"On or near The Green"},"longitude":"-0.216902"},"context":"","outcome_status":null,"persistent_id":"","id":74273097,"location_subtype":"","month":"2019-05"},{"category":"anti-social-behaviour","location_type":"Force","location":{"latitude":"51.409495","street":{"id":933389,"name":"On or near Bronson Road"},"longitude":"-0.218247"},"context":"","outcome_status":null,"persistent_id":"","id":74273099,"location_subtype":"","month":"2019-05"},{"category":"anti-social-behaviour","location_type":"Force","location":{"latitude":"51.399631","street":{"id":930153,"name":"On or near Meadow Close"},"longitude":"-0.227184"},"context":"","outcome_status":null,"persistent_id":"","id":74273115,"location_subtype":"","month":"2019-05"},{"category":"anti-social-behaviour","location_type":"Force","location":{"latitude":"51.402688","street":{"id":933399,"name":"On or near Cannon Close"},"longitude":"-0.228345"},"context":"","outcome_status":null,"persistent_id":"","id":74273116,"location_subtype":"","month":"2019-05"},{"category":"anti-social-behaviour","location_type":"Force","location":{"latitude":"51.400926","street":{"id":933213,"name":"On or near Bardney Road"},"longitude":"-0.191868"},"context":"","outcome_status":null,"persistent_id":"","id":74272546,"location_subtype":"","month":"2019-05"},{"category":"anti-social-behaviour","location_type":"Force","location":{"latitude":"51.407277","street":{"id":933278,"name":"On or near Charminster Avenue"},"longitude":"-0.196679"},"context":"","outcome_status":null,"persistent_id":"","id":74272584,"location_subtype":"","month":"2019-05"},{"category":"anti-social-behaviour","location_type":"Force","location":{"latitude":"51.409313","street":{"id":933384,"name":"On or near Chestnut Road"},"longitude":"-0.219275"},"context":"","outcome_status":null,"persistent_id":"","id":74285666,"location_subtype":"","month":"2019-05"},{"category":"anti-social-behaviour","location_type":"Force","location":{"latitude":"51.409313","street":{"id":933384,"name":"On or near Chestnut Road"},"longitude":"-0.219275"},"context":"","outcome_status":null,"persistent_id":"","id":74285667,"location_subtype":"","month":"2019-05"},{"category":"bicycle-theft","location_type":"Force","location":{"latitude":"51.409214","street":{"id":933259,"name":"On or near Supermarket"},"longitude":"-0.212779"},"context":"","outcome_status":{"category":"Status update unavailable","date":"2019-09"},"persistent_id":"ee0918803411fb56f215172b6490463962bdb21d694e0471f4ac7aea1d93ba96","id":74343080,"location_subtype":"","month":"2019-05"},{"category":"bicycle-theft","location_type":"Force","location":{"latitude":"51.408465","street":{"id":933324,"name":"On or near Prince George's Avenue"},"longitude":"-0.226253"},"context":"","outcome_status":{"category":"Status update unavailable","date":"2019-09"},"persistent_id":"62b4b6e6185ef3ed3e33a72b2847c534a3b8577ddb73f01376e50bc28b459b25","id":74321896,"location_subtype":"","month":"2019-05"},{"category":"burglary","location_type":"Force","location":{"latitude":"51.413274","street":{"id":933232,"name":"On or near Rayleigh Road"},"longitude":"-0.209543"},"context":"","outcome_status":{"category":"Status update unavailable","date":"2019-09"},"persistent_id":"ece5fc1cf0bb6dfd29dab5d7634609cbb5af4abe099521da01ec2b0c72b1c5ed","id":74310366,"location_subtype":"","month":"2019-05"},{"category":"burglary","location_type":"Force","location":{"latitude":"51.409874","street":{"id":933239,"name":"On or near Manor Gardens"},"longitude":"-0.208900"},"context":"","outcome_status":{"category":"Status update unavailable","date":"2019-09"},"persistent_id":"81f8b33034324ef635735f0226d14405646b67dbf77f2e94d3042cd4d260936a","id":74323583,"location_subtype":"","month":"2019-05"},{"category":"burglary","location_type":"Force","location":{"latitude":"51.399610","street":{"id":930218,"name":"On or near Woodland Way"},"longitude":"-0.206914"},"context":"","outcome_status":{"category":"Status update unavailable","date":"2019-09"},"persistent_id":"e3c66cdac3413c05006322c5677543f7b9dbca5857d7a86273c41a23dcc3780e","id":74348256,"location_subtype":"","month":"2019-05"},{"category":"burglary","location_type":"Force","location":{"latitude":"51.416007","street":{"id":934762,"name":"On or near Fairlawn Road"},"longitude":"-0.207711"},"context":"","outcome_status":{"category":"Court result unavailable","date":"2019-11"},"persistent_id":"522fe97314d3f6ab8557da6d63c3f1681f0efa1937fa13e33a1bd9445a05ec6a","id":74323147,"location_subtype":"","month":"2019-05"},{"category":"burglary","location_type":"Force","location":{"latitude":"51.417059","street":{"id":934775,"name":"On or near Caroline Road"},"longitude":"-0.208892"},"context":"","outcome_status":{"category":"Status update unavailable","date":"2019-09"},"persistent_id":"f17ca4ec0510787fa38132fa045725a62332360bf6c01576fd33d237c75dba3d","id":74328640,"location_subtype":"","month":"2019-05"},{"category":"burglary","location_type":"Force","location":{"latitude":"51.411523","street":{"id":933228,"name":"On or near Sheridan Road"},"longitude":"-0.204435"},"context":"","outcome_status":{"category":"Status update unavailable","date":"2019-09"},"persistent_id":"c73f780c9aa3d8c6b967f66b5f1d658b1713383dc331ca2e6491e1757f651ea8","id":74314220,"location_subtype":"","month":"2019-05"},{"category":"burglary","location_type":"Force","location":{"latitude":"51.402702","street":{"id":933212,"name":"On or near London Road"},"longitude":"-0.193336"},"context":"","outcome_status":{"category":"Status update unavailable","date":"2019-09"},"persistent_id":"78cc5f23325f9c6b20ac7346f5deffa76dabe5fa7bf2136f916982a5bcc154be","id":74319556,"location_subtype":"","month":"2019-05"},{"category":"burglary","location_type":"Force","location":{"latitude":"51.397994","street":{"id":930315,"name":"On or near Hospital"},"longitude":"-0.184911"},"context":"","outcome_status":{"category":"Status update unavailable","date":"2019-09"},"persistent_id":"c17b9cf1d55b035e66d069b6552378bdc1d64dbefb9b57a84d0cf54cbe8ad68a","id":74335528,"location_subtype":"","month":"2019-05"},{"category":"burglary","location_type":"Force","location":{"latitude":"51.415313","street":{"id":934784,"name":"On or near Kingston Road"},"longitude":"-0.197053"},"context":"","outcome_status":{"category":"Status update unavailable","date":"2019-09"},"persistent_id":"cba7fba0461d8cb8375dd773aced2f73ba7069eb58063afa371d7b29af37934b","id":74301965,"location_subtype":"","month":"2019-05"},{"category":"burglary","location_type":"Force","location":{"latitude":"51.403597","street":{"id":933299,"name":"On or near Grasmere Avenue"},"longitude":"-0.197744"},"context":"","outcome_status":{"category":"Status update unavailable","date":"2019-09"},"persistent_id":"7cf76c7055055409cf56013429f6b50901201e13e83ed336e4a497d4d0babaa4","id":74356603,"location_subtype":"","month":"2019-05"},{"category":"burglary","location_type":"Force","location":{"latitude":"51.401401","street":{"id":933309,"name":"On or near Westcroft Gardens"},"longitude":"-0.211143"},"context":"","outcome_status":{"category":"Status update unavailable","date":"2019-09"},"persistent_id":"8f048b8867bdb0681b3499caab7cbd634c6c80ab516239d0c5ef6e31fca0a0af","id":74298364,"location_subtype":"","month":"2019-05"},{"category":"burglary","location_type":"Force","location":{"latitude":"51.403713","street":{"id":933313,"name":"On or near Martin Way"},"longitude":"-0.213554"},"context":"","outcome_status":{"category":"Status update unavailable","date":"2019-09"},"persistent_id":"331701b57a6574f2ad7bbdaeaf7092bcbadd3d43846af8857f3872a667177c45","id":74297974,"location_subtype":"","month":"2019-05"},{"category":"burglary","location_type":"Force","location":{"latitude":"51.411284","street":{"id":933125,"name":"On or near Jubilee Way"},"longitude":"-0.190065"},"context":"","outcome_status":{"category":"Status update unavailable","date":"2019-09"},"persistent_id":"4f93e48b2d0a9880f97e5db2c5fa58a9f330a8239c10495f80e6cc9546bbcdb9","id":74332350,"location_subtype":"","month":"2019-05"},{"category":"burglary","location_type":"Force","location":{"latitude":"51.405667","street":{"id":933271,"name":"On or near Kenley Road"},"longitude":"-0.198410"},"context":"","outcome_status":{"category":"Status update unavailable","date":"2019-09"},"persistent_id":"ec8ed7e51556707cfb0d524dd8dca59c96e6026f2680405632c62ada6e2fa582","id":74296444,"location_subtype":"","month":"2019-05"},{"category":"burglary","location_type":"Force","location":{"latitude":"51.399700","street":{"id":930132,"name":"On or near The Green"},"longitude":"-0.216902"},"context":"","outcome_status":{"category":"Status update unavailable","date":"2019-09"},"persistent_id":"37a8e5b5fc3b1622eb044805ce91b7affd6984c57827632adaebeaf2d534a952","id":74291363,"location_subtype":"","month":"2019-05"},{"category":"burglary","location_type":"Force","location":{"latitude":"51.406209","street":{"id":933363,"name":"On or near Whatley Avenue"},"longitude":"-0.216793"},"context":"","outcome_status":{"category":"Status update unavailable","date":"2019-09"},"persistent_id":"8a1b6b4ad5f6f7f2d536e1db1fdf44b61d11aae070a4c3132ce3583a24ab3eb0","id":74314987,"location_subtype":"","month":"2019-05"},{"category":"burglary","location_type":"Force","location":{"latitude":"51.403457","street":{"id":933317,"name":"On or near Petrol Station"},"longitude":"-0.213823"},"context":"","outcome_status":{"category":"Status update unavailable","date":"2019-09"},"persistent_id":"c94beb535d7a3a2b6ec81d4f531a2e391a04f7995fade417ca3a7d0862219223","id":74305171,"location_subtype":"","month":"2019-05"},{"category":"criminal-damage-arson","location_type":"Force","location":{"latitude":"51.398125","street":{"id":930306,"name":"On or near Boxley Road"},"longitude":"-0.185797"},"context":"","outcome_status":{"category":"Status update unavailable","date":"2019-09"},"persistent_id":"078e417778ddf8844881f17913b6d87b74b14a8d9476020e2dfd458e4c4d5944","id":74299089,"location_subtype":"","month":"2019-05"},{"category":"criminal-damage-arson","location_type":"Force","location":{"latitude":"51.412492","street":{"id":933368,"name":"On or near Stanton Road"},"longitude":"-0.223178"},"context":"","outcome_status":{"category":"Status update unavailable","date":"2019-09"},"persistent_id":"67bcbe4bef0d551244ebc024dac33908ebea1b2de6ca008efd19938e672f73ec","id":74309398,"location_subtype":"","month":"2019-05"},{"category":"criminal-damage-arson","location_type":"Force","location":{"latitude":"51.394385","street":{"id":930179,"name":"On or near London Road"},"longitude":"-0.203353"},"context":"","outcome_status":{"category":"Status update unavailable","date":"2019-09"},"persistent_id":"6f98e927effa5ed557effce90f87377d5c87864c5ae808f22d0e9894d00dd353","id":74327469,"location_subtype":"","month":"2019-05"},{"category":"criminal-damage-arson","location_type":"Force","location":{"latitude":"51.410120","street":{"id":933118,"name":"On or near Nursery Road"},"longitude":"-0.193260"},"context":"","outcome_status":{"category":"Court result unavailable","date":"2020-07"},"persistent_id":"3884572ee9a1f6a4a6b7651d8f86d9245b03f42f36e83513476330291dd714e8","id":74319595,"location_subtype":"","month":"2019-05"},{"category":"criminal-damage-arson","location_type":"Force","location":{"latitude":"51.410995","street":{"id":933231,"name":"On or near Richmond Avenue"},"longitude":"-0.211631"},"context":"","outcome_status":{"category":"Investigation complete; no suspect identified","date":"2020-03"},"persistent_id":"0aca5df3b2c760d6fe6c3b4058c1a9a6849a54f53de96a1754e0b26175a61e23","id":74291628,"location_subtype":"","month":"2019-05"},{"category":"criminal-damage-arson","location_type":"Force","location":{"latitude":"51.408751","street":{"id":933255,"name":"On or near Petrol Station"},"longitude":"-0.214278"},"context":"","outcome_status":{"category":"Investigation complete; no suspect identified","date":"2020-03"},"persistent_id":"e481ca1883c96038e596792806ee566fdb0696ce95f8dac4171a3d5950186f5f","id":74320581,"location_subtype":"","month":"2019-05"},{"category":"criminal-damage-arson","location_type":"Force","location":{"latitude":"51.393785","street":{"id":930192,"name":"On or near Central Road"},"longitude":"-0.196534"},"context":"","outcome_status":{"category":"Status update unavailable","date":"2019-09"},"persistent_id":"f3c67e794854e0f75d6d76a631de97bae97944c0b10a31245b7afb7b3df82820","id":74362202,"location_subtype":"","month":"2019-05"},{"category":"criminal-damage-arson","location_type":"Force","location":{"latitude":"51.401574","street":{"id":933305,"name":"On or near Police Station"},"longitude":"-0.196587"},"context":"","outcome_status":{"category":"Status update unavailable","date":"2019-09"},"persistent_id":"b5dcab6a3a895381f97ab7b51c30d02623cdedea3811bfe8ea86ae7d11a716a2","id":74290724,"location_subtype":"","month":"2019-05"},{"category":"criminal-damage-arson","location_type":"Force","location":{"latitude":"51.394888","street":{"id":930281,"name":"On or near Willows Avenue"},"longitude":"-0.192192"},"context":"","outcome_status":{"category":"Status update unavailable","date":"2019-09"},"persistent_id":"d6267de77a964592a1a8e812d443340279102dc624333b23efd4e79d65356d45","id":74316271,"location_subtype":"","month":"2019-05"},{"category":"criminal-damage-arson","location_type":"Force","location":{"latitude":"51.411568","street":{"id":933234,"name":"On or near Merton Hall Road"},"longitude":"-0.209725"},"context":"","outcome_status":{"category":"Status update unavailable","date":"2019-09"},"persistent_id":"866ef85c546f2a7b79bca61e2f01edb07d2b0623991e6a0e437028c9c47260d9","id":74325180,"location_subtype":"","month":"2019-05"},{"category":"criminal-damage-arson","location_type":"Force","location":{"latitude":"51.396215","street":{"id":930193,"name":"On or near Bury Grove"},"longitude":"-0.194311"},"context":"","outcome_status":{"category":"Status update unavailable","date":"2019-09"},"persistent_id":"4bb312eab3ba38f64b8b6ea9bce40a18c06b7c256ee6c5617ff555c8648269fa","id":74314344,"location_subtype":"","month":"2019-05"},{"category":"criminal-damage-arson","location_type":"Force","location":{"latitude":"51.391926","street":{"id":930167,"name":"On or near Hillcross Avenue"},"longitude":"-0.219576"},"context":"","outcome_status":{"category":"Status update unavailable","date":"2019-09"},"persistent_id":"9817a80872ca7e03705c002b1f215c934ee2bb70612b0109e58b2399a4dedaa9","id":74314479,"location_subtype":"","month":"2019-05"},{"category":"criminal-damage-arson","location_type":"Force","location":{"latitude":"51.413159","street":{"id":933369,"name":"On or near Southdown Road"},"longitude":"-0.219701"},"context":"","outcome_status":{"category":"Status update unavailable","date":"2019-09"},"persistent_id":"ed673803f102eeb27e2ac6261cc76d86ae92bb1735ae6a7e8a2e4e141b8fc9ce","id":74314663,"location_subtype":"","month":"2019-05"},{"category":"criminal-damage-arson","location_type":"Force","location":{"latitude":"51.401687","street":{"id":933312,"name":"On or near Mossville Gardens"},"longitude":"-0.208070"},"context":"","outcome_status":{"category":"Status update unavailable","date":"2019-09"},"persistent_id":"11c25436bbb19f7d37a3496e69b93cac3ab1cf4c837a7b826f7adae6894c637c","id":74295565,"location_subtype":"","month":"2019-05"},{"category":"criminal-damage-arson","location_type":"Force","location":{"latitude":"51.402286","street":{"id":933297,"name":"On or near Martin Way"},"longitude":"-0.201979"},"context":"","outcome_status":{"category":"Local resolution","date":"2019-12"},"persistent_id":"f532cc29e173d78d8b8a07f7e1fe72e4494498fbfa7b48ca5714169b7e9f4067","id":74327222,"location_subtype":"","month":"2019-05"},{"category":"criminal-damage-arson","location_type":"Force","location":{"latitude":"51.399833","street":{"id":930317,"name":"On or near Bayham Road"},"longitude":"-0.189855"},"context":"","outcome_status":{"category":"Status update unavailable","date":"2019-09"},"persistent_id":"79af85f593c25fc4d00fd90aa55c6dfcc81d3433d966373bf1a6526df3faf392","id":74347829,"location_subtype":"","month":"2019-05"},{"category":"criminal-damage-arson","location_type":"Force","location":{"latitude":"51.409874","street":{"id":933239,"name":"On or near Manor Gardens"},"longitude":"-0.208900"},"context":"","outcome_status":{"category":"Status update unavailable","date":"2019-09"},"persistent_id":"91fd2bb211238a59b7a2a69d9e3a068437128cf288a6ee360fb9922878839b1a","id":74304660,"location_subtype":"","month":"2019-05"},{"category":"criminal-damage-arson","location_type":"Force","location":{"latitude":"51.400926","street":{"id":933213,"name":"On or near Bardney Road"},"longitude":"-0.191868"},"context":"","outcome_status":{"category":"Status update unavailable","date":"2019-09"},"persistent_id":"38ce6f1865c4981a3f3adf53b94e153c1fbfffdee343a11be73270a3c924b3ea","id":74346152,"location_subtype":"","month":"2019-05"},{"category":"criminal-damage-arson","location_type":"Force","location":{"latitude":"51.416132","street":{"id":934756,"name":"On or near William Road"},"longitude":"-0.211790"},"context":"","outcome_status":{"category":"Status update unavailable","date":"2019-09"},"persistent_id":"c3b192d38823d604736be1202a73259f6584521c2f9fed27f5e2bb61e02c4301","id":74339262,"location_subtype":"","month":"2019-05"},{"category":"drugs","location_type":"Force","location":{"latitude":"51.407611","street":{"id":933372,"name":"On or near Martin Way"},"longitude":"-0.219700"},"context":"","outcome_status":{"category":"Local resolution","date":"2019-05"},"persistent_id":"e1f2f65e90dccbd293fa27ba0747415429a741bbf278d9c6ee19420eb98d9dab","id":74299014,"location_subtype":"","month":"2019-05"},{"category":"drugs","location_type":"Force","location":{"latitude":"51.403298","street":{"id":933218,"name":"On or near A24"},"longitude":"-0.191760"},"context":"","outcome_status":{"category":"Local resolution","date":"2019-05"},"persistent_id":"dfdec5eb306a28976c113ddfc465eebb4653e28af9d090d6968231652b951718","id":74316960,"location_subtype":"","month":"2019-05"},{"category":"drugs","location_type":"Force","location":{"latitude":"51.397052","street":{"id":930296,"name":"On or near Connaught Gardens"},"longitude":"-0.185609"},"context":"","outcome_status":{"category":"Court result unavailable","date":"2020-03"},"persistent_id":"da17df560632242c726a29a23b69c73fae71183de6b018eaff17743b4463dff9","id":74327951,"location_subtype":"","month":"2019-05"},{"category":"drugs","location_type":"Force","location":{"latitude":"51.411776","street":{"id":933241,"name":"On or near Kingston Road"},"longitude":"-0.208020"},"context":"","outcome_status":{"category":"Local resolution","date":"2019-05"},"persistent_id":"9dd2f90ed339648c5cb063de67ff6df89bcc30b6d37d77d310cc29e96231c9e4","id":74327967,"location_subtype":"","month":"2019-05"},{"category":"drugs","location_type":"Force","location":{"latitude":"51.397742","street":{"id":930314,"name":"On or near Hospital"},"longitude":"-0.189535"},"context":"","outcome_status":{"category":"Investigation complete; no suspect identified","date":"2020-05"},"persistent_id":"fcf893eaea3f92d1ffa07447f9a679eec7d6532a0fbb33792e222794b7551244","id":74291333,"location_subtype":"","month":"2019-05"},{"category":"drugs","location_type":"Force","location":{"latitude":"51.411284","street":{"id":933125,"name":"On or near Jubilee Way"},"longitude":"-0.190065"},"context":"","outcome_status":{"category":"Status update unavailable","date":"2019-09"},"persistent_id":"39ce5678c307792c80e7e132c97e061bb79100ea7ff71091f3651a4db61b4d11","id":74290986,"location_subtype":"","month":"2019-05"},{"category":"drugs","location_type":"Force","location":{"latitude":"51.411284","street":{"id":933125,"name":"On or near Jubilee Way"},"longitude":"-0.190065"},"context":"","outcome_status":{"category":"Status update unavailable","date":"2019-09"},"persistent_id":"39ce5678c307792c80e7e132c97e061bb79100ea7ff71091f3651a4db61b4d11","id":74290987,"location_subtype":"","month":"2019-05"},{"category":"drugs","location_type":"Force","location":{"latitude":"51.408810","street":{"id":933378,"name":"On or near Edna Road"},"longitude":"-0.223507"},"context":"","outcome_status":{"category":"Local resolution","date":"2019-05"},"persistent_id":"808731958de6123631b40d6deaff63b0114944fc4b7e15aecab82c1d954d186f","id":74291332,"location_subtype":"","month":"2019-05"},{"category":"other-theft","location_type":"Force","location":{"latitude":"51.401672","street":{"id":933303,"name":"On or near Crown Lane"},"longitude":"-0.195965"},"context":"","outcome_status":{"category":"Status update unavailable","date":"2019-09"},"persistent_id":"7e0941ef79016f605cb99dbb502e3c0435b3dcd7f196b9b078fad4e4698354bb","id":74340642,"location_subtype":"","month":"2019-05"},{"category":"other-theft","location_type":"Force","location":{"latitude":"51.392142","street":{"id":930246,"name":"On or near B278"},"longitude":"-0.201946"},"context":"","outcome_status":{"category":"Status update unavailable","date":"2019-09"},"persistent_id":"477943235302d00473df335dbc8ebbfb06564d7852e57f61ad05b5ec14b748bc","id":74292234,"location_subtype":"","month":"2019-05"},{"category":"other-theft","location_type":"Force","location":{"latitude":"51.400411","street":{"id":930133,"name":"On or near Hillside Close"},"longitude":"-0.215164"},"context":"","outcome_status":{"category":"Status update unavailable","date":"2019-09"},"persistent_id":"cefc37793965841baf292d43de06665cd71fa799495ba5e2bef633e6ff32c732","id":74304419,"location_subtype":"","month":"2019-05"},{"category":"other-theft","location_type":"Force","location":{"latitude":"51.395990","street":{"id":930286,"name":"On or near Schoolgate Drive"},"longitude":"-0.190783"},"context":"","outcome_status":{"category":"Status update unavailable","date":"2019-09"},"persistent_id":"94b43b76fd62db691bc84c50a82fda523b4b36dacdd7e901b8b351da8f49e596","id":74342118,"location_subtype":"","month":"2019-05"},{"category":"other-theft","location_type":"Force","location":{"latitude":"51.406900","street":{"id":933361,"name":"On or near Park\/open Space"},"longitude":"-0.223811"},"context":"","outcome_status":{"category":"Status update unavailable","date":"2019-09"},"persistent_id":"24a6719a29ee001d7aa8cfec667d266e02965b979e17ad5917e6820a6b576a07","id":74293241,"location_subtype":"","month":"2019-05"},{"category":"other-theft","location_type":"Force","location":{"latitude":"51.412756","street":{"id":933243,"name":"On or near Henfield Road"},"longitude":"-0.207982"},"context":"","outcome_status":{"category":"Investigation complete; no suspect identified","date":"2020-03"},"persistent_id":"d55415dfe173135f6f0099545417c1712f0224f79ff33221e6049a492c7ebb77","id":74304853,"location_subtype":"","month":"2019-05"},{"category":"other-theft","location_type":"Force","location":{"latitude":"51.412893","street":{"id":933122,"name":"On or near Merantun Way"},"longitude":"-0.192316"},"context":"","outcome_status":{"category":"Investigation complete; no suspect identified","date":"2020-03"},"persistent_id":"618bb0088bba48840ec3b3388bd0ffd07dac1411df947aecc696ccaa38f250ac","id":74347912,"location_subtype":"","month":"2019-05"},{"category":"other-theft","location_type":"Force","location":{"latitude":"51.401156","street":{"id":933307,"name":"On or near Maycross Avenue"},"longitude":"-0.203935"},"context":"","outcome_status":{"category":"Status update unavailable","date":"2019-09"},"persistent_id":"6c81404b7390a0cabbf96535701cf6c57e7a5fefed78154dab361cb4d2374b8f","id":74344349,"location_subtype":"","month":"2019-05"},{"category":"other-theft","location_type":"Force","location":{"latitude":"51.401153","street":{"id":933211,"name":"On or near Morden Hall Road"},"longitude":"-0.189674"},"context":"","outcome_status":{"category":"Status update unavailable","date":"2019-09"},"persistent_id":"95f9eed858692ee648bd172258f21c3c2cbc6e7269466ca04ec2a4285a470979","id":74329204,"location_subtype":"","month":"2019-05"},{"category":"other-theft","location_type":"Force","location":{"latitude":"51.410995","street":{"id":933231,"name":"On or near Richmond Avenue"},"longitude":"-0.211631"},"context":"","outcome_status":{"category":"Status update unavailable","date":"2019-09"},"persistent_id":"1378bd9403f6eeac4f0eb40b05ebfce3d7a47d1b54768e5fb8b7aa35c66dc153","id":74333984,"location_subtype":"","month":"2019-05"},{"category":"other-theft","location_type":"Force","location":{"latitude":"51.394385","street":{"id":930179,"name":"On or near London Road"},"longitude":"-0.203353"},"context":"","outcome_status":{"category":"Status update unavailable","date":"2019-09"},"persistent_id":"6e082d6012c198d661ab391c036fb04b0147ea34b17c74034472f119a5d05565","id":74327079,"location_subtype":"","month":"2019-05"},{"category":"other-theft","location_type":"Force","location":{"latitude":"51.403457","street":{"id":933317,"name":"On or near Petrol Station"},"longitude":"-0.213823"},"context":"","outcome_status":{"category":"Status update unavailable","date":"2019-09"},"persistent_id":"699dc651de54ba7a65554d26ada863fc05b97ab678a64c3322191682b7eeb664","id":74337560,"location_subtype":"","month":"2019-05"},{"category":"other-theft","location_type":"Force","location":{"latitude":"51.397183","street":{"id":930302,"name":"On or near Buckland Walk"},"longitude":"-0.188249"},"context":"","outcome_status":{"category":"Local resolution","date":"2020-04"},"persistent_id":"0899ecbf8b7cca3acf55fcc4d0e7cc0c0b02369fcf80c66710914111ec2b6502","id":74351204,"location_subtype":"","month":"2019-05"},{"category":"other-theft","location_type":"Force","location":{"latitude":"51.413274","street":{"id":933232,"name":"On or near Rayleigh Road"},"longitude":"-0.209543"},"context":"","outcome_status":{"category":"Status update unavailable","date":"2019-09"},"persistent_id":"cc55533afa475ce2c0a5e889db1cf7b9968c92dfaef3c97fec962b17b70e93ac","id":74347899,"location_subtype":"","month":"2019-05"},{"category":"other-theft","location_type":"Force","location":{"latitude":"51.410120","street":{"id":933118,"name":"On or near Nursery Road"},"longitude":"-0.193260"},"context":"","outcome_status":{"category":"Status update unavailable","date":"2019-09"},"persistent_id":"486e484ee9a966a6d37fd181fea37a88888e473b8c08f051ea2ec0cbc43fe54c","id":74347889,"location_subtype":"","month":"2019-05"},{"category":"other-theft","location_type":"Force","location":{"latitude":"51.405640","street":{"id":933244,"name":"On or near Haynt Walk"},"longitude":"-0.213695"},"context":"","outcome_status":{"category":"Status update unavailable","date":"2019-09"},"persistent_id":"fb7aaf72db6e9450fa298dec82dae77e4d2130a1dd47f99dc4c2b494d9b885a8","id":74330908,"location_subtype":"","month":"2019-05"},{"category":"other-theft","location_type":"Force","location":{"latitude":"51.408751","street":{"id":933255,"name":"On or near Petrol Station"},"longitude":"-0.214278"},"context":"","outcome_status":{"category":"Court result unavailable","date":"2020-10"},"persistent_id":"9a598d3b5c365976a3fde7cd956f6a8f7f5fcc390f2cb96cc67ef2097990b1ac","id":74301857,"location_subtype":"","month":"2019-05"},{"category":"other-theft","location_type":"BTP","location":{"latitude":"51.402600","street":{"id":1488675,"name":"Morden (lu Station)"},"longitude":"-0.194776"},"context":"","outcome_status":{"category":"Status update unavailable","date":"2019-09"},"persistent_id":"","id":88717176,"location_subtype":"LU STATION","month":"2019-05"},{"category":"other-theft","location_type":"Force","location":{"latitude":"51.408751","street":{"id":933255,"name":"On or near Petrol Station"},"longitude":"-0.214278"},"context":"","outcome_status":{"category":"Investigation complete; no suspect identified","date":"2020-03"},"persistent_id":"dc2078f737db783b27224ab6aa814fe86208cc9e6033ed55e83ac5d4d017468a","id":74331053,"location_subtype":"","month":"2019-05"},{"category":"other-theft","location_type":"Force","location":{"latitude":"51.402941","street":{"id":933318,"name":"On or near Hospital"},"longitude":"-0.214807"},"context":"","outcome_status":{"category":"Status update unavailable","date":"2019-09"},"persistent_id":"20824ca2694c2c0550bd159a0fdad372032c5713331239d3f2dee5411dbf8558","id":74327631,"location_subtype":"","month":"2019-05"},{"category":"other-theft","location_type":"Force","location":{"latitude":"51.413142","street":{"id":933269,"name":"On or near Melbourne Road"},"longitude":"-0.196836"},"context":"","outcome_status":{"category":"Status update unavailable","date":"2019-09"},"persistent_id":"d6e2533f2bc2484ea4d25eadd5c449b5c21510d20857052cb88459aeb2a70cd3","id":74367740,"location_subtype":"","month":"2019-05"},{"category":"other-theft","location_type":"Force","location":{"latitude":"51.394385","street":{"id":930179,"name":"On or near London Road"},"longitude":"-0.203353"},"context":"","outcome_status":{"category":"Status update unavailable","date":"2019-09"},"persistent_id":"71e57e22ab146334f75fb7a94a008434676d65933cd61d0ae1454d2b6131849a","id":74290914,"location_subtype":"","month":"2019-05"},{"category":"other-theft","location_type":"Force","location":{"latitude":"51.392142","street":{"id":930246,"name":"On or near B278"},"longitude":"-0.201946"},"context":"","outcome_status":{"category":"Investigation complete; no suspect identified","date":"2020-03"},"persistent_id":"f9a6ce42e9e74f944118085efae4ece2b712629bd5d67a52e69c038b0a99aedc","id":74350617,"location_subtype":"","month":"2019-05"},{"category":"other-theft","location_type":"Force","location":{"latitude":"51.403457","street":{"id":933317,"name":"On or near Petrol Station"},"longitude":"-0.213823"},"context":"","outcome_status":{"category":"Status update unavailable","date":"2019-09"},"persistent_id":"e23eed4ab93a3c882bec9b91b4eb8b26385d4bff7b6dc8a23f894f6870ebf88b","id":74341839,"location_subtype":"","month":"2019-05"},{"category":"other-theft","location_type":"Force","location":{"latitude":"51.406049","street":{"id":933126,"name":"On or near Daybrook Road"},"longitude":"-0.193492"},"context":"","outcome_status":{"category":"Status update unavailable","date":"2019-09"},"persistent_id":"7486b4fa31ed26f31db1f843a4435d5481471882954fd1402499d7860f4b5903","id":74308718,"location_subtype":"","month":"2019-05"},{"category":"other-theft","location_type":"Force","location":{"latitude":"51.403457","street":{"id":933317,"name":"On or near Petrol Station"},"longitude":"-0.213823"},"context":"","outcome_status":{"category":"Investigation complete; no suspect identified","date":"2020-03"},"persistent_id":"98d31ed8b08cc6222f9263a6baa5fb271db3a1d6d7b8192012c539546bb527ad","id":74343777,"location_subtype":"","month":"2019-05"},{"category":"other-theft","location_type":"Force","location":{"latitude":"51.415313","street":{"id":934784,"name":"On or near Kingston Road"},"longitude":"-0.197053"},"context":"","outcome_status":{"category":"Investigation complete; no suspect identified","date":"2020-03"},"persistent_id":"0b6b9dc7894d7954b3326e14065d1fce1fe3fecca9d4cca3a3d22e40a9ae1ee0","id":74313764,"location_subtype":"","month":"2019-05"},{"category":"other-theft","location_type":"Force","location":{"latitude":"51.403457","street":{"id":933317,"name":"On or near Petrol Station"},"longitude":"-0.213823"},"context":"","outcome_status":{"category":"Status update unavailable","date":"2019-09"},"persistent_id":"d66530c8942acf532144bfd44f6de8a7e26953be62274af8da38bc9f2266b09b","id":74341413,"location_subtype":"","month":"2019-05"},{"category":"other-theft","location_type":"Force","location":{"latitude":"51.415873","street":{"id":934757,"name":"On or near Trevor Road"},"longitude":"-0.212476"},"context":"","outcome_status":{"category":"Status update unavailable","date":"2019-09"},"persistent_id":"21f8a20171d861c774d6b064774e8ba28b505c31a00e9d8f939f77a8559e89bc","id":74340797,"location_subtype":"","month":"2019-05"},{"category":"other-theft","location_type":"Force","location":{"latitude":"51.403457","street":{"id":933317,"name":"On or near Petrol Station"},"longitude":"-0.213823"},"context":"","outcome_status":{"category":"Status update unavailable","date":"2019-09"},"persistent_id":"5430b300c1171c96a38199ec67ab6fe963361c353234185da4e2944c413e4d89","id":74340643,"location_subtype":"","month":"2019-05"},{"category":"other-theft","location_type":"Force","location":{"latitude":"51.408829","street":{"id":933380,"name":"On or near Dorien Road"},"longitude":"-0.222356"},"context":"","outcome_status":{"category":"Status update unavailable","date":"2019-09"},"persistent_id":"f8d7d04fad9bfad23af21e3c7f235f550c1b5ce9e7182beb7e1bdfcba86c7674","id":74324233,"location_subtype":"","month":"2019-05"},{"category":"other-theft","location_type":"Force","location":{"latitude":"51.400977","street":{"id":933301,"name":"On or near Crown Road"},"longitude":"-0.196941"},"context":"","outcome_status":{"category":"Status update unavailable","date":"2019-09"},"persistent_id":"2b6f3e23bbf8937b13ae17774a137325556e329b02fdcb2b6cc57f3987ac24d8","id":74316655,"location_subtype":"","month":"2019-05"},{"category":"possession-of-weapons","location_type":"Force","location":{"latitude":"51.406026","street":{"id":933120,"name":"On or near Morden Road"},"longitude":"-0.191940"},"context":"","outcome_status":{"category":"Court result unavailable","date":"2019-11"},"persistent_id":"7b21a0848a8d82c8cbc7ec5e9ace632f51a98ed0ee4d72bf0ba05e933a712fde","id":74358074,"location_subtype":"","month":"2019-05"},{"category":"public-order","location_type":"Force","location":{"latitude":"51.402702","street":{"id":933212,"name":"On or near London Road"},"longitude":"-0.193336"},"context":"","outcome_status":{"category":"Status update unavailable","date":"2019-09"},"persistent_id":"4c06837942b8094c8927b0e5cc3b96d9404b1ecd53d3df6ec5decc466431343c","id":74362076,"location_subtype":"","month":"2019-05"},{"category":"public-order","location_type":"Force","location":{"latitude":"51.409214","street":{"id":933259,"name":"On or near Supermarket"},"longitude":"-0.212779"},"context":"","outcome_status":{"category":"Status update unavailable","date":"2019-09"},"persistent_id":"23a35b4d66b498d23971030e1750a5507b45abd37c3fcf9162d954de6609ed61","id":74290296,"location_subtype":"","month":"2019-05"},{"category":"public-order","location_type":"Force","location":{"latitude":"51.416046","street":{"id":934798,"name":"On or near Palmerston Grove"},"longitude":"-0.198534"},"context":"","outcome_status":{"category":"Status update unavailable","date":"2019-09"},"persistent_id":"dd750a5c4c30d223d7620533a143f6fc306abb5fcfea2077ade316baf0f29a79","id":74299744,"location_subtype":"","month":"2019-05"},{"category":"public-order","location_type":"Force","location":{"latitude":"51.410120","street":{"id":933118,"name":"On or near Nursery Road"},"longitude":"-0.193260"},"context":"","outcome_status":{"category":"Status update unavailable","date":"2019-09"},"persistent_id":"a740384a69e7c4a53e3d3c18b1a40f7d2da7646e6b3c69b0d554dbb41786c127","id":74303303,"location_subtype":"","month":"2019-05"},{"category":"public-order","location_type":"Force","location":{"latitude":"51.402702","street":{"id":933212,"name":"On or near London Road"},"longitude":"-0.193336"},"context":"","outcome_status":{"category":"Investigation complete; no suspect identified","date":"2020-03"},"persistent_id":"d6c5def6ce67f721dc73bac65766528361517dfe1e3e17029e774378270a9f71","id":74357384,"location_subtype":"","month":"2019-05"},{"category":"public-order","location_type":"Force","location":{"latitude":"51.397994","street":{"id":930315,"name":"On or near Hospital"},"longitude":"-0.184911"},"context":"","outcome_status":{"category":"Status update unavailable","date":"2019-09"},"persistent_id":"67402ab7bf2d3fc65e23df64cfcec93dd5e3557e872187972cd0cb180bd32106","id":74298067,"location_subtype":"","month":"2019-05"},{"category":"public-order","location_type":"Force","location":{"latitude":"51.397994","street":{"id":930315,"name":"On or near Hospital"},"longitude":"-0.184911"},"context":"","outcome_status":{"category":"Status update unavailable","date":"2019-09"},"persistent_id":"67402ab7bf2d3fc65e23df64cfcec93dd5e3557e872187972cd0cb180bd32106","id":74298068,"location_subtype":"","month":"2019-05"},{"category":"public-order","location_type":"Force","location":{"latitude":"51.402702","street":{"id":933212,"name":"On or near London Road"},"longitude":"-0.193336"},"context":"","outcome_status":{"category":"Status update unavailable","date":"2019-09"},"persistent_id":"62c22694a53ac6d5b94e03f32441cefc05865413f1bbfdcef6674bf77b517908","id":74303968,"location_subtype":"","month":"2019-05"},{"category":"public-order","location_type":"Force","location":{"latitude":"51.392142","street":{"id":930246,"name":"On or near B278"},"longitude":"-0.201946"},"context":"","outcome_status":{"category":"Status update unavailable","date":"2019-09"},"persistent_id":"477943235302d00473df335dbc8ebbfb06564d7852e57f61ad05b5ec14b748bc","id":74292233,"location_subtype":"","month":"2019-05"},{"category":"public-order","location_type":"Force","location":{"latitude":"51.398135","street":{"id":930187,"name":"On or near Goodwood Close"},"longitude":"-0.199827"},"context":"","outcome_status":{"category":"Status update unavailable","date":"2019-09"},"persistent_id":"7ecee6c13dff2c6b05112ea2c6ebccd63c4c87667cfe6c12b4333cf7220d9bdb","id":74300602,"location_subtype":"","month":"2019-05"},{"category":"public-order","location_type":"Force","location":{"latitude":"51.390998","street":{"id":930249,"name":"On or near Sports\/recreation Area"},"longitude":"-0.197736"},"context":"","outcome_status":{"category":"Status update unavailable","date":"2019-09"},"persistent_id":"6698da948636a8891c772317a03471e7f598a8d1853e47063754944785dde266","id":74306464,"location_subtype":"","month":"2019-05"},{"category":"public-order","location_type":"Force","location":{"latitude":"51.398125","street":{"id":930306,"name":"On or near Boxley Road"},"longitude":"-0.185797"},"context":"","outcome_status":{"category":"Status update unavailable","date":"2019-09"},"persistent_id":"6e52ab52465486dd1c50bb8948e53684bd6c7894e0a01b655c742ddada918bfa","id":74326890,"location_subtype":"","month":"2019-05"},{"category":"public-order","location_type":"Force","location":{"latitude":"51.393785","street":{"id":930192,"name":"On or near Central Road"},"longitude":"-0.196534"},"context":"","outcome_status":{"category":"Status update unavailable","date":"2019-09"},"persistent_id":"f10d005e555ff9438d749db92573885cfc0861b3aaac831f67e239a8f5b4de65","id":74349612,"location_subtype":"","month":"2019-05"},{"category":"public-order","location_type":"Force","location":{"latitude":"51.393669","street":{"id":930299,"name":"On or near Cartmel Gardens"},"longitude":"-0.188963"},"context":"","outcome_status":{"category":"Status update unavailable","date":"2019-09"},"persistent_id":"8fef7de5e299eec05254151e0baef381e1bd66593ed46a1db1fd643c7985282b","id":74359152,"location_subtype":"","month":"2019-05"},{"category":"public-order","location_type":"Force","location":{"latitude":"51.403298","street":{"id":933218,"name":"On or near A24"},"longitude":"-0.191760"},"context":"","outcome_status":{"category":"Court result unavailable","date":"2020-02"},"persistent_id":"c27626e23cd2cea8695c57bb1f2fa2467cebbd7f3317d29bfbb1f57cf35874f5","id":74361080,"location_subtype":"","month":"2019-05"},{"category":"public-order","location_type":"Force","location":{"latitude":"51.409874","street":{"id":933239,"name":"On or near Manor Gardens"},"longitude":"-0.208900"},"context":"","outcome_status":{"category":"Investigation complete; no suspect identified","date":"2020-03"},"persistent_id":"7104dfbb8d732ca75bf590179be60eadea68a4fd96b713cb29ef72af815854e7","id":74335684,"location_subtype":"","month":"2019-05"},{"category":"robbery","location_type":"Force","location":{"latitude":"51.403298","street":{"id":933218,"name":"On or near A24"},"longitude":"-0.191760"},"context":"","outcome_status":{"category":"Status update unavailable","date":"2019-09"},"persistent_id":"33a81a521ab14dcfe6063c1a918766ecdc71e282ec9895791430faaca8ae4352","id":74294191,"location_subtype":"","month":"2019-05"},{"category":"robbery","location_type":"Force","location":{"latitude":"51.401672","street":{"id":933303,"name":"On or near Crown Lane"},"longitude":"-0.195965"},"context":"","outcome_status":{"category":"Status update unavailable","date":"2019-09"},"persistent_id":"7dfae66867e2e5176e0e3f88b99831f98106b295d08d5ded8f80cb16f6fb5d1b","id":74300116,"location_subtype":"","month":"2019-05"},{"category":"robbery","location_type":"Force","location":{"latitude":"51.397742","street":{"id":930314,"name":"On or near Hospital"},"longitude":"-0.189535"},"context":"","outcome_status":{"category":"Status update unavailable","date":"2019-09"},"persistent_id":"20ad4c92872960dec6aa3de29acedbab2dc98071382296c3b3c20e26ac6dc653","id":74300796,"location_subtype":"","month":"2019-05"},{"category":"robbery","location_type":"Force","location":{"latitude":"51.404670","street":{"id":933304,"name":"On or near Cranleigh Road"},"longitude":"-0.202058"},"context":"","outcome_status":{"category":"Status update unavailable","date":"2019-09"},"persistent_id":"99c0c2301e6f34fb1b1894f269a3ec758d95d69eb8b4848a7739e28654244abf","id":74357133,"location_subtype":"","month":"2019-05"},{"category":"robbery","location_type":"Force","location":{"latitude":"51.403298","street":{"id":933218,"name":"On or near A24"},"longitude":"-0.191760"},"context":"","outcome_status":{"category":"Investigation complete; no suspect identified","date":"2020-03"},"persistent_id":"33a81a521ab14dcfe6063c1a918766ecdc71e282ec9895791430faaca8ae4352","id":74294192,"location_subtype":"","month":"2019-05"},{"category":"robbery","location_type":"Force","location":{"latitude":"51.404670","street":{"id":933304,"name":"On or near Cranleigh Road"},"longitude":"-0.202058"},"context":"","outcome_status":{"category":"Status update unavailable","date":"2019-09"},"persistent_id":"ca44af78aefac1349d1e47962fee384380033ca365b6e81361341eb766b434d1","id":74315551,"location_subtype":"","month":"2019-05"},{"category":"robbery","location_type":"Force","location":{"latitude":"51.402702","street":{"id":933212,"name":"On or near London Road"},"longitude":"-0.193336"},"context":"","outcome_status":{"category":"Status update unavailable","date":"2019-09"},"persistent_id":"dd9c59f24afd38cbb8b99356ff0bee549bc8b92cbb80682e348ecdd0318823e0","id":74290885,"location_subtype":"","month":"2019-05"},{"category":"robbery","location_type":"Force","location":{"latitude":"51.404670","street":{"id":933304,"name":"On or near Cranleigh Road"},"longitude":"-0.202058"},"context":"","outcome_status":{"category":"Investigation complete; no suspect identified","date":"2020-03"},"persistent_id":"99c0c2301e6f34fb1b1894f269a3ec758d95d69eb8b4848a7739e28654244abf","id":74357135,"location_subtype":"","month":"2019-05"},{"category":"robbery","location_type":"Force","location":{"latitude":"51.403241","street":{"id":933289,"name":"On or near Parking Area"},"longitude":"-0.194508"},"context":"","outcome_status":{"category":"Status update unavailable","date":"2019-09"},"persistent_id":"826c4fa626c9e99e18430c044ac8b1cb9a0520f8b728f7ab4aed717d25a81094","id":74296019,"location_subtype":"","month":"2019-05"},{"category":"shoplifting","location_type":"Force","location":{"latitude":"51.402702","street":{"id":933212,"name":"On or near London Road"},"longitude":"-0.193336"},"context":"","outcome_status":{"category":"Status update unavailable","date":"2019-09"},"persistent_id":"ffe046bf463aa67b7512bf435066ba28a35fcee1abc88ee6bba00ff0cf295477","id":74317189,"location_subtype":"","month":"2019-05"},{"category":"shoplifting","location_type":"Force","location":{"latitude":"51.401607","street":{"id":933215,"name":"On or near Aberconway Road"},"longitude":"-0.193480"},"context":"","outcome_status":{"category":"Status update unavailable","date":"2019-09"},"persistent_id":"694d0462371d11325b0db41d45ee500ba089c5c65b3745d931977e302a46360d","id":74324962,"location_subtype":"","month":"2019-05"},{"category":"shoplifting","location_type":"Force","location":{"latitude":"51.402702","street":{"id":933212,"name":"On or near London Road"},"longitude":"-0.193336"},"context":"","outcome_status":{"category":"Status update unavailable","date":"2019-09"},"persistent_id":"d6c5def6ce67f721dc73bac65766528361517dfe1e3e17029e774378270a9f71","id":74355723,"location_subtype":"","month":"2019-05"},{"category":"shoplifting","location_type":"Force","location":{"latitude":"51.401607","street":{"id":933215,"name":"On or near Aberconway Road"},"longitude":"-0.193480"},"context":"","outcome_status":{"category":"Status update unavailable","date":"2019-09"},"persistent_id":"6d6f66a386ba992596f0c588944eede4a9da930bb4e20c114691397e049f0e40","id":74339634,"location_subtype":"","month":"2019-05"},{"category":"shoplifting","location_type":"Force","location":{"latitude":"51.402702","street":{"id":933212,"name":"On or near London Road"},"longitude":"-0.193336"},"context":"","outcome_status":{"category":"Investigation complete; no suspect identified","date":"2020-03"},"persistent_id":"2a6c1e53366b308a6432445be90b5cee7b94bbc3428154ef185fb60b576ed6ab","id":74339743,"location_subtype":"","month":"2019-05"},{"category":"shoplifting","location_type":"Force","location":{"latitude":"51.401607","street":{"id":933215,"name":"On or near Aberconway Road"},"longitude":"-0.193480"},"context":"","outcome_status":{"category":"Status update unavailable","date":"2019-09"},"persistent_id":"1cd44a88d7490a63678b904c3299ae15ddc724921722e22f77ef369ba63ac063","id":74348045,"location_subtype":"","month":"2019-05"},{"category":"shoplifting","location_type":"Force","location":{"latitude":"51.402702","street":{"id":933212,"name":"On or near London Road"},"longitude":"-0.193336"},"context":"","outcome_status":{"category":"Status update unavailable","date":"2019-09"},"persistent_id":"08c202e792201bf3e751d650796cd4fc2eab20d2cbfca9af329eb1e093e684ee","id":74330392,"location_subtype":"","month":"2019-05"},{"category":"theft-from-the-person","location_type":"BTP","location":{"latitude":"51.402600","street":{"id":1488675,"name":"Morden (lu Station)"},"longitude":"-0.194776"},"context":"","outcome_status":{"category":"Status update unavailable","date":"2019-09"},"persistent_id":"","id":88717177,"location_subtype":"LU STATION","month":"2019-05"},{"category":"theft-from-the-person","location_type":"Force","location":{"latitude":"51.403241","street":{"id":933289,"name":"On or near Parking Area"},"longitude":"-0.194508"},"context":"","outcome_status":{"category":"Status update unavailable","date":"2019-09"},"persistent_id":"ae395e07e8abdffacda8d157e80cd48ccb367b53c5b57a8bd368fe5c57207a07","id":74331110,"location_subtype":"","month":"2019-05"},{"category":"theft-from-the-person","location_type":"Force","location":{"latitude":"51.397742","street":{"id":930314,"name":"On or near Hospital"},"longitude":"-0.189535"},"context":"","outcome_status":{"category":"Status update unavailable","date":"2019-09"},"persistent_id":"beffd521fc17bf7da55414d00f55f8b9bbe99b35d552d3e120ea8063da36bb99","id":74340600,"location_subtype":"","month":"2019-05"},{"category":"theft-from-the-person","location_type":"BTP","location":{"latitude":"51.402600","street":{"id":1488675,"name":"Morden (lu Station)"},"longitude":"-0.194776"},"context":"","outcome_status":{"category":"Status update unavailable","date":"2019-09"},"persistent_id":"","id":88717179,"location_subtype":"LU STATION","month":"2019-05"},{"category":"theft-from-the-person","location_type":"BTP","location":{"latitude":"51.402600","street":{"id":1488675,"name":"Morden (lu Station)"},"longitude":"-0.194776"},"context":"","outcome_status":{"category":"Status update unavailable","date":"2019-09"},"persistent_id":"","id":88717182,"location_subtype":"LU STATION","month":"2019-05"},{"category":"theft-from-the-person","location_type":"BTP","location":{"latitude":"51.402600","street":{"id":1488675,"name":"Morden (lu Station)"},"longitude":"-0.194776"},"context":"","outcome_status":{"category":"Status update unavailable","date":"2019-09"},"persistent_id":"","id":88717181,"location_subtype":"LU STATION","month":"2019-05"},{"category":"theft-from-the-person","location_type":"BTP","location":{"latitude":"51.402600","street":{"id":1488675,"name":"Morden (lu Station)"},"longitude":"-0.194776"},"context":"","outcome_status":{"category":"Status update unavailable","date":"2019-09"},"persistent_id":"","id":88717180,"location_subtype":"LU STATION","month":"2019-05"},{"category":"theft-from-the-person","location_type":"BTP","location":{"latitude":"51.402600","street":{"id":1488675,"name":"Morden (lu Station)"},"longitude":"-0.194776"},"context":"","outcome_status":{"category":"Status update unavailable","date":"2019-09"},"persistent_id":"","id":88717178,"location_subtype":"LU STATION","month":"2019-05"},{"category":"theft-from-the-person","location_type":"Force","location":{"latitude":"51.415313","street":{"id":934784,"name":"On or near Kingston Road"},"longitude":"-0.197053"},"context":"","outcome_status":{"category":"Status update unavailable","date":"2019-09"},"persistent_id":"6c70361a06c7a66a6f8fa44d63d278989d74063e6f7fb823ed83c45cf3fdb7e5","id":74304256,"location_subtype":"","month":"2019-05"},{"category":"vehicle-crime","location_type":"Force","location":{"latitude":"51.397856","street":{"id":930148,"name":"On or near Southway"},"longitude":"-0.226347"},"context":"","outcome_status":{"category":"Status update unavailable","date":"2019-09"},"persistent_id":"19d7406cf44c78da2946ac48900dd60b3b8e5f23f82f2e45c42c6ea3f3f1fbe9","id":74339327,"location_subtype":"","month":"2019-05"},{"category":"vehicle-crime","location_type":"Force","location":{"latitude":"51.406026","street":{"id":933120,"name":"On or near Morden Road"},"longitude":"-0.191940"},"context":"","outcome_status":{"category":"Status update unavailable","date":"2019-09"},"persistent_id":"2d86cc29dd72a0d2511003b7102b4cb4394c8c6280c4dfa50095b4cdd79a887a","id":74317545,"location_subtype":"","month":"2019-05"},{"category":"vehicle-crime","location_type":"Force","location":{"latitude":"51.406900","street":{"id":933361,"name":"On or near Park\/open Space"},"longitude":"-0.223811"},"context":"","outcome_status":{"category":"Status update unavailable","date":"2019-09"},"persistent_id":"f17fe90868d710fa9c1fb3951ac329a3fcd34981fb166b5d4467747f63cc99d9","id":74357928,"location_subtype":"","month":"2019-05"},{"category":"vehicle-crime","location_type":"Force","location":{"latitude":"51.406018","street":{"id":933265,"name":"On or near Wessex Avenue"},"longitude":"-0.197260"},"context":"","outcome_status":{"category":"Status update unavailable","date":"2019-09"},"persistent_id":"c2ae9a6a3a4aab57d36e2c8c68380f05acce8d7c82b63f6039eaf1a83d19d4eb","id":74299661,"location_subtype":"","month":"2019-05"},{"category":"vehicle-crime","location_type":"Force","location":{"latitude":"51.399117","street":{"id":930117,"name":"On or near Southway"},"longitude":"-0.224156"},"context":"","outcome_status":{"category":"Status update unavailable","date":"2019-09"},"persistent_id":"14692c687afd6ac100d935c95bfd9b7578c2bb1f87179552495f1bcf4c70035e","id":74342783,"location_subtype":"","month":"2019-05"},{"category":"vehicle-crime","location_type":"Force","location":{"latitude":"51.392682","street":{"id":930297,"name":"On or near Combermere Road"},"longitude":"-0.190856"},"context":"","outcome_status":{"category":"Status update unavailable","date":"2019-09"},"persistent_id":"ee28b4ba184f090dcf7a03f3e2df90f71d29120588e7765fda74fccaef566ad5","id":74354727,"location_subtype":"","month":"2019-05"},{"category":"vehicle-crime","location_type":"Force","location":{"latitude":"51.410561","street":{"id":933274,"name":"On or near Dorset Road"},"longitude":"-0.198002"},"context":"","outcome_status":{"category":"Status update unavailable","date":"2019-09"},"persistent_id":"0a067ccc1ef9471fe53214f847ea8b7829f21d2f550baad94ce456e8aee7f502","id":74321256,"location_subtype":"","month":"2019-05"},{"category":"vehicle-crime","location_type":"Force","location":{"latitude":"51.395342","street":{"id":930300,"name":"On or near Calder Road"},"longitude":"-0.188423"},"context":"","outcome_status":{"category":"Status update unavailable","date":"2019-09"},"persistent_id":"a900c1b0d724448827efdbff104540e430b18e94d92410d0e3ff5f3484592e58","id":74352491,"location_subtype":"","month":"2019-05"},{"category":"vehicle-crime","location_type":"Force","location":{"latitude":"51.398742","street":{"id":930310,"name":"On or near Alnwick Grove"},"longitude":"-0.193737"},"context":"","outcome_status":{"category":"Status update unavailable","date":"2019-09"},"persistent_id":"e7dfd8fe67d8ac8aafc771aa7d14c4037302616a2a4f78db518fc42011bc4f46","id":74333171,"location_subtype":"","month":"2019-05"},{"category":"vehicle-crime","location_type":"Force","location":{"latitude":"51.406026","street":{"id":933120,"name":"On or near Morden Road"},"longitude":"-0.191940"},"context":"","outcome_status":{"category":"Status update unavailable","date":"2019-09"},"persistent_id":"c66cbc6248845133d016b22e8de06e88e86801ea602d73955d5c8c65c12b26d7","id":74348833,"location_subtype":"","month":"2019-05"},{"category":"vehicle-crime","location_type":"Force","location":{"latitude":"51.393669","street":{"id":930299,"name":"On or near Cartmel Gardens"},"longitude":"-0.188963"},"context":"","outcome_status":{"category":"Status update unavailable","date":"2019-09"},"persistent_id":"a7799fd6b7a42f7c20203d8324512242945c7e233d4a2f432b0b8837b6011052","id":74338721,"location_subtype":"","month":"2019-05"},{"category":"vehicle-crime","location_type":"Force","location":{"latitude":"51.416007","street":{"id":934762,"name":"On or near Fairlawn Road"},"longitude":"-0.207711"},"context":"","outcome_status":{"category":"Status update unavailable","date":"2019-09"},"persistent_id":"011a718683fbe3dc5e4b63cc56f4e0409fca6d9db8230478cad600b0077e2987","id":74371493,"location_subtype":"","month":"2019-05"},{"category":"vehicle-crime","location_type":"Force","location":{"latitude":"51.406953","street":{"id":933242,"name":"On or near Innes Close"},"longitude":"-0.211947"},"context":"","outcome_status":{"category":"Status update unavailable","date":"2019-09"},"persistent_id":"41fb2a16cb5305976863f0a0ff1bdc1a7dbf5ec4668201ff1ace1a66e4fed7eb","id":74346150,"location_subtype":"","month":"2019-05"},{"category":"vehicle-crime","location_type":"Force","location":{"latitude":"51.407611","street":{"id":933372,"name":"On or near Martin Way"},"longitude":"-0.219700"},"context":"","outcome_status":{"category":"Status update unavailable","date":"2019-09"},"persistent_id":"164b886b11b51eac56660592f810f35ce005ac6859be9d7fbd26c235a9571457","id":74341455,"location_subtype":"","month":"2019-05"},{"category":"vehicle-crime","location_type":"Force","location":{"latitude":"51.388943","street":{"id":930235,"name":"On or near Holne Chase"},"longitude":"-0.203824"},"context":"","outcome_status":{"category":"Status update unavailable","date":"2019-09"},"persistent_id":"67fa91b2c30b06c794afb164ab3adb3f3ce6ab4a235731abdf60e187abd65c50","id":74333303,"location_subtype":"","month":"2019-05"},{"category":"vehicle-crime","location_type":"Force","location":{"latitude":"51.393669","street":{"id":930299,"name":"On or near Cartmel Gardens"},"longitude":"-0.188963"},"context":"","outcome_status":{"category":"Status update unavailable","date":"2019-09"},"persistent_id":"6b9497b422790f512ed8a213d13f718875d56dfb546fd83434d8a75e9bc65943","id":74350920,"location_subtype":"","month":"2019-05"},{"category":"vehicle-crime","location_type":"Force","location":{"latitude":"51.397994","street":{"id":930315,"name":"On or near Hospital"},"longitude":"-0.184911"},"context":"","outcome_status":{"category":"Status update unavailable","date":"2019-09"},"persistent_id":"ec520af3ed3f49b3d45bd5522c9f4612b6c9d01c6ed26f743da8d63fb914cc0c","id":74347407,"location_subtype":"","month":"2019-05"},{"category":"vehicle-crime","location_type":"Force","location":{"latitude":"51.400278","street":{"id":930222,"name":"On or near Ashridge Way"},"longitude":"-0.209447"},"context":"","outcome_status":{"category":"Status update unavailable","date":"2019-09"},"persistent_id":"76e05ba2be97bcbb3d8934753088a664089a7374748a479b074a3a6e792fa831","id":74340518,"location_subtype":"","month":"2019-05"},{"category":"violent-crime","location_type":"Force","location":{"latitude":"51.392966","street":{"id":930196,"name":"On or near Alexandra Square"},"longitude":"-0.199383"},"context":"","outcome_status":{"category":"Status update unavailable","date":"2019-09"},"persistent_id":"ef21628dac3edf90de61dd4a9a5bba938ddeb9ed86a9a611cafcbce25028c58a","id":74296301,"location_subtype":"","month":"2019-05"},{"category":"violent-crime","location_type":"Force","location":{"latitude":"51.410007","street":{"id":933230,"name":"On or near Rothesay Avenue"},"longitude":"-0.214071"},"context":"","outcome_status":{"category":"Investigation complete; no suspect identified","date":"2020-03"},"persistent_id":"a582e2634e023ba4dbd946733a7b62efc72ae8058b73e3c5d6a60ba8d2ecdb1d","id":74294425,"location_subtype":"","month":"2019-05"},{"category":"violent-crime","location_type":"Force","location":{"latitude":"51.412730","street":{"id":933287,"name":"On or near Langley Road"},"longitude":"-0.203367"},"context":"","outcome_status":{"category":"Status update unavailable","date":"2019-09"},"persistent_id":"652b20e6dd82eebde88cadb146dc85ca4de1cf76d4fd6574d4866da0947d2c1e","id":74348372,"location_subtype":"","month":"2019-05"},{"category":"violent-crime","location_type":"Force","location":{"latitude":"51.414537","street":{"id":934908,"name":"On or near Rowland Way"},"longitude":"-0.191619"},"context":"","outcome_status":{"category":"Investigation complete; no suspect identified","date":"2020-03"},"persistent_id":"7430e2de8ea8776595d7e2cf1db2398f0a45a73216d9e754d9a3f875040f64df","id":74311835,"location_subtype":"","month":"2019-05"},{"category":"violent-crime","location_type":"Force","location":{"latitude":"51.396366","street":{"id":930308,"name":"On or near Blanchland Road"},"longitude":"-0.193025"},"context":"","outcome_status":{"category":"Investigation complete; no suspect identified","date":"2020-03"},"persistent_id":"fcdd13f1300aefaa4ece3959851210ac39a76b2790caa25d96e4fec0ad1c1e3b","id":74301441,"location_subtype":"","month":"2019-05"},{"category":"violent-crime","location_type":"Force","location":{"latitude":"51.414537","street":{"id":934908,"name":"On or near Rowland Way"},"longitude":"-0.191619"},"context":"","outcome_status":{"category":"Status update unavailable","date":"2019-09"},"persistent_id":"717881cd828bbac3f85e761a2dc4c4df1de7d6339bdba56d4d383c10c5e907ae","id":74327455,"location_subtype":"","month":"2019-05"},{"category":"violent-crime","location_type":"Force","location":{"latitude":"51.404181","street":{"id":933391,"name":"On or near Parking Area"},"longitude":"-0.216498"},"context":"","outcome_status":{"category":"Status update unavailable","date":"2019-09"},"persistent_id":"009c1e05c64d83e3c7d7d3cc3e8215ac7b35eee022f2ad40b4f2a7da50af0c46","id":74319607,"location_subtype":"","month":"2019-05"},{"category":"violent-crime","location_type":"Force","location":{"latitude":"51.404181","street":{"id":933391,"name":"On or near Parking Area"},"longitude":"-0.216498"},"context":"","outcome_status":{"category":"Status update unavailable","date":"2019-09"},"persistent_id":"009c1e05c64d83e3c7d7d3cc3e8215ac7b35eee022f2ad40b4f2a7da50af0c46","id":74319606,"location_subtype":"","month":"2019-05"},{"category":"violent-crime","location_type":"Force","location":{"latitude":"51.404181","street":{"id":933391,"name":"On or near Parking Area"},"longitude":"-0.216498"},"context":"","outcome_status":{"category":"Status update unavailable","date":"2019-09"},"persistent_id":"009c1e05c64d83e3c7d7d3cc3e8215ac7b35eee022f2ad40b4f2a7da50af0c46","id":74319605,"location_subtype":"","month":"2019-05"},{"category":"violent-crime","location_type":"Force","location":{"latitude":"51.398135","street":{"id":930187,"name":"On or near Goodwood Close"},"longitude":"-0.199827"},"context":"","outcome_status":{"category":"Status update unavailable","date":"2019-09"},"persistent_id":"b0ba5572f56d9b07f8469dd3dec2e3476e1cefd43ec6be899f9c35c3e60b9858","id":74329052,"location_subtype":"","month":"2019-05"},{"category":"violent-crime","location_type":"Force","location":{"latitude":"51.401672","street":{"id":933303,"name":"On or near Crown Lane"},"longitude":"-0.195965"},"context":"","outcome_status":{"category":"Status update unavailable","date":"2019-09"},"persistent_id":"6439085a8d3c0b09e9271581a3d621232ec652a2e712df28afc83920cbca7e87","id":74336714,"location_subtype":"","month":"2019-05"},{"category":"violent-crime","location_type":"Force","location":{"latitude":"51.412956","street":{"id":933223,"name":"On or near Wilton Crescent"},"longitude":"-0.206363"},"context":"","outcome_status":{"category":"Investigation complete; no suspect identified","date":"2020-03"},"persistent_id":"83892310cedc39daa8b1a7912cda549ef71b405230ec700de7169a7f46deccf9","id":74337066,"location_subtype":"","month":"2019-05"},{"category":"violent-crime","location_type":"Force","location":{"latitude":"51.401917","street":{"id":933394,"name":"On or near Cannon Hill Lane"},"longitude":"-0.216672"},"context":"","outcome_status":{"category":"Status update unavailable","date":"2019-09"},"persistent_id":"f5a7f3c0a776a4458c61e80b159bcf40c8ddd1bf8006f41f155a8ee95a6497e2","id":74314988,"location_subtype":"","month":"2019-05"},{"category":"violent-crime","location_type":"Force","location":{"latitude":"51.398135","street":{"id":930187,"name":"On or near Goodwood Close"},"longitude":"-0.199827"},"context":"","outcome_status":{"category":"Investigation complete; no suspect identified","date":"2020-04"},"persistent_id":"5771efe488b674e4e6c6ce1b134e0c359d961d01867b567ee39eb9e47ffbcb23","id":74305873,"location_subtype":"","month":"2019-05"},{"category":"violent-crime","location_type":"Force","location":{"latitude":"51.414537","street":{"id":934908,"name":"On or near Rowland Way"},"longitude":"-0.191619"},"context":"","outcome_status":{"category":"Status update unavailable","date":"2019-09"},"persistent_id":"717881cd828bbac3f85e761a2dc4c4df1de7d6339bdba56d4d383c10c5e907ae","id":74326588,"location_subtype":"","month":"2019-05"},{"category":"violent-crime","location_type":"Force","location":{"latitude":"51.399613","street":{"id":930207,"name":"On or near Morden Court"},"longitude":"-0.196549"},"context":"","outcome_status":{"category":"Status update unavailable","date":"2019-09"},"persistent_id":"06588212ba23a005a819b74229fba206ca9e57ad6279eb2a8e752cf83027ce1d","id":74326506,"location_subtype":"","month":"2019-05"},{"category":"violent-crime","location_type":"Force","location":{"latitude":"51.397742","street":{"id":930314,"name":"On or near Hospital"},"longitude":"-0.189535"},"context":"","outcome_status":{"category":"Status update unavailable","date":"2019-09"},"persistent_id":"081e83971c541813e06f05d6d3dea74ada3a85e850e611c8703d88586be109f4","id":74341199,"location_subtype":"","month":"2019-05"},{"category":"violent-crime","location_type":"Force","location":{"latitude":"51.414413","street":{"id":934913,"name":"On or near Morden Road"},"longitude":"-0.192918"},"context":"","outcome_status":{"category":"Investigation complete; no suspect identified","date":"2020-03"},"persistent_id":"0a518586aa40c8c703f040c2086808c4742ca0b3efd4b9e81279fda985811cab","id":74325667,"location_subtype":"","month":"2019-05"},{"category":"violent-crime","location_type":"Force","location":{"latitude":"51.409274","street":{"id":933124,"name":"On or near Lombard Road"},"longitude":"-0.189770"},"context":"","outcome_status":{"category":"Status update unavailable","date":"2019-09"},"persistent_id":"faa6a1ddb5c3a236d841c8248b5cf2f7e3d43e24c0fd60ef537e06f2651865c2","id":74295334,"location_subtype":"","month":"2019-05"},{"category":"violent-crime","location_type":"Force","location":{"latitude":"51.403843","street":{"id":933316,"name":"On or near Beaford Grove"},"longitude":"-0.210889"},"context":"","outcome_status":{"category":"Status update unavailable","date":"2019-09"},"persistent_id":"b5dfaab8714c3e743b6f64096694102c6c4c835574b0d6b8712a9194a47a7d86","id":74337559,"location_subtype":"","month":"2019-05"},{"category":"violent-crime","location_type":"Force","location":{"latitude":"51.409214","street":{"id":933259,"name":"On or near Supermarket"},"longitude":"-0.212779"},"context":"","outcome_status":{"category":"Status update unavailable","date":"2019-09"},"persistent_id":"84f074e35d230d74570b90cd1e1732d43aa537be4e5919777a1b87179daa0fe5","id":74338901,"location_subtype":"","month":"2019-05"},{"category":"violent-crime","location_type":"Force","location":{"latitude":"51.410120","street":{"id":933118,"name":"On or near Nursery Road"},"longitude":"-0.193260"},"context":"","outcome_status":{"category":"Status update unavailable","date":"2019-09"},"persistent_id":"133427318b800c047d5f2cb4d107e3671e3e6ad8395992d933584e94a9bbe922","id":74291701,"location_subtype":"","month":"2019-05"},{"category":"violent-crime","location_type":"Force","location":{"latitude":"51.401917","street":{"id":933394,"name":"On or near Cannon Hill Lane"},"longitude":"-0.216672"},"context":"","outcome_status":{"category":"Status update unavailable","date":"2019-09"},"persistent_id":"0fc9edc5a2c61388eaddd34fde3d65e89426166044267d9b0e81b615d877df4d","id":74345894,"location_subtype":"","month":"2019-05"},{"category":"violent-crime","location_type":"Force","location":{"latitude":"51.401917","street":{"id":933394,"name":"On or near Cannon Hill Lane"},"longitude":"-0.216672"},"context":"","outcome_status":{"category":"Status update unavailable","date":"2019-09"},"persistent_id":"0fc9edc5a2c61388eaddd34fde3d65e89426166044267d9b0e81b615d877df4d","id":74345895,"location_subtype":"","month":"2019-05"},{"category":"violent-crime","location_type":"Force","location":{"latitude":"51.416132","street":{"id":934756,"name":"On or near William Road"},"longitude":"-0.211790"},"context":"","outcome_status":{"category":"Status update unavailable","date":"2019-09"},"persistent_id":"16a467b0c010fb39cff9970b9c9a94d140a3881f71e6d4a77a991839adb58ea3","id":74291627,"location_subtype":"","month":"2019-05"},{"category":"violent-crime","location_type":"Force","location":{"latitude":"51.399610","street":{"id":930218,"name":"On or near Woodland Way"},"longitude":"-0.206914"},"context":"","outcome_status":{"category":"Status update unavailable","date":"2019-09"},"persistent_id":"05e99fba9b432269ba799fbc31eb875a974dec27147ba4c81607e25fa18eab6d","id":74304556,"location_subtype":"","month":"2019-05"},{"category":"violent-crime","location_type":"Force","location":{"latitude":"51.397534","street":{"id":930124,"name":"On or near Eastway"},"longitude":"-0.218769"},"context":"","outcome_status":{"category":"Status update unavailable","date":"2019-09"},"persistent_id":"b2c2c4a45ae3d36058c5e4fe46f520585d138554d50c2ad8317c69db10a183af","id":74354141,"location_subtype":"","month":"2019-05"},{"category":"violent-crime","location_type":"Force","location":{"latitude":"51.396366","street":{"id":930308,"name":"On or near Blanchland Road"},"longitude":"-0.193025"},"context":"","outcome_status":{"category":"Status update unavailable","date":"2019-09"},"persistent_id":"fcdd13f1300aefaa4ece3959851210ac39a76b2790caa25d96e4fec0ad1c1e3b","id":74301440,"location_subtype":"","month":"2019-05"},{"category":"violent-crime","location_type":"Force","location":{"latitude":"51.396215","street":{"id":930193,"name":"On or near Bury Grove"},"longitude":"-0.194311"},"context":"","outcome_status":{"category":"Status update unavailable","date":"2019-09"},"persistent_id":"06b561f5d4f80021f51330ff030564b67725c086c1b1515cc2d4cd0bae19076e","id":74349522,"location_subtype":"","month":"2019-05"},{"category":"violent-crime","location_type":"Force","location":{"latitude":"51.394043","street":{"id":930188,"name":"On or near Elsrick Avenue"},"longitude":"-0.199815"},"context":"","outcome_status":{"category":"Investigation complete; no suspect identified","date":"2020-03"},"persistent_id":"0cc6fc0e077ee2223de97597aa7cc8884c882b2e8ef8c70ffdbb076803fd90b0","id":74358232,"location_subtype":"","month":"2019-05"},{"category":"violent-crime","location_type":"Force","location":{"latitude":"51.412492","street":{"id":933368,"name":"On or near Stanton Road"},"longitude":"-0.223178"},"context":"","outcome_status":{"category":"Court result unavailable","date":"2019-11"},"persistent_id":"8a4abbcb8b83403a63697865f649efff2c48193704a46937a27d51e3d90deb94","id":74329574,"location_subtype":"","month":"2019-05"},{"category":"violent-crime","location_type":"Force","location":{"latitude":"51.397183","street":{"id":930302,"name":"On or near Buckland Walk"},"longitude":"-0.188249"},"context":"","outcome_status":{"category":"Court result unavailable","date":"2019-11"},"persistent_id":"85146b6071b9957589e7b408327ca38e7ca6953d90a73810b2a367c73bc8388d","id":74341384,"location_subtype":"","month":"2019-05"},{"category":"violent-crime","location_type":"Force","location":{"latitude":"51.408245","street":{"id":933335,"name":"On or near Aston Road"},"longitude":"-0.227124"},"context":"","outcome_status":{"category":"Status update unavailable","date":"2019-09"},"persistent_id":"b22e99b2e8f7490c2bb0c1e07ab5c98347cf493b5256186f457e4aeb5735a70b","id":74359144,"location_subtype":"","month":"2019-05"},{"category":"violent-crime","location_type":"Force","location":{"latitude":"51.409923","street":{"id":933328,"name":"On or near Kingston Road"},"longitude":"-0.225147"},"context":"","outcome_status":{"category":"Local resolution","date":"2019-07"},"persistent_id":"63cb9e66387acf58053890860229c98f43e6abec3c6f09060c233da430722800","id":74313318,"location_subtype":"","month":"2019-05"},{"category":"violent-crime","location_type":"Force","location":{"latitude":"51.410519","street":{"id":933229,"name":"On or near Sandringham Avenue"},"longitude":"-0.213433"},"context":"","outcome_status":{"category":"Status update unavailable","date":"2019-09"},"persistent_id":"5308c6de844d1d3c45d3f6ddc52f99bc37266a1f62cd99f9b250ebbe2dcec292","id":74336559,"location_subtype":"","month":"2019-05"},{"category":"violent-crime","location_type":"Force","location":{"latitude":"51.394311","street":{"id":930129,"name":"On or near Camborne Road"},"longitude":"-0.219714"},"context":"","outcome_status":{"category":"Investigation complete; no suspect identified","date":"2020-03"},"persistent_id":"ab3d8b8842bfb6807b04ae28cb4befad524cad6c6294850449f7ebf623dffff2","id":74364065,"location_subtype":"","month":"2019-05"},{"category":"violent-crime","location_type":"Force","location":{"latitude":"51.394476","street":{"id":930183,"name":"On or near Redclose Avenue"},"longitude":"-0.201092"},"context":"","outcome_status":{"category":"Status update unavailable","date":"2019-09"},"persistent_id":"cab106dccf0fa6f42a1bf4c50eee54aa6ae31962333d809c23f6871730a34b6c","id":74298689,"location_subtype":"","month":"2019-05"},{"category":"violent-crime","location_type":"Force","location":{"latitude":"51.403241","street":{"id":933289,"name":"On or near Parking Area"},"longitude":"-0.194508"},"context":"","outcome_status":{"category":"Offender given a caution","date":"2020-04"},"persistent_id":"e9d40d93bfa3aa495312a43b2d71e99ca5ff11ad0ddd141c0ffb183978cb5d53","id":74366116,"location_subtype":"","month":"2019-05"},{"category":"violent-crime","location_type":"Force","location":{"latitude":"51.397183","street":{"id":930302,"name":"On or near Buckland Walk"},"longitude":"-0.188249"},"context":"","outcome_status":{"category":"Status update unavailable","date":"2019-09"},"persistent_id":"6d56ef13a13e8572fa66c44c638932ba141d455b879dbdbb1bf7e410d74b04c2","id":74366162,"location_subtype":"","month":"2019-05"},{"category":"violent-crime","location_type":"Force","location":{"latitude":"51.403329","street":{"id":933294,"name":"On or near Windermere Avenue"},"longitude":"-0.196087"},"context":"","outcome_status":{"category":"Status update unavailable","date":"2019-09"},"persistent_id":"941a11189ce0c3f802b0400ed9fb8722fb8d6d09f209facc8fe3c8d40231dad9","id":74366766,"location_subtype":"","month":"2019-05"},{"category":"violent-crime","location_type":"Force","location":{"latitude":"51.412492","street":{"id":933368,"name":"On or near Stanton Road"},"longitude":"-0.223178"},"context":"","outcome_status":{"category":"Local resolution","date":"2019-06"},"persistent_id":"28ab0e492c2f0be439a490efabd8658f95383f8033ba6ba89b625f5b57673275","id":74348010,"location_subtype":"","month":"2019-05"},{"category":"violent-crime","location_type":"Force","location":{"latitude":"51.401607","street":{"id":933215,"name":"On or near Aberconway Road"},"longitude":"-0.193480"},"context":"","outcome_status":{"category":"Court result unavailable","date":"2019-12"},"persistent_id":"547e844208a37a0da59f3cda63240bf7883a421fd593e242bf069204ec874f72","id":74302434,"location_subtype":"","month":"2019-05"},{"category":"violent-crime","location_type":"Force","location":{"latitude":"51.407765","street":{"id":933237,"name":"On or near Mawson Close"},"longitude":"-0.213914"},"context":"","outcome_status":{"category":"Investigation complete; no suspect identified","date":"2020-09"},"persistent_id":"89550040cf0157d33b773b559d7735fd4de8cd4e7a97f7098879bb5aa6466486","id":74316518,"location_subtype":"","month":"2019-05"},{"category":"violent-crime","location_type":"Force","location":{"latitude":"51.404181","street":{"id":933391,"name":"On or near Parking Area"},"longitude":"-0.216498"},"context":"","outcome_status":{"category":"Investigation complete; no suspect identified","date":"2020-03"},"persistent_id":"4d14f2dca48e9048e3d7cf99ea1fbe78c80a84a295bfe2d461a2a90c28c17191","id":74317631,"location_subtype":"","month":"2019-05"},{"category":"violent-crime","location_type":"Force","location":{"latitude":"51.394043","street":{"id":930188,"name":"On or near Elsrick Avenue"},"longitude":"-0.199815"},"context":"","outcome_status":{"category":"Status update unavailable","date":"2019-09"},"persistent_id":"0cc6fc0e077ee2223de97597aa7cc8884c882b2e8ef8c70ffdbb076803fd90b0","id":74356216,"location_subtype":"","month":"2019-05"},{"category":"violent-crime","location_type":"Force","location":{"latitude":"51.403298","street":{"id":933218,"name":"On or near A24"},"longitude":"-0.191760"},"context":"","outcome_status":{"category":"Investigation complete; no suspect identified","date":"2020-03"},"persistent_id":"e3b3e96266cf7ee23b3b9d708fc89bb9c8c9972373eae218fa6f21504b414b56","id":74298929,"location_subtype":"","month":"2019-05"},{"category":"violent-crime","location_type":"Force","location":{"latitude":"51.397742","street":{"id":930314,"name":"On or near Hospital"},"longitude":"-0.189535"},"context":"","outcome_status":{"category":"Investigation complete; no suspect identified","date":"2020-03"},"persistent_id":"981b846b988b125f001fc19a1ced552e499610fe7ccde588a26db937b7e08b77","id":74323872,"location_subtype":"","month":"2019-05"},{"category":"violent-crime","location_type":"Force","location":{"latitude":"51.396090","street":{"id":930213,"name":"On or near Shaldon Drive"},"longitude":"-0.214886"},"context":"","outcome_status":{"category":"Status update unavailable","date":"2019-09"},"persistent_id":"1355748615a46baaff69605d7f35a79df66d734493d8f8635d1716a72b22132e","id":74317703,"location_subtype":"","month":"2019-05"},{"category":"violent-crime","location_type":"Force","location":{"latitude":"51.393891","street":{"id":930118,"name":"On or near Queen Mary Avenue"},"longitude":"-0.222863"},"context":"","outcome_status":{"category":"Status update unavailable","date":"2019-09"},"persistent_id":"4baaa02e91e57805f2a4bed873ee7b40ceaea370bee917da873407a126ef1884","id":74317987,"location_subtype":"","month":"2019-05"},{"category":"violent-crime","location_type":"Force","location":{"latitude":"51.412492","street":{"id":933368,"name":"On or near Stanton Road"},"longitude":"-0.223178"},"context":"","outcome_status":{"category":"Status update unavailable","date":"2019-09"},"persistent_id":"73361f9001e157a91b6dd9967ad5bb8ef292135012499aea1143ac311637e5b6","id":74326743,"location_subtype":"","month":"2019-05"},{"category":"other-crime","location_type":"Force","location":{"latitude":"51.407597","street":{"id":933360,"name":"On or near Botsford Road"},"longitude":"-0.215833"},"context":"","outcome_status":{"category":"Status update unavailable","date":"2019-09"},"persistent_id":"37c2515fce14a87d441d3dd586f5a6f029d58dc2d986248c273848c4711c6845","id":74291294,"location_subtype":"","month":"2019-05"}]