[{"category":"anti-social-behaviour","location_type":"Force","location":{"latitude":"51.479557","street":{"id":947749,"name":"On or near James Watt Way"},"longitude":"0.182731"},"context":"","outcome_status":null,"persistent_id":"","id":74274015,"location_subtype":"","month":"2019-05"},{"category":"anti-social-behaviour","location_type":"Force","location":{"latitude":"51.477534","street":{"id":947754,"name":"On or near Britannia Close"},"longitude":"0.182231"},"context":"","outcome_status":null,"persistent_id":"","id":74274018,"location_subtype":"","month":"2019-05"},{"category":"anti-social-behaviour","location_type":"Force","location":{"latitude":"51.468405","street":{"id":947619,"name":"On or near Sports\/recreation Area"},"longitude":"0.178930"},"context":"","outcome_status":null,"persistent_id":"","id":74274024,"location_subtype":"","month":"2019-05"},{"category":"anti-social-behaviour","location_type":"Force","location":{"latitude":"51.463946","street":{"id":947653,"name":"On or near Eversley Cross"},"longitude":"0.177364"},"context":"","outcome_status":null,"persistent_id":"","id":74274028,"location_subtype":"","month":"2019-05"},{"category":"anti-social-behaviour","location_type":"Force","location":{"latitude":"51.468405","street":{"id":947619,"name":"On or near Sports\/recreation Area"},"longitude":"0.178930"},"context":"","outcome_status":null,"persistent_id":"","id":74274031,"location_subtype":"","month":"2019-05"},{"category":"anti-social-behaviour","location_type":"Force","location":{"latitude":"51.459277","street":{"id":941031,"name":"On or near Perry Street"},"longitude":"0.176955"},"context":"","outcome_status":null,"persistent_id":"","id":74274032,"location_subtype":"","month":"2019-05"},{"category":"anti-social-behaviour","location_type":"Force","location":{"latitude":"51.470242","street":{"id":947554,"name":"On or near Pedestrian Subway"},"longitude":"0.180731"},"context":"","outcome_status":null,"persistent_id":"","id":74274007,"location_subtype":"","month":"2019-05"},{"category":"anti-social-behaviour","location_type":"Force","location":{"latitude":"51.479557","street":{"id":947749,"name":"On or near James Watt Way"},"longitude":"0.182731"},"context":"","outcome_status":null,"persistent_id":"","id":74274017,"location_subtype":"","month":"2019-05"},{"category":"anti-social-behaviour","location_type":"Force","location":{"latitude":"51.467739","street":{"id":947604,"name":"On or near Hurstwood Avenue"},"longitude":"0.177502"},"context":"","outcome_status":null,"persistent_id":"","id":74274034,"location_subtype":"","month":"2019-05"},{"category":"anti-social-behaviour","location_type":"Force","location":{"latitude":"51.471633","street":{"id":947630,"name":"On or near Colyers Lane"},"longitude":"0.171164"},"context":"","outcome_status":null,"persistent_id":"","id":74274059,"location_subtype":"","month":"2019-05"},{"category":"anti-social-behaviour","location_type":"Force","location":{"latitude":"51.457339","street":{"id":940998,"name":"On or near Mayplace Avenue"},"longitude":"0.190725"},"context":"","outcome_status":null,"persistent_id":"","id":74273984,"location_subtype":"","month":"2019-05"},{"category":"anti-social-behaviour","location_type":"Force","location":{"latitude":"51.471606","street":{"id":947674,"name":"On or near Slade Green Road"},"longitude":"0.190977"},"context":"","outcome_status":null,"persistent_id":"","id":74273985,"location_subtype":"","month":"2019-05"},{"category":"anti-social-behaviour","location_type":"Force","location":{"latitude":"51.471150","street":{"id":947562,"name":"On or near Plantation Road"},"longitude":"0.189414"},"context":"","outcome_status":null,"persistent_id":"","id":74273986,"location_subtype":"","month":"2019-05"},{"category":"anti-social-behaviour","location_type":"Force","location":{"latitude":"51.468167","street":{"id":947587,"name":"On or near Sports\/recreation Area"},"longitude":"0.188321"},"context":"","outcome_status":null,"persistent_id":"","id":74273987,"location_subtype":"","month":"2019-05"},{"category":"anti-social-behaviour","location_type":"Force","location":{"latitude":"51.468167","street":{"id":947587,"name":"On or near Sports\/recreation Area"},"longitude":"0.188321"},"context":"","outcome_status":null,"persistent_id":"","id":74273988,"location_subtype":"","month":"2019-05"},{"category":"anti-social-behaviour","location_type":"Force","location":{"latitude":"51.468167","street":{"id":947587,"name":"On or near Sports\/recreation Area"},"longitude":"0.188321"},"context":"","outcome_status":null,"persistent_id":"","id":74273989,"location_subtype":"","month":"2019-05"},{"category":"anti-social-behaviour","location_type":"Force","location":{"latitude":"51.454908","street":{"id":941052,"name":"On or near Village Green Road"},"longitude":"0.187543"},"context":"","outcome_status":null,"persistent_id":"","id":74273990,"location_subtype":"","month":"2019-05"},{"category":"anti-social-behaviour","location_type":"Force","location":{"latitude":"51.477484","street":{"id":947752,"name":"On or near Cornwallis Close"},"longitude":"0.187313"},"context":"","outcome_status":null,"persistent_id":"","id":74273991,"location_subtype":"","month":"2019-05"},{"category":"anti-social-behaviour","location_type":"Force","location":{"latitude":"51.466455","street":{"id":947577,"name":"On or near Dale View"},"longitude":"0.186540"},"context":"","outcome_status":null,"persistent_id":"","id":74273992,"location_subtype":"","month":"2019-05"},{"category":"anti-social-behaviour","location_type":"Force","location":{"latitude":"51.476273","street":{"id":947766,"name":"On or near Raleigh Close"},"longitude":"0.187183"},"context":"","outcome_status":null,"persistent_id":"","id":74273993,"location_subtype":"","month":"2019-05"},{"category":"anti-social-behaviour","location_type":"Force","location":{"latitude":"51.469946","street":{"id":947578,"name":"On or near Craydene Road"},"longitude":"0.186477"},"context":"","outcome_status":null,"persistent_id":"","id":74273995,"location_subtype":"","month":"2019-05"},{"category":"anti-social-behaviour","location_type":"Force","location":{"latitude":"51.469946","street":{"id":947578,"name":"On or near Craydene Road"},"longitude":"0.186477"},"context":"","outcome_status":null,"persistent_id":"","id":74273996,"location_subtype":"","month":"2019-05"},{"category":"anti-social-behaviour","location_type":"Force","location":{"latitude":"51.469946","street":{"id":947578,"name":"On or near Craydene Road"},"longitude":"0.186477"},"context":"","outcome_status":null,"persistent_id":"","id":74273998,"location_subtype":"","month":"2019-05"},{"category":"anti-social-behaviour","location_type":"Force","location":{"latitude":"51.474709","street":{"id":947772,"name":"On or near Festival Close"},"longitude":"0.183767"},"context":"","outcome_status":null,"persistent_id":"","id":74273999,"location_subtype":"","month":"2019-05"},{"category":"anti-social-behaviour","location_type":"Force","location":{"latitude":"51.454136","street":{"id":941061,"name":"On or near Green Walk"},"longitude":"0.183605"},"context":"","outcome_status":null,"persistent_id":"","id":74274001,"location_subtype":"","month":"2019-05"},{"category":"anti-social-behaviour","location_type":"Force","location":{"latitude":"51.468252","street":{"id":947580,"name":"On or near Burns Close"},"longitude":"0.183761"},"context":"","outcome_status":null,"persistent_id":"","id":74274002,"location_subtype":"","month":"2019-05"},{"category":"anti-social-behaviour","location_type":"Force","location":{"latitude":"51.480159","street":{"id":947761,"name":"On or near Supermarket"},"longitude":"0.184690"},"context":"","outcome_status":null,"persistent_id":"","id":74274003,"location_subtype":"","month":"2019-05"},{"category":"anti-social-behaviour","location_type":"Force","location":{"latitude":"51.470242","street":{"id":947554,"name":"On or near Pedestrian Subway"},"longitude":"0.180731"},"context":"","outcome_status":null,"persistent_id":"","id":74274006,"location_subtype":"","month":"2019-05"},{"category":"anti-social-behaviour","location_type":"Force","location":{"latitude":"51.470242","street":{"id":947554,"name":"On or near Pedestrian Subway"},"longitude":"0.180731"},"context":"","outcome_status":null,"persistent_id":"","id":74274008,"location_subtype":"","month":"2019-05"},{"category":"anti-social-behaviour","location_type":"Force","location":{"latitude":"51.470242","street":{"id":947554,"name":"On or near Pedestrian Subway"},"longitude":"0.180731"},"context":"","outcome_status":null,"persistent_id":"","id":74274009,"location_subtype":"","month":"2019-05"},{"category":"anti-social-behaviour","location_type":"Force","location":{"latitude":"51.470242","street":{"id":947554,"name":"On or near Pedestrian Subway"},"longitude":"0.180731"},"context":"","outcome_status":null,"persistent_id":"","id":74274010,"location_subtype":"","month":"2019-05"},{"category":"anti-social-behaviour","location_type":"Force","location":{"latitude":"51.461362","street":{"id":947636,"name":"On or near Wyatt Road"},"longitude":"0.181431"},"context":"","outcome_status":null,"persistent_id":"","id":74274011,"location_subtype":"","month":"2019-05"},{"category":"anti-social-behaviour","location_type":"Force","location":{"latitude":"51.479557","street":{"id":947749,"name":"On or near James Watt Way"},"longitude":"0.182731"},"context":"","outcome_status":null,"persistent_id":"","id":74274014,"location_subtype":"","month":"2019-05"},{"category":"anti-social-behaviour","location_type":"Force","location":{"latitude":"51.479557","street":{"id":947749,"name":"On or near James Watt Way"},"longitude":"0.182731"},"context":"","outcome_status":null,"persistent_id":"","id":74274016,"location_subtype":"","month":"2019-05"},{"category":"anti-social-behaviour","location_type":"Force","location":{"latitude":"51.476273","street":{"id":947766,"name":"On or near Raleigh Close"},"longitude":"0.187183"},"context":"","outcome_status":null,"persistent_id":"","id":74273994,"location_subtype":"","month":"2019-05"},{"category":"anti-social-behaviour","location_type":"Force","location":{"latitude":"51.469946","street":{"id":947578,"name":"On or near Craydene Road"},"longitude":"0.186477"},"context":"","outcome_status":null,"persistent_id":"","id":74273997,"location_subtype":"","month":"2019-05"},{"category":"anti-social-behaviour","location_type":"Force","location":{"latitude":"51.471105","street":{"id":947664,"name":"On or near Hollywood Way"},"longitude":"0.196626"},"context":"","outcome_status":null,"persistent_id":"","id":74273976,"location_subtype":"","month":"2019-05"},{"category":"anti-social-behaviour","location_type":"Force","location":{"latitude":"51.454136","street":{"id":941061,"name":"On or near Green Walk"},"longitude":"0.183605"},"context":"","outcome_status":null,"persistent_id":"","id":74274000,"location_subtype":"","month":"2019-05"},{"category":"anti-social-behaviour","location_type":"Force","location":{"latitude":"51.468252","street":{"id":947580,"name":"On or near Burns Close"},"longitude":"0.183761"},"context":"","outcome_status":null,"persistent_id":"","id":74274004,"location_subtype":"","month":"2019-05"},{"category":"anti-social-behaviour","location_type":"Force","location":{"latitude":"51.478918","street":{"id":947755,"name":"On or near Aveley Close"},"longitude":"0.184702"},"context":"","outcome_status":null,"persistent_id":"","id":74274005,"location_subtype":"","month":"2019-05"},{"category":"anti-social-behaviour","location_type":"Force","location":{"latitude":"51.462959","street":{"id":947634,"name":"On or near Taunton Close"},"longitude":"0.170940"},"context":"","outcome_status":null,"persistent_id":"","id":74274058,"location_subtype":"","month":"2019-05"},{"category":"anti-social-behaviour","location_type":"Force","location":{"latitude":"51.475359","street":{"id":947785,"name":"On or near Beechfield Road"},"longitude":"0.173473"},"context":"","outcome_status":null,"persistent_id":"","id":74274051,"location_subtype":"","month":"2019-05"},{"category":"anti-social-behaviour","location_type":"Force","location":{"latitude":"51.468635","street":{"id":947602,"name":"On or near Mendip Road"},"longitude":"0.174780"},"context":"","outcome_status":null,"persistent_id":"","id":74274039,"location_subtype":"","month":"2019-05"},{"category":"anti-social-behaviour","location_type":"Force","location":{"latitude":"51.467739","street":{"id":947604,"name":"On or near Hurstwood Avenue"},"longitude":"0.177502"},"context":"","outcome_status":null,"persistent_id":"","id":74274035,"location_subtype":"","month":"2019-05"},{"category":"anti-social-behaviour","location_type":"Force","location":{"latitude":"51.473976","street":{"id":947689,"name":"On or near Webber Close"},"longitude":"0.196980"},"context":"","outcome_status":null,"persistent_id":"","id":74273974,"location_subtype":"","month":"2019-05"},{"category":"anti-social-behaviour","location_type":"Force","location":{"latitude":"51.471105","street":{"id":947664,"name":"On or near Hollywood Way"},"longitude":"0.196626"},"context":"","outcome_status":null,"persistent_id":"","id":74273975,"location_subtype":"","month":"2019-05"},{"category":"anti-social-behaviour","location_type":"Force","location":{"latitude":"51.474872","street":{"id":947691,"name":"On or near Snipe Close"},"longitude":"0.196217"},"context":"","outcome_status":null,"persistent_id":"","id":74273978,"location_subtype":"","month":"2019-05"},{"category":"anti-social-behaviour","location_type":"Force","location":{"latitude":"51.470374","street":{"id":947666,"name":"On or near Hazel Drive"},"longitude":"0.195310"},"context":"","outcome_status":null,"persistent_id":"","id":74273977,"location_subtype":"","month":"2019-05"},{"category":"anti-social-behaviour","location_type":"Force","location":{"latitude":"51.455570","street":{"id":940996,"name":"On or near Mill Place"},"longitude":"0.193462"},"context":"","outcome_status":null,"persistent_id":"","id":74273979,"location_subtype":"","month":"2019-05"},{"category":"anti-social-behaviour","location_type":"Force","location":{"latitude":"51.454298","street":{"id":941000,"name":"On or near Farm Place"},"longitude":"0.192235"},"context":"","outcome_status":null,"persistent_id":"","id":74273980,"location_subtype":"","month":"2019-05"},{"category":"anti-social-behaviour","location_type":"Force","location":{"latitude":"51.454298","street":{"id":941000,"name":"On or near Farm Place"},"longitude":"0.192235"},"context":"","outcome_status":null,"persistent_id":"","id":74273981,"location_subtype":"","month":"2019-05"},{"category":"anti-social-behaviour","location_type":"Force","location":{"latitude":"51.454034","street":{"id":941002,"name":"On or near Bramley Place"},"longitude":"0.190956"},"context":"","outcome_status":null,"persistent_id":"","id":74273983,"location_subtype":"","month":"2019-05"},{"category":"bicycle-theft","location_type":"Force","location":{"latitude":"51.480159","street":{"id":947761,"name":"On or near Supermarket"},"longitude":"0.184690"},"context":"","outcome_status":{"category":"Status update unavailable","date":"2019-09"},"persistent_id":"31c1b355d581d42e7f420428d0cca843475caa0a9126c4de68c1caeaef486ad6","id":74346138,"location_subtype":"","month":"2019-05"},{"category":"bicycle-theft","location_type":"Force","location":{"latitude":"51.471150","street":{"id":947562,"name":"On or near Plantation Road"},"longitude":"0.189414"},"context":"","outcome_status":{"category":"Status update unavailable","date":"2019-09"},"persistent_id":"5266c0d36eae99fb046b3438e80592af278b0ad0cac89a00d9f61be705daae3f","id":74318831,"location_subtype":"","month":"2019-05"},{"category":"burglary","location_type":"Force","location":{"latitude":"51.470222","street":{"id":947677,"name":"On or near Larkswood Close"},"longitude":"0.192883"},"context":"","outcome_status":{"category":"Status update unavailable","date":"2019-09"},"persistent_id":"d019b23fd5444d8eb33b50a66c52c94be07c1b1e1a818008ca5e2c9fc062db97","id":74362663,"location_subtype":"","month":"2019-05"},{"category":"burglary","location_type":"Force","location":{"latitude":"51.467977","street":{"id":947672,"name":"On or near Pedestrian Subway"},"longitude":"0.190270"},"context":"","outcome_status":{"category":"Status update unavailable","date":"2019-09"},"persistent_id":"69efcb27894a036de4d013abe2d235ba6d0e1f4fe29612cbaf2058810a9ba53c","id":74354357,"location_subtype":"","month":"2019-05"},{"category":"burglary","location_type":"Force","location":{"latitude":"51.467073","street":{"id":947612,"name":"On or near Cumbrian Avenue"},"longitude":"0.176563"},"context":"","outcome_status":{"category":"Status update unavailable","date":"2019-09"},"persistent_id":"bd852fd185b6109cd242a5701b2d380d9653d99412af986042f8c7ae1f7c94f1","id":74326372,"location_subtype":"","month":"2019-05"},{"category":"burglary","location_type":"Force","location":{"latitude":"51.468879","street":{"id":947566,"name":"On or near Northend Road"},"longitude":"0.180997"},"context":"","outcome_status":{"category":"Court result unavailable","date":"2020-08"},"persistent_id":"949894720e5ae365a72274b821991601527353e87ed747c67d8974d412e396ce","id":74339962,"location_subtype":"","month":"2019-05"},{"category":"burglary","location_type":"Force","location":{"latitude":"51.467977","street":{"id":947672,"name":"On or near Pedestrian Subway"},"longitude":"0.190270"},"context":"","outcome_status":{"category":"Status update unavailable","date":"2019-09"},"persistent_id":"016845e722daaafaa6fccd239c92b8ea3fc6a4e50b4c6fd9f5de011166fc239c","id":74344505,"location_subtype":"","month":"2019-05"},{"category":"burglary","location_type":"Force","location":{"latitude":"51.471044","street":{"id":947668,"name":"On or near Fern Close"},"longitude":"0.195068"},"context":"","outcome_status":{"category":"Status update unavailable","date":"2019-09"},"persistent_id":"69b16550d0858df86a5550ea1123c58328ca744b6487e49483377447371a8cb8","id":74313375,"location_subtype":"","month":"2019-05"},{"category":"burglary","location_type":"Force","location":{"latitude":"51.454204","street":{"id":941064,"name":"On or near Crayford Way"},"longitude":"0.187193"},"context":"","outcome_status":{"category":"Status update unavailable","date":"2019-09"},"persistent_id":"a4801bbc06e5335140cdf6b439468adf34f6f299135bce3b56ab49600e2ab185","id":74343756,"location_subtype":"","month":"2019-05"},{"category":"burglary","location_type":"Force","location":{"latitude":"51.465311","street":{"id":947571,"name":"On or near Lincoln Close"},"longitude":"0.183289"},"context":"","outcome_status":{"category":"Status update unavailable","date":"2019-09"},"persistent_id":"6682696a1e9763a22a41102246bcc379db20d2a7065c517657eea9159eebb808","id":74334443,"location_subtype":"","month":"2019-05"},{"category":"burglary","location_type":"Force","location":{"latitude":"51.476496","street":{"id":947700,"name":"On or near Bilton Road"},"longitude":"0.192579"},"context":"","outcome_status":{"category":"Status update unavailable","date":"2019-09"},"persistent_id":"0a1213c4e729d8acabb60821855b4035841fa23f356bf569cd9f1664c9541002","id":74331599,"location_subtype":"","month":"2019-05"},{"category":"burglary","location_type":"Force","location":{"latitude":"51.454136","street":{"id":941061,"name":"On or near Green Walk"},"longitude":"0.183605"},"context":"","outcome_status":{"category":"Status update unavailable","date":"2019-09"},"persistent_id":"950bb59c4788c3f4e571de2c17bbc9e7d0ae3a756aaac7ee94cfb720a5ffb45d","id":74331325,"location_subtype":"","month":"2019-05"},{"category":"burglary","location_type":"Force","location":{"latitude":"51.462857","street":{"id":947656,"name":"On or near Sports\/recreation Area"},"longitude":"0.173541"},"context":"","outcome_status":{"category":"Status update unavailable","date":"2019-09"},"persistent_id":"c74e72cb9829b4c90172b934b02be466e0586cc9ed22a3e27fdd27d19a66a816","id":74330165,"location_subtype":"","month":"2019-05"},{"category":"burglary","location_type":"Force","location":{"latitude":"51.471987","street":{"id":947563,"name":"On or near Page Crescent"},"longitude":"0.185019"},"context":"","outcome_status":{"category":"Status update unavailable","date":"2019-09"},"persistent_id":"64f7836be18f9097f3c31045a857557e2d1fbb2c4dc01c8ece757bfd1f735ee3","id":74329587,"location_subtype":"","month":"2019-05"},{"category":"burglary","location_type":"Force","location":{"latitude":"51.472901","street":{"id":947584,"name":"On or near Arthur Street"},"longitude":"0.182802"},"context":"","outcome_status":{"category":"Status update unavailable","date":"2019-09"},"persistent_id":"297c630af389d7ab048bd098b2ac5867dc8fa3109b790a2d79d913ea9cefebda","id":74336926,"location_subtype":"","month":"2019-05"},{"category":"burglary","location_type":"Force","location":{"latitude":"51.454136","street":{"id":941061,"name":"On or near Green Walk"},"longitude":"0.183605"},"context":"","outcome_status":{"category":"Court result unavailable","date":"2020-01"},"persistent_id":"b9e5efbc9f1730a37dbc65361249c594d691e44a2439cdd4c1cc4adc9a3f4639","id":74331987,"location_subtype":"","month":"2019-05"},{"category":"burglary","location_type":"Force","location":{"latitude":"51.466234","street":{"id":947585,"name":"On or near Petrol Station"},"longitude":"0.181519"},"context":"","outcome_status":{"category":"Status update unavailable","date":"2019-09"},"persistent_id":"b9de913afc0855ab3fc1ce2759d864cb9d0e762f66191f9d4ce46132a299a958","id":74318222,"location_subtype":"","month":"2019-05"},{"category":"burglary","location_type":"Force","location":{"latitude":"51.468879","street":{"id":947566,"name":"On or near Northend Road"},"longitude":"0.180997"},"context":"","outcome_status":{"category":"Status update unavailable","date":"2019-09"},"persistent_id":"f4af84d04a28e55655c36b8b132831cc5f24d60f4be9a9cdc3792065a8fa57e8","id":74323651,"location_subtype":"","month":"2019-05"},{"category":"burglary","location_type":"Force","location":{"latitude":"51.466234","street":{"id":947585,"name":"On or near Petrol Station"},"longitude":"0.181519"},"context":"","outcome_status":{"category":"Court result unavailable","date":"2020-05"},"persistent_id":"64071e1689e2a0313bf2ef570c6d81a2cc2cb454a1010dfb3b6ac0b4eca74241","id":74314920,"location_subtype":"","month":"2019-05"},{"category":"burglary","location_type":"Force","location":{"latitude":"51.467977","street":{"id":947672,"name":"On or near Pedestrian Subway"},"longitude":"0.190270"},"context":"","outcome_status":{"category":"Status update unavailable","date":"2019-09"},"persistent_id":"d525b7dd317cfe9e3fd918b48a6ae6089051530bb9c9da39ed5193992620963b","id":74306706,"location_subtype":"","month":"2019-05"},{"category":"burglary","location_type":"Force","location":{"latitude":"51.475604","street":{"id":947698,"name":"On or near Dabbling Close"},"longitude":"0.196497"},"context":"","outcome_status":{"category":"Status update unavailable","date":"2019-09"},"persistent_id":"aae3122e828eb861ce3870f527f7e7c1f2ebd7a587cbf1964afdc58aa64828f6","id":74296220,"location_subtype":"","month":"2019-05"},{"category":"burglary","location_type":"Force","location":{"latitude":"51.454237","street":{"id":941054,"name":"On or near The Rise"},"longitude":"0.184920"},"context":"","outcome_status":{"category":"Status update unavailable","date":"2019-09"},"persistent_id":"d2ec7a1b35cb14c49d188d0dd0fa2a6ea0c96c39ba1bb9775749b4583ba27a6b","id":74366857,"location_subtype":"","month":"2019-05"},{"category":"burglary","location_type":"Force","location":{"latitude":"51.479054","street":{"id":947750,"name":"On or near Crescent Road"},"longitude":"0.185127"},"context":"","outcome_status":{"category":"Status update unavailable","date":"2019-09"},"persistent_id":"4021f8f0b2ec0e5f00bb7896731218cf13aa26c914e55a84f5cd9332ca6653dc","id":74326502,"location_subtype":"","month":"2019-05"},{"category":"burglary","location_type":"Force","location":{"latitude":"51.456083","street":{"id":940999,"name":"On or near Maiden Lane"},"longitude":"0.191039"},"context":"","outcome_status":{"category":"Status update unavailable","date":"2019-09"},"persistent_id":"557dd60eba315635ca987449c90d7937cbe020e99f90def698650ad01cb1b678","id":74365162,"location_subtype":"","month":"2019-05"},{"category":"criminal-damage-arson","location_type":"Force","location":{"latitude":"51.468167","street":{"id":947587,"name":"On or near Sports\/recreation Area"},"longitude":"0.188321"},"context":"","outcome_status":{"category":"Status update unavailable","date":"2019-09"},"persistent_id":"1afcd5edd22fa4683f96289eb199d0989990c0e50cf445ada9d1ae3dcef10816","id":74319717,"location_subtype":"","month":"2019-05"},{"category":"criminal-damage-arson","location_type":"Force","location":{"latitude":"51.472698","street":{"id":947622,"name":"On or near Stelling Road"},"longitude":"0.170509"},"context":"","outcome_status":{"category":"Status update unavailable","date":"2019-09"},"persistent_id":"52e98e85b4c16bcd289de7f5751dfbb00489f2bef55ed8426f488d096b1af21b","id":74305484,"location_subtype":"","month":"2019-05"},{"category":"criminal-damage-arson","location_type":"Force","location":{"latitude":"51.468167","street":{"id":947587,"name":"On or near Sports\/recreation Area"},"longitude":"0.188321"},"context":"","outcome_status":{"category":"Status update unavailable","date":"2019-09"},"persistent_id":"512508f958d2dd6a4c32b4d65c370ee6499814a37959acf337feb56f33295f50","id":74328474,"location_subtype":"","month":"2019-05"},{"category":"criminal-damage-arson","location_type":"Force","location":{"latitude":"51.478863","street":{"id":947756,"name":"On or near Appold Street"},"longitude":"0.186183"},"context":"","outcome_status":{"category":"Status update unavailable","date":"2019-09"},"persistent_id":"1bc177f2c14984ae26f60c5c90c3039618fda4aaaa8f4d148f1d3a898b67f0aa","id":74299085,"location_subtype":"","month":"2019-05"},{"category":"criminal-damage-arson","location_type":"Force","location":{"latitude":"51.471236","street":{"id":947491,"name":"On or near Colyers Close"},"longitude":"0.168338"},"context":"","outcome_status":{"category":"Court result unavailable","date":"2020-01"},"persistent_id":"f465a3045ed60dd6228df7fb60709041d5cccf85e518f41f0fcc6b83fa7e85b3","id":74299442,"location_subtype":"","month":"2019-05"},{"category":"criminal-damage-arson","location_type":"Force","location":{"latitude":"51.467073","street":{"id":947612,"name":"On or near Cumbrian Avenue"},"longitude":"0.176563"},"context":"","outcome_status":{"category":"Status update unavailable","date":"2019-09"},"persistent_id":"45af2b493c12a463f3373b66076fba2cef1c5e20cc310229809d84fad68861fc","id":74299499,"location_subtype":"","month":"2019-05"},{"category":"criminal-damage-arson","location_type":"Force","location":{"latitude":"51.471633","street":{"id":947630,"name":"On or near Colyers Lane"},"longitude":"0.171164"},"context":"","outcome_status":{"category":"Status update unavailable","date":"2019-09"},"persistent_id":"83ee3fd12ba924db08598ffb8f14de06d69f31a2ecd21797d7cde9b610f77d97","id":74303993,"location_subtype":"","month":"2019-05"},{"category":"criminal-damage-arson","location_type":"Force","location":{"latitude":"51.454136","street":{"id":941061,"name":"On or near Green Walk"},"longitude":"0.183605"},"context":"","outcome_status":{"category":"Status update unavailable","date":"2019-09"},"persistent_id":"dcd21f4362e21e50e0c2aa28dbf0a9a7e6590c70add35755f800c5a645555272","id":74304720,"location_subtype":"","month":"2019-05"},{"category":"criminal-damage-arson","location_type":"Force","location":{"latitude":"51.467301","street":{"id":947627,"name":"On or near Edendale Road"},"longitude":"0.172010"},"context":"","outcome_status":{"category":"Status update unavailable","date":"2019-09"},"persistent_id":"d9e7553b691faf8bcc8434f19314f52a288fb9d418d4d0da0636b66ae5d143ab","id":74295519,"location_subtype":"","month":"2019-05"},{"category":"criminal-damage-arson","location_type":"Force","location":{"latitude":"51.477336","street":{"id":947758,"name":"On or near Alexandra Road"},"longitude":"0.183230"},"context":"","outcome_status":{"category":"Status update unavailable","date":"2019-09"},"persistent_id":"48fe8f69414d71e6dde5f493a0f370819fa436e6e3c0f26911f49731580bcdad","id":74305294,"location_subtype":"","month":"2019-05"},{"category":"criminal-damage-arson","location_type":"Force","location":{"latitude":"51.475892","street":{"id":947768,"name":"On or near Maynard Close"},"longitude":"0.183506"},"context":"","outcome_status":{"category":"Status update unavailable","date":"2019-09"},"persistent_id":"01c404b64f30e76b9e824ee76c8a8e6bf31256dfe31c4e23a611b81b6d3537d4","id":74323075,"location_subtype":"","month":"2019-05"},{"category":"criminal-damage-arson","location_type":"Force","location":{"latitude":"51.462109","street":{"id":947638,"name":"On or near Shearwood Crescent"},"longitude":"0.187182"},"context":"","outcome_status":{"category":"Status update unavailable","date":"2019-09"},"persistent_id":"c7ba56a911d37f869617db305a6c33d9a551b5e124747e672035bed17eb4feb4","id":74324442,"location_subtype":"","month":"2019-05"},{"category":"criminal-damage-arson","location_type":"Force","location":{"latitude":"51.468376","street":{"id":947588,"name":"On or near Sports\/recreation Area"},"longitude":"0.179966"},"context":"","outcome_status":{"category":"Status update unavailable","date":"2019-09"},"persistent_id":"da79aa2a5b3a5bbff55c98f8daa3a0ba3c40810c6da7c3daedd7a81a3c5b1db9","id":74324617,"location_subtype":"","month":"2019-05"},{"category":"criminal-damage-arson","location_type":"Force","location":{"latitude":"51.463946","street":{"id":947653,"name":"On or near Eversley Cross"},"longitude":"0.177364"},"context":"","outcome_status":{"category":"Status update unavailable","date":"2019-09"},"persistent_id":"743e4ce5b39891cb99c7524dddd33ac6791b2803fc3ea1a3fc221caa3116489a","id":74306404,"location_subtype":"","month":"2019-05"},{"category":"criminal-damage-arson","location_type":"Force","location":{"latitude":"51.475990","street":{"id":947767,"name":"On or near Queens Road"},"longitude":"0.181610"},"context":"","outcome_status":{"category":"Status update unavailable","date":"2019-09"},"persistent_id":"1d19436a434a5010c0ad2da545c68ce25eb9c072752dba595e97ab34ae87c41a","id":74314590,"location_subtype":"","month":"2019-05"},{"category":"criminal-damage-arson","location_type":"Force","location":{"latitude":"51.469976","street":{"id":947595,"name":"On or near Swallow Close"},"longitude":"0.174196"},"context":"","outcome_status":{"category":"Status update unavailable","date":"2019-09"},"persistent_id":"f63dd5f99e6cf9877a1f04d942f3c43fb374346dccc2e8b28b3ecae514d26a6c","id":74318055,"location_subtype":"","month":"2019-05"},{"category":"criminal-damage-arson","location_type":"Force","location":{"latitude":"51.475474","street":{"id":923932,"name":"On or near Moorhen Close"},"longitude":"0.198147"},"context":"","outcome_status":{"category":"Status update unavailable","date":"2019-09"},"persistent_id":"b0b85b6502958af734dcbee3763c53a0d9cf527b374e387d82ff4f85a2e0ac28","id":74331763,"location_subtype":"","month":"2019-05"},{"category":"criminal-damage-arson","location_type":"Force","location":{"latitude":"51.476496","street":{"id":947700,"name":"On or near Bilton Road"},"longitude":"0.192579"},"context":"","outcome_status":{"category":"Status update unavailable","date":"2019-09"},"persistent_id":"6267f59dfdebe1e7ae0d5b9bb8f582b8f35a34f16e00be2e44071a1c8abcc29d","id":74327754,"location_subtype":"","month":"2019-05"},{"category":"criminal-damage-arson","location_type":"Force","location":{"latitude":"51.458471","street":{"id":940997,"name":"On or near Medway Road"},"longitude":"0.189829"},"context":"","outcome_status":{"category":"Status update unavailable","date":"2019-09"},"persistent_id":"e4f75f7f8a141bdbae5cebd7800f7af9d14bb99ec2771788a0682d757474bf8e","id":74334825,"location_subtype":"","month":"2019-05"},{"category":"criminal-damage-arson","location_type":"Force","location":{"latitude":"51.458471","street":{"id":940997,"name":"On or near Medway Road"},"longitude":"0.189829"},"context":"","outcome_status":{"category":"Status update unavailable","date":"2019-09"},"persistent_id":"e4f75f7f8a141bdbae5cebd7800f7af9d14bb99ec2771788a0682d757474bf8e","id":74334826,"location_subtype":"","month":"2019-05"},{"category":"criminal-damage-arson","location_type":"Force","location":{"latitude":"51.458471","street":{"id":940997,"name":"On or near Medway Road"},"longitude":"0.189829"},"context":"","outcome_status":{"category":"Investigation complete; no suspect identified","date":"2020-03"},"persistent_id":"e4f75f7f8a141bdbae5cebd7800f7af9d14bb99ec2771788a0682d757474bf8e","id":74334827,"location_subtype":"","month":"2019-05"},{"category":"criminal-damage-arson","location_type":"Force","location":{"latitude":"51.470606","street":{"id":947662,"name":"On or near Rodeo Close"},"longitude":"0.196861"},"context":"","outcome_status":{"category":"Status update unavailable","date":"2019-09"},"persistent_id":"3eb922666318a2a63e52a0020e2d7674d3152ea622db826bd60d38e5498b3592","id":74344780,"location_subtype":"","month":"2019-05"},{"category":"criminal-damage-arson","location_type":"Force","location":{"latitude":"51.480159","street":{"id":947761,"name":"On or near Supermarket"},"longitude":"0.184690"},"context":"","outcome_status":{"category":"Status update unavailable","date":"2019-09"},"persistent_id":"069f3adb9b3e6dadf4d3e007ba243d66f08b6292663c9ad7642408d2a61d2551","id":74354533,"location_subtype":"","month":"2019-05"},{"category":"criminal-damage-arson","location_type":"Force","location":{"latitude":"51.477178","street":{"id":947723,"name":"On or near Clydon Close"},"longitude":"0.174783"},"context":"","outcome_status":{"category":"Local resolution","date":"2019-05"},"persistent_id":"fab8272d2c991bca331f11ec210b5ddb85dc41887b04c51a663ee6b41305cb89","id":74345924,"location_subtype":"","month":"2019-05"},{"category":"criminal-damage-arson","location_type":"Force","location":{"latitude":"51.468709","street":{"id":947581,"name":"On or near Bridge Road"},"longitude":"0.186274"},"context":"","outcome_status":{"category":"Court result unavailable","date":"2019-11"},"persistent_id":"12a4012cc2c0287d96d33da7fa366254cf4dded9c2d3aff3b286c70477e72f64","id":74329299,"location_subtype":"","month":"2019-05"},{"category":"criminal-damage-arson","location_type":"Force","location":{"latitude":"51.467028","street":{"id":947628,"name":"On or near Downbank Avenue"},"longitude":"0.170744"},"context":"","outcome_status":{"category":"Status update unavailable","date":"2019-09"},"persistent_id":"df8a7fd18bb463231594a054ecaf03f5441eba1fcdb1ccbb7fec01502c65d525","id":74352255,"location_subtype":"","month":"2019-05"},{"category":"criminal-damage-arson","location_type":"Force","location":{"latitude":"51.480159","street":{"id":947761,"name":"On or near Supermarket"},"longitude":"0.184690"},"context":"","outcome_status":{"category":"Status update unavailable","date":"2019-09"},"persistent_id":"01ade9f453b38cfea70b02bc14ece546b41400d53b5744c5793198b98eb3ef09","id":74366746,"location_subtype":"","month":"2019-05"},{"category":"criminal-damage-arson","location_type":"Force","location":{"latitude":"51.480268","street":{"id":947743,"name":"On or near Pedestrian Subway"},"longitude":"0.180749"},"context":"","outcome_status":{"category":"Status update unavailable","date":"2019-09"},"persistent_id":"ca2e3e9e99630a47c11c5870278b71f08315e8ed51fe2872a8031ce4e5ec2506","id":74368232,"location_subtype":"","month":"2019-05"},{"category":"criminal-damage-arson","location_type":"Force","location":{"latitude":"51.475172","street":{"id":947776,"name":"On or near Thanet Road"},"longitude":"0.180146"},"context":"","outcome_status":{"category":"Court result unavailable","date":"2020-07"},"persistent_id":"969933fdda2906dbf2e14828c34e94f049e64b0816246f359b2ebb1ed169a83b","id":74351149,"location_subtype":"","month":"2019-05"},{"category":"drugs","location_type":"Force","location":{"latitude":"51.478494","street":{"id":947748,"name":"On or near Manor Road"},"longitude":"0.181888"},"context":"","outcome_status":{"category":"Local resolution","date":"2019-05"},"persistent_id":"bf9025a2479bbed8222c31f73b354dbf6c0871f0fcecd19d637f87777544c327","id":74305485,"location_subtype":"","month":"2019-05"},{"category":"drugs","location_type":"Force","location":{"latitude":"51.477534","street":{"id":947754,"name":"On or near Britannia Close"},"longitude":"0.182231"},"context":"","outcome_status":{"category":"Court result unavailable","date":"2019-11"},"persistent_id":"1cca422224b122c62321485070cb6b6b63af6040f1de00ac14ebb7207090fca5","id":74294357,"location_subtype":"","month":"2019-05"},{"category":"drugs","location_type":"Force","location":{"latitude":"51.480159","street":{"id":947761,"name":"On or near Supermarket"},"longitude":"0.184690"},"context":"","outcome_status":{"category":"Offender given penalty notice","date":"2019-05"},"persistent_id":"e565dfd69dd4baaef935f3794a776bdaa3b94233ca6454d261d2fda3adcb9fd0","id":74311121,"location_subtype":"","month":"2019-05"},{"category":"drugs","location_type":"Force","location":{"latitude":"51.480685","street":{"id":947787,"name":"On or near Wharfside Close"},"longitude":"0.183966"},"context":"","outcome_status":{"category":"Local resolution","date":"2019-05"},"persistent_id":"f6aea063755678d03544eb4588afa2af32d4807bd46b27642200b23f7291a885","id":74326451,"location_subtype":"","month":"2019-05"},{"category":"drugs","location_type":"Force","location":{"latitude":"51.480159","street":{"id":947761,"name":"On or near Supermarket"},"longitude":"0.184690"},"context":"","outcome_status":{"category":"Offender given penalty notice","date":"2019-05"},"persistent_id":"d2e704bd7143a00ec470ce9587e2949841f0b3ed2b1b3bad58b88815a8c9e5aa","id":74346512,"location_subtype":"","month":"2019-05"},{"category":"drugs","location_type":"Force","location":{"latitude":"51.470242","street":{"id":947554,"name":"On or near Pedestrian Subway"},"longitude":"0.180731"},"context":"","outcome_status":{"category":"Local resolution","date":"2019-05"},"persistent_id":"9cf04ccf9f5bc3fa6229f2aa5199bb0f98a9c934db0de4eeeec474a11a45ce1e","id":74349451,"location_subtype":"","month":"2019-05"},{"category":"drugs","location_type":"Force","location":{"latitude":"51.465095","street":{"id":947559,"name":"On or near Sun Court"},"longitude":"0.186173"},"context":"","outcome_status":{"category":"Local resolution","date":"2019-05"},"persistent_id":"1826639437b064c93115397f39cc98987ffe041c4c67149bec4458eb62b6bf2e","id":74299498,"location_subtype":"","month":"2019-05"},{"category":"drugs","location_type":"Force","location":{"latitude":"51.472901","street":{"id":947584,"name":"On or near Arthur Street"},"longitude":"0.182802"},"context":"","outcome_status":{"category":"Offender given a caution","date":"2019-07"},"persistent_id":"cdd53719ff7e95d800e3df8aea50e75b885f3bf47eb1d6f75f3b099e9a82eb7b","id":74296198,"location_subtype":"","month":"2019-05"},{"category":"drugs","location_type":"Force","location":{"latitude":"51.472176","street":{"id":947558,"name":"On or near The Nursery"},"longitude":"0.182119"},"context":"","outcome_status":{"category":"Offender given a caution","date":"2019-06"},"persistent_id":"6da250959c0643d0d2d69d16fd997666e3a88a09c3c10684e946fbb0b89443a5","id":74334928,"location_subtype":"","month":"2019-05"},{"category":"drugs","location_type":"Force","location":{"latitude":"51.454908","street":{"id":941052,"name":"On or near Village Green Road"},"longitude":"0.187543"},"context":"","outcome_status":{"category":"Local resolution","date":"2019-06"},"persistent_id":"463abf900dc8d8fcf3ef05f6c3679a8f6b70c007c382dae4b8f527b9323c51ef","id":74330201,"location_subtype":"","month":"2019-05"},{"category":"drugs","location_type":"Force","location":{"latitude":"51.466921","street":{"id":947586,"name":"On or near Sports\/recreation Area"},"longitude":"0.185209"},"context":"","outcome_status":{"category":"Local resolution","date":"2019-05"},"persistent_id":"b9540376b5630f09b76242c4b7de3fa61b68543818dd6c892e007403de09ce1b","id":74313355,"location_subtype":"","month":"2019-05"},{"category":"drugs","location_type":"Force","location":{"latitude":"51.481104","street":{"id":947760,"name":"On or near Theatre\/concert Hall"},"longitude":"0.181754"},"context":"","outcome_status":{"category":"Local resolution","date":"2019-06"},"persistent_id":"86a43b94d1fd336d2b9076ffc628073786d4d2847b023e3131610600d9cdd1ad","id":74339755,"location_subtype":"","month":"2019-05"},{"category":"drugs","location_type":"Force","location":{"latitude":"51.478863","street":{"id":947756,"name":"On or near Appold Street"},"longitude":"0.186183"},"context":"","outcome_status":{"category":"Local resolution","date":"2019-05"},"persistent_id":"5a0575ea394f689ba86704c6ef025353d8fc429df60fac9c6f9937bbe84605dc","id":74359104,"location_subtype":"","month":"2019-05"},{"category":"drugs","location_type":"Force","location":{"latitude":"51.480685","street":{"id":947787,"name":"On or near Wharfside Close"},"longitude":"0.183966"},"context":"","outcome_status":{"category":"Court result unavailable","date":"2019-11"},"persistent_id":"a0a114126005e27a5087e614a29e56fc5d143d48404ccef86599132bb8fdf15e","id":74303538,"location_subtype":"","month":"2019-05"},{"category":"drugs","location_type":"Force","location":{"latitude":"51.481104","street":{"id":947760,"name":"On or near Theatre\/concert Hall"},"longitude":"0.181754"},"context":"","outcome_status":{"category":"Local resolution","date":"2019-05"},"persistent_id":"e09abbfb51409c7b641b35f5b0213ebc566c6277a9f67cdcbb41798cb4d99e15","id":74345732,"location_subtype":"","month":"2019-05"},{"category":"other-theft","location_type":"Force","location":{"latitude":"51.480159","street":{"id":947761,"name":"On or near Supermarket"},"longitude":"0.184690"},"context":"","outcome_status":{"category":"Status update unavailable","date":"2019-09"},"persistent_id":"4d3a4775522ef8beb72a5427f4317e0539af8a760e66c7849065fdbaa6092226","id":74314659,"location_subtype":"","month":"2019-05"},{"category":"other-theft","location_type":"Force","location":{"latitude":"51.467739","street":{"id":947604,"name":"On or near Hurstwood Avenue"},"longitude":"0.177502"},"context":"","outcome_status":{"category":"Status update unavailable","date":"2019-09"},"persistent_id":"4b62f667ad9a149c2a799733708122141c097ebfa14aa0a65313e0baedf2dae7","id":74330711,"location_subtype":"","month":"2019-05"},{"category":"other-theft","location_type":"Force","location":{"latitude":"51.466234","street":{"id":947585,"name":"On or near Petrol Station"},"longitude":"0.181519"},"context":"","outcome_status":{"category":"Status update unavailable","date":"2019-09"},"persistent_id":"5b13ff763cfde45467a27a3f5284dd41005556904c6d7afab7e79a9a617cc0f4","id":74303769,"location_subtype":"","month":"2019-05"},{"category":"other-theft","location_type":"Force","location":{"latitude":"51.480159","street":{"id":947761,"name":"On or near Supermarket"},"longitude":"0.184690"},"context":"","outcome_status":{"category":"Status update unavailable","date":"2019-09"},"persistent_id":"7843696f29b196691868884c44c93c82cdde876b822681c4716a99ab5ba026c5","id":74302536,"location_subtype":"","month":"2019-05"},{"category":"other-theft","location_type":"Force","location":{"latitude":"51.458471","street":{"id":940997,"name":"On or near Medway Road"},"longitude":"0.189829"},"context":"","outcome_status":{"category":"Status update unavailable","date":"2019-09"},"persistent_id":"4a18560c62a5626fa88832348919565d7da418ba96b215f4b10f273e7cfa3355","id":74934495,"location_subtype":"","month":"2019-05"},{"category":"other-theft","location_type":"Force","location":{"latitude":"51.480159","street":{"id":947761,"name":"On or near Supermarket"},"longitude":"0.184690"},"context":"","outcome_status":{"category":"Status update unavailable","date":"2019-09"},"persistent_id":"34c1a8c38a218a6323ade4103c52a2ec046fa03ef5c776643146169156e8788f","id":74365411,"location_subtype":"","month":"2019-05"},{"category":"other-theft","location_type":"Force","location":{"latitude":"51.477483","street":{"id":947753,"name":"On or near Compton Place"},"longitude":"0.181566"},"context":"","outcome_status":{"category":"Status update unavailable","date":"2019-09"},"persistent_id":"15db56614c1c47346f37ae449036483dbcf98fb09f87d5d2ea63d6fb9fb78025","id":74293307,"location_subtype":"","month":"2019-05"},{"category":"other-theft","location_type":"Force","location":{"latitude":"51.472698","street":{"id":947622,"name":"On or near Stelling Road"},"longitude":"0.170509"},"context":"","outcome_status":{"category":"Status update unavailable","date":"2019-09"},"persistent_id":"6674187addc74ff35fd414028d679c0f9cb9e72cbb47f2869129d847068a4243","id":74351994,"location_subtype":"","month":"2019-05"},{"category":"other-theft","location_type":"Force","location":{"latitude":"51.480159","street":{"id":947761,"name":"On or near Supermarket"},"longitude":"0.184690"},"context":"","outcome_status":{"category":"Status update unavailable","date":"2019-09"},"persistent_id":"cbddcfdeaef00e61cd18ae67d3fa65f6ee0b1ae5a13631e82433914fe9363f32","id":74367876,"location_subtype":"","month":"2019-05"},{"category":"other-theft","location_type":"Force","location":{"latitude":"51.480159","street":{"id":947761,"name":"On or near Supermarket"},"longitude":"0.184690"},"context":"","outcome_status":{"category":"Status update unavailable","date":"2019-09"},"persistent_id":"a88e4de71e46ee1485cfc60c4b2150ba1a375903588495918ef8ca2773ad74c3","id":74334155,"location_subtype":"","month":"2019-05"},{"category":"other-theft","location_type":"Force","location":{"latitude":"51.480159","street":{"id":947761,"name":"On or near Supermarket"},"longitude":"0.184690"},"context":"","outcome_status":{"category":"Status update unavailable","date":"2019-09"},"persistent_id":"b68a00f4c385272e9c784cfa7d60b282f900793158dcb842a3032ce598b475a9","id":74349530,"location_subtype":"","month":"2019-05"},{"category":"other-theft","location_type":"Force","location":{"latitude":"51.477483","street":{"id":947753,"name":"On or near Compton Place"},"longitude":"0.181566"},"context":"","outcome_status":{"category":"Investigation complete; no suspect identified","date":"2020-04"},"persistent_id":"d88a0f0cb116d0709fec02cf00aa8562f0ca0a5a0076798ccf825a23f5e28c87","id":74314800,"location_subtype":"","month":"2019-05"},{"category":"other-theft","location_type":"Force","location":{"latitude":"51.466234","street":{"id":947585,"name":"On or near Petrol Station"},"longitude":"0.181519"},"context":"","outcome_status":{"category":"Status update unavailable","date":"2019-09"},"persistent_id":"c39d481a533da81eb24c39d2066cede1a0d9dd548e0d196abf9f2a3d3d6f8184","id":74315403,"location_subtype":"","month":"2019-05"},{"category":"other-theft","location_type":"Force","location":{"latitude":"51.466234","street":{"id":947585,"name":"On or near Petrol Station"},"longitude":"0.181519"},"context":"","outcome_status":{"category":"Status update unavailable","date":"2019-09"},"persistent_id":"adec2fccc8a357f1425f090e51988bda489e2fe590e9b5a71543aa746241ddbf","id":74316467,"location_subtype":"","month":"2019-05"},{"category":"other-theft","location_type":"Force","location":{"latitude":"51.466234","street":{"id":947585,"name":"On or near Petrol Station"},"longitude":"0.181519"},"context":"","outcome_status":{"category":"Status update unavailable","date":"2019-09"},"persistent_id":"35cf1d3b83c57a7e6587bbd0f5996093c87c2231d33ea3b52aafa5afb604c852","id":74318618,"location_subtype":"","month":"2019-05"},{"category":"other-theft","location_type":"Force","location":{"latitude":"51.471150","street":{"id":947562,"name":"On or near Plantation Road"},"longitude":"0.189414"},"context":"","outcome_status":{"category":"Status update unavailable","date":"2019-09"},"persistent_id":"c876b3df9d95daefcaa4efb7405d354ab1e9a88556a6edfb3d9356afb8743686","id":74371827,"location_subtype":"","month":"2019-05"},{"category":"other-theft","location_type":"Force","location":{"latitude":"51.473688","street":{"id":947629,"name":"On or near Detling Road"},"longitude":"0.172371"},"context":"","outcome_status":{"category":"Status update unavailable","date":"2019-09"},"persistent_id":"5f7c872316f7ac9bd76a0f2c09cec15b995547c8f8696685b5b24179a83e2c01","id":74318886,"location_subtype":"","month":"2019-05"},{"category":"other-theft","location_type":"Force","location":{"latitude":"51.456083","street":{"id":940999,"name":"On or near Maiden Lane"},"longitude":"0.191039"},"context":"","outcome_status":{"category":"Status update unavailable","date":"2019-09"},"persistent_id":"8b1a712767fdc9bc5b48c24c97f5a5eea5655ac5f60c0b08bd28de4ecf0ebf2a","id":74354496,"location_subtype":"","month":"2019-05"},{"category":"other-theft","location_type":"Force","location":{"latitude":"51.480159","street":{"id":947761,"name":"On or near Supermarket"},"longitude":"0.184690"},"context":"","outcome_status":{"category":"Status update unavailable","date":"2019-09"},"persistent_id":"3dfbd437f2dbec5223f0ebd4c0eb50e8ae0abcc4eb4057f2a1fb7d5cfb10cddb","id":74356166,"location_subtype":"","month":"2019-05"},{"category":"other-theft","location_type":"Force","location":{"latitude":"51.475990","street":{"id":947767,"name":"On or near Queens Road"},"longitude":"0.181610"},"context":"","outcome_status":{"category":"Status update unavailable","date":"2019-09"},"persistent_id":"8215450d1b216a7953c6ffb0a89bb65ba13115c69624f3be083da5bbc4c68f9d","id":74364346,"location_subtype":"","month":"2019-05"},{"category":"other-theft","location_type":"Force","location":{"latitude":"51.466234","street":{"id":947585,"name":"On or near Petrol Station"},"longitude":"0.181519"},"context":"","outcome_status":{"category":"Status update unavailable","date":"2019-09"},"persistent_id":"287e61ef7e69fd69b7aea442ffc9da0d5bd0e51288f146282668ca509cd61a0c","id":74369105,"location_subtype":"","month":"2019-05"},{"category":"other-theft","location_type":"Force","location":{"latitude":"51.472176","street":{"id":947558,"name":"On or near The Nursery"},"longitude":"0.182119"},"context":"","outcome_status":{"category":"Status update unavailable","date":"2019-09"},"persistent_id":"a07d2281db4a878a1f8e43c804e4e689efcf4022ec5cd03a379bf8581edc8ede","id":74332455,"location_subtype":"","month":"2019-05"},{"category":"other-theft","location_type":"Force","location":{"latitude":"51.474078","street":{"id":947770,"name":"On or near Guild Road"},"longitude":"0.182354"},"context":"","outcome_status":{"category":"Status update unavailable","date":"2019-09"},"persistent_id":"84271d4c9a77395826fff2e8735c5710da8c314719550dd47b7a81b315455e39","id":74305274,"location_subtype":"","month":"2019-05"},{"category":"other-theft","location_type":"Force","location":{"latitude":"51.481104","street":{"id":947760,"name":"On or near Theatre\/concert Hall"},"longitude":"0.181754"},"context":"","outcome_status":{"category":"Status update unavailable","date":"2019-09"},"persistent_id":"e3ab56073df0defd18a1a07507b8531bce865ffa248ebdd24598a29beba3a9b0","id":74346093,"location_subtype":"","month":"2019-05"},{"category":"other-theft","location_type":"Force","location":{"latitude":"51.466455","street":{"id":947577,"name":"On or near Dale View"},"longitude":"0.186540"},"context":"","outcome_status":{"category":"Status update unavailable","date":"2019-09"},"persistent_id":"2834f55e08e86f1aecf29e840182dc3e41d0f4e886dc4f087f8f9ad78f2ddfe7","id":74346091,"location_subtype":"","month":"2019-05"},{"category":"other-theft","location_type":"Force","location":{"latitude":"51.480159","street":{"id":947761,"name":"On or near Supermarket"},"longitude":"0.184690"},"context":"","outcome_status":{"category":"Status update unavailable","date":"2019-09"},"persistent_id":"d98069752d41f42ad74a1b0948bf9fa10b66b7d61550784dfc3d27f8c5add870","id":74305670,"location_subtype":"","month":"2019-05"},{"category":"other-theft","location_type":"Force","location":{"latitude":"51.456275","street":{"id":941011,"name":"On or near Thames Road"},"longitude":"0.201427"},"context":"","outcome_status":{"category":"Status update unavailable","date":"2019-09"},"persistent_id":"2ee6f0b73e3b7333c813bcffdfa5d83cef26ee50bce042c076bf3275a3fca199","id":74339632,"location_subtype":"","month":"2019-05"},{"category":"other-theft","location_type":"Force","location":{"latitude":"51.466234","street":{"id":947585,"name":"On or near Petrol Station"},"longitude":"0.181519"},"context":"","outcome_status":{"category":"Status update unavailable","date":"2019-09"},"persistent_id":"703853e2d20b0001f322b9353338d5bea4d7ef75307f13663d31f5e671a3f1c0","id":74337849,"location_subtype":"","month":"2019-05"},{"category":"other-theft","location_type":"Force","location":{"latitude":"51.458471","street":{"id":940997,"name":"On or near Medway Road"},"longitude":"0.189829"},"context":"","outcome_status":{"category":"Status update unavailable","date":"2019-09"},"persistent_id":"7f58384c9d2af20393e033ccc4eb2004bbe9506aca4d4cd729eb1bc6438d5b08","id":74336342,"location_subtype":"","month":"2019-05"},{"category":"other-theft","location_type":"Force","location":{"latitude":"51.466234","street":{"id":947585,"name":"On or near Petrol Station"},"longitude":"0.181519"},"context":"","outcome_status":{"category":"Status update unavailable","date":"2019-09"},"persistent_id":"a511c432da7bdd9f3579969ab10a45084e9912f017ec2868f7ea38f2457742c5","id":74360127,"location_subtype":"","month":"2019-05"},{"category":"possession-of-weapons","location_type":"Force","location":{"latitude":"51.478863","street":{"id":947756,"name":"On or near Appold Street"},"longitude":"0.186183"},"context":"","outcome_status":{"category":"Status update unavailable","date":"2019-09"},"persistent_id":"8406c7bcc03268f5e6fcdc77dd4181288a290979a2112d6105948e2623591c2d","id":74345812,"location_subtype":"","month":"2019-05"},{"category":"possession-of-weapons","location_type":"Force","location":{"latitude":"51.478863","street":{"id":947756,"name":"On or near Appold Street"},"longitude":"0.186183"},"context":"","outcome_status":{"category":"Status update unavailable","date":"2019-09"},"persistent_id":"8406c7bcc03268f5e6fcdc77dd4181288a290979a2112d6105948e2623591c2d","id":74345810,"location_subtype":"","month":"2019-05"},{"category":"possession-of-weapons","location_type":"Force","location":{"latitude":"51.478863","street":{"id":947756,"name":"On or near Appold Street"},"longitude":"0.186183"},"context":"","outcome_status":{"category":"Status update unavailable","date":"2019-09"},"persistent_id":"8406c7bcc03268f5e6fcdc77dd4181288a290979a2112d6105948e2623591c2d","id":74345811,"location_subtype":"","month":"2019-05"},{"category":"possession-of-weapons","location_type":"Force","location":{"latitude":"51.456275","street":{"id":941011,"name":"On or near Thames Road"},"longitude":"0.201427"},"context":"","outcome_status":{"category":"Court result unavailable","date":"2020-03"},"persistent_id":"1bb7a25ed6a4694e542c60dd63b5a30d14626b7c491830c6859659c226baaba1","id":74351511,"location_subtype":"","month":"2019-05"},{"category":"public-order","location_type":"Force","location":{"latitude":"51.471606","street":{"id":947674,"name":"On or near Slade Green Road"},"longitude":"0.190977"},"context":"","outcome_status":{"category":"Status update unavailable","date":"2019-09"},"persistent_id":"8274e163449e27d113d7cf2c4ed5540a5c51559d27e413f4f207927fc90ddf4e","id":74346754,"location_subtype":"","month":"2019-05"},{"category":"public-order","location_type":"Force","location":{"latitude":"51.479557","street":{"id":947749,"name":"On or near James Watt Way"},"longitude":"0.182731"},"context":"","outcome_status":{"category":"Status update unavailable","date":"2019-09"},"persistent_id":"900cd9236de308958f5a24c6cfd9e3479049636e16ef87dfa2c1e886ca82e77d","id":74332275,"location_subtype":"","month":"2019-05"},{"category":"public-order","location_type":"Force","location":{"latitude":"51.479557","street":{"id":947749,"name":"On or near James Watt Way"},"longitude":"0.182731"},"context":"","outcome_status":{"category":"Status update unavailable","date":"2019-09"},"persistent_id":"900cd9236de308958f5a24c6cfd9e3479049636e16ef87dfa2c1e886ca82e77d","id":74332276,"location_subtype":"","month":"2019-05"},{"category":"public-order","location_type":"Force","location":{"latitude":"51.471096","street":{"id":947590,"name":"On or near Shopping Area"},"longitude":"0.180239"},"context":"","outcome_status":{"category":"Status update unavailable","date":"2019-09"},"persistent_id":"82ecfd259ded9779cab9e5e9806ae8a9cc9fbf3cfe5dee7ad112f215d3368910","id":74355825,"location_subtype":"","month":"2019-05"},{"category":"public-order","location_type":"Force","location":{"latitude":"51.467284","street":{"id":947631,"name":"On or near Castleton Avenue"},"longitude":"0.169029"},"context":"","outcome_status":{"category":"Investigation complete; no suspect identified","date":"2020-03"},"persistent_id":"2911b4d0ecffb2621074b2cbbd0d73bf32b7b393e5d882c6db014fcd6259be9e","id":74332832,"location_subtype":"","month":"2019-05"},{"category":"public-order","location_type":"Force","location":{"latitude":"51.474709","street":{"id":947772,"name":"On or near Festival Close"},"longitude":"0.183767"},"context":"","outcome_status":{"category":"Status update unavailable","date":"2019-09"},"persistent_id":"cfd36686555982e67c168e37e5646597dbc8f0e4fe42e5662204792017758671","id":74306486,"location_subtype":"","month":"2019-05"},{"category":"public-order","location_type":"Force","location":{"latitude":"51.467082","street":{"id":947598,"name":"On or near Quantock Road"},"longitude":"0.177039"},"context":"","outcome_status":{"category":"Status update unavailable","date":"2019-09"},"persistent_id":"35c2ce2deb5342ccf073a85febda0f0664590aa6cac8ae0b6e4cd3f4fe35f87e","id":74354295,"location_subtype":"","month":"2019-05"},{"category":"public-order","location_type":"Force","location":{"latitude":"51.464575","street":{"id":947607,"name":"On or near Eversley Cross"},"longitude":"0.177380"},"context":"","outcome_status":{"category":"Status update unavailable","date":"2019-09"},"persistent_id":"2dc2f18f1333767daff83dd9fcc0a1dd382e0211958a5cc61fb77bac1b4c69eb","id":74328886,"location_subtype":"","month":"2019-05"},{"category":"public-order","location_type":"Force","location":{"latitude":"51.471606","street":{"id":947674,"name":"On or near Slade Green Road"},"longitude":"0.190977"},"context":"","outcome_status":{"category":"Status update unavailable","date":"2019-09"},"persistent_id":"8274e163449e27d113d7cf2c4ed5540a5c51559d27e413f4f207927fc90ddf4e","id":74346755,"location_subtype":"","month":"2019-05"},{"category":"public-order","location_type":"Force","location":{"latitude":"51.478494","street":{"id":947748,"name":"On or near Manor Road"},"longitude":"0.181888"},"context":"","outcome_status":{"category":"Status update unavailable","date":"2019-09"},"persistent_id":"a8f22a2655625a5216bf40cc147427fc8c40abd3e38460d835cc0fbdd245e628","id":74302008,"location_subtype":"","month":"2019-05"},{"category":"public-order","location_type":"Force","location":{"latitude":"51.468528","street":{"id":947671,"name":"On or near Sports\/recreation Area"},"longitude":"0.193997"},"context":"","outcome_status":{"category":"Status update unavailable","date":"2019-09"},"persistent_id":"56cffd41268ce6ebe300bc4e0ce84d004350efd43f651051afef7a3598841c04","id":74337301,"location_subtype":"","month":"2019-05"},{"category":"public-order","location_type":"Force","location":{"latitude":"51.465095","street":{"id":947559,"name":"On or near Sun Court"},"longitude":"0.186173"},"context":"","outcome_status":{"category":"Status update unavailable","date":"2019-09"},"persistent_id":"8d30c75e05684f9357fd1a2424d1e570e35165a87908e77004148f38265a5004","id":74317181,"location_subtype":"","month":"2019-05"},{"category":"public-order","location_type":"Force","location":{"latitude":"51.476408","street":{"id":947780,"name":"On or near Sports\/recreation Area"},"longitude":"0.177958"},"context":"","outcome_status":{"category":"Status update unavailable","date":"2019-09"},"persistent_id":"4e855981da38ae324fd23ad26f0458f172b21fdabd39b7a8254d0143b9e42d90","id":74321723,"location_subtype":"","month":"2019-05"},{"category":"public-order","location_type":"Force","location":{"latitude":"51.468709","street":{"id":947581,"name":"On or near Bridge Road"},"longitude":"0.186274"},"context":"","outcome_status":{"category":"Status update unavailable","date":"2019-09"},"persistent_id":"12a4012cc2c0287d96d33da7fa366254cf4dded9c2d3aff3b286c70477e72f64","id":74327475,"location_subtype":"","month":"2019-05"},{"category":"public-order","location_type":"Force","location":{"latitude":"51.463946","street":{"id":947653,"name":"On or near Eversley Cross"},"longitude":"0.177364"},"context":"","outcome_status":{"category":"Status update unavailable","date":"2019-09"},"persistent_id":"4f2aba19a963a53a47e7979eb2e16c366040b30d4c25ba18c7c44bd57a39e0d9","id":74355627,"location_subtype":"","month":"2019-05"},{"category":"public-order","location_type":"Force","location":{"latitude":"51.477483","street":{"id":947753,"name":"On or near Compton Place"},"longitude":"0.181566"},"context":"","outcome_status":{"category":"Status update unavailable","date":"2019-09"},"persistent_id":"b545199cc4fb8adaee5535ff976e246fc5ce356176e37541edf1ed745559de46","id":74302758,"location_subtype":"","month":"2019-05"},{"category":"public-order","location_type":"Force","location":{"latitude":"51.470222","street":{"id":947677,"name":"On or near Larkswood Close"},"longitude":"0.192883"},"context":"","outcome_status":{"category":"Status update unavailable","date":"2019-09"},"persistent_id":"9e37254cf92155c85429f77d3d1183ce8134b32e6d6712b3d2b9f89dc69e4425","id":74328627,"location_subtype":"","month":"2019-05"},{"category":"public-order","location_type":"Force","location":{"latitude":"51.480159","street":{"id":947761,"name":"On or near Supermarket"},"longitude":"0.184690"},"context":"","outcome_status":{"category":"Status update unavailable","date":"2019-09"},"persistent_id":"c0f28bc0d4c8e9e3edea64c4c498ae6442a81406af77fc122b1643549a7fecc1","id":74332833,"location_subtype":"","month":"2019-05"},{"category":"public-order","location_type":"Force","location":{"latitude":"51.456275","street":{"id":941011,"name":"On or near Thames Road"},"longitude":"0.201427"},"context":"","outcome_status":{"category":"Unable to prosecute suspect","date":"2019-07"},"persistent_id":"0855674e28b6cf495296acdc85d7094fe10a3f777db846126947bee76485d04d","id":74933054,"location_subtype":"","month":"2019-05"},{"category":"public-order","location_type":"Force","location":{"latitude":"51.468879","street":{"id":947566,"name":"On or near Northend Road"},"longitude":"0.180997"},"context":"","outcome_status":{"category":"Status update unavailable","date":"2019-09"},"persistent_id":"ef26b3466622c8ebe0ff95f3033ba25db385fb47f947cead01684a3743b9ed35","id":74372508,"location_subtype":"","month":"2019-05"},{"category":"public-order","location_type":"Force","location":{"latitude":"51.474709","street":{"id":947772,"name":"On or near Festival Close"},"longitude":"0.183767"},"context":"","outcome_status":{"category":"Status update unavailable","date":"2019-09"},"persistent_id":"18bb5312ea36c5aa92007b5a1de3fa69b1a6f5431e24e11cbebdecb6a78a929c","id":74347704,"location_subtype":"","month":"2019-05"},{"category":"robbery","location_type":"Force","location":{"latitude":"51.463949","street":{"id":947567,"name":"On or near Northend Road"},"longitude":"0.182044"},"context":"","outcome_status":{"category":"Status update unavailable","date":"2019-09"},"persistent_id":"0e6588664fd494c3e32b7dc5c05d153503070f769700a1e808ff64dd61668e83","id":74296743,"location_subtype":"","month":"2019-05"},{"category":"robbery","location_type":"Force","location":{"latitude":"51.460117","street":{"id":941067,"name":"On or near Ashurst Close"},"longitude":"0.181141"},"context":"","outcome_status":{"category":"Status update unavailable","date":"2019-09"},"persistent_id":"1d59911ce6b5574693eac4a3acd03353e96c55ea8579b811b3fe1b9ecfcc3c95","id":74313845,"location_subtype":"","month":"2019-05"},{"category":"robbery","location_type":"Force","location":{"latitude":"51.463485","street":{"id":947640,"name":"On or near Parkside Avenue"},"longitude":"0.181834"},"context":"","outcome_status":{"category":"Status update unavailable","date":"2019-09"},"persistent_id":"8613d0cff9c4cf847ce34fc8962074e2203373e3db1b6a8c250d6cf1b4c3a7aa","id":74301101,"location_subtype":"","month":"2019-05"},{"category":"shoplifting","location_type":"Force","location":{"latitude":"51.479184","street":{"id":947732,"name":"On or near Queen Street"},"longitude":"0.180078"},"context":"","outcome_status":{"category":"Status update unavailable","date":"2019-09"},"persistent_id":"0ea45d922bf84a54b6c7724cdf438037a435ed4cbda7740abc68f2d585d0af13","id":74349783,"location_subtype":"","month":"2019-05"},{"category":"shoplifting","location_type":"Force","location":{"latitude":"51.467977","street":{"id":947672,"name":"On or near Pedestrian Subway"},"longitude":"0.190270"},"context":"","outcome_status":{"category":"Status update unavailable","date":"2019-09"},"persistent_id":"7ea7538f371727241e742c7c2ec7179e0d67a8bc98e588c79ac437aaa48e8b54","id":74354498,"location_subtype":"","month":"2019-05"},{"category":"shoplifting","location_type":"Force","location":{"latitude":"51.478494","street":{"id":947748,"name":"On or near Manor Road"},"longitude":"0.181888"},"context":"","outcome_status":{"category":"Court result unavailable","date":"2020-04"},"persistent_id":"a4735a71e3d5bf590ed52f3550e08c9150ad90409bbc91217d46583e1f3b5b86","id":74292849,"location_subtype":"","month":"2019-05"},{"category":"shoplifting","location_type":"Force","location":{"latitude":"51.467977","street":{"id":947672,"name":"On or near Pedestrian Subway"},"longitude":"0.190270"},"context":"","outcome_status":{"category":"Status update unavailable","date":"2019-09"},"persistent_id":"6128348f1da514dd1111c7b6e9e3efa11fa21a507903bff63814cad6763768bc","id":74347086,"location_subtype":"","month":"2019-05"},{"category":"theft-from-the-person","location_type":"Force","location":{"latitude":"51.471236","street":{"id":947491,"name":"On or near Colyers Close"},"longitude":"0.168338"},"context":"","outcome_status":{"category":"Status update unavailable","date":"2019-09"},"persistent_id":"df457a334e312f06ea42857570384e91b8b0950a16a19a2ed85384bc07959f77","id":74372551,"location_subtype":"","month":"2019-05"},{"category":"theft-from-the-person","location_type":"Force","location":{"latitude":"51.463946","street":{"id":947653,"name":"On or near Eversley Cross"},"longitude":"0.177364"},"context":"","outcome_status":{"category":"Status update unavailable","date":"2019-09"},"persistent_id":"32f12c65ad87ad66d9e504e73d94f91888688e02200adf5564e7ede02ba6389e","id":74312802,"location_subtype":"","month":"2019-05"},{"category":"vehicle-crime","location_type":"Force","location":{"latitude":"51.454136","street":{"id":941061,"name":"On or near Green Walk"},"longitude":"0.183605"},"context":"","outcome_status":{"category":"Status update unavailable","date":"2019-09"},"persistent_id":"28aa325378bc02df0401b8b8f9e3001ad40774ee492c38f6685b4b612c022c17","id":74372865,"location_subtype":"","month":"2019-05"},{"category":"vehicle-crime","location_type":"Force","location":{"latitude":"51.476496","street":{"id":947700,"name":"On or near Bilton Road"},"longitude":"0.192579"},"context":"","outcome_status":{"category":"Status update unavailable","date":"2019-09"},"persistent_id":"be7bfbae0ac3cfd88008167f15a644ee98b438b43e5b4e1c87a38bd5fcdc7f81","id":74368349,"location_subtype":"","month":"2019-05"},{"category":"vehicle-crime","location_type":"Force","location":{"latitude":"51.471150","street":{"id":947562,"name":"On or near Plantation Road"},"longitude":"0.189414"},"context":"","outcome_status":{"category":"Investigation complete; no suspect identified","date":"2020-03"},"persistent_id":"5800b67c1b2ddfc23ec46fc4ecfd53cf387e5b0c0e586da90e723d0b69174a1c","id":74328036,"location_subtype":"","month":"2019-05"},{"category":"vehicle-crime","location_type":"Force","location":{"latitude":"51.475172","street":{"id":947776,"name":"On or near Thanet Road"},"longitude":"0.180146"},"context":"","outcome_status":{"category":"Status update unavailable","date":"2019-09"},"persistent_id":"2707151dfd19e23e033369535c2092f7b95fe0847ef03337dd75bbe9ca5a5d9a","id":74353539,"location_subtype":"","month":"2019-05"},{"category":"vehicle-crime","location_type":"Force","location":{"latitude":"51.467977","street":{"id":947672,"name":"On or near Pedestrian Subway"},"longitude":"0.190270"},"context":"","outcome_status":{"category":"Status update unavailable","date":"2019-09"},"persistent_id":"30bdd8c653e2edb93055fc585b52338131610a5a9e88762d9f34fb2f7c7b51b0","id":74313003,"location_subtype":"","month":"2019-05"},{"category":"vehicle-crime","location_type":"Force","location":{"latitude":"51.475956","street":{"id":947786,"name":"On or near Avenue Road"},"longitude":"0.171787"},"context":"","outcome_status":{"category":"Status update unavailable","date":"2019-09"},"persistent_id":"da068bb9c2a49491fadbbe58fe8656662319254e828e507a96cd42e229ede845","id":74370347,"location_subtype":"","month":"2019-05"},{"category":"vehicle-crime","location_type":"Force","location":{"latitude":"51.472571","street":{"id":947683,"name":"On or near Alderney Road"},"longitude":"0.194220"},"context":"","outcome_status":{"category":"Status update unavailable","date":"2019-09"},"persistent_id":"c9a3107802297a7fdb54f63e32ccf18b112721ee33ee8d9d3ad0f3f2f92f79d3","id":74304857,"location_subtype":"","month":"2019-05"},{"category":"vehicle-crime","location_type":"Force","location":{"latitude":"51.455570","street":{"id":940996,"name":"On or near Mill Place"},"longitude":"0.193462"},"context":"","outcome_status":{"category":"Status update unavailable","date":"2019-09"},"persistent_id":"a483366dd72005ee6dd8e687465f3a38bf374b2cce633b5314d5f3ca777acdf2","id":74312989,"location_subtype":"","month":"2019-05"},{"category":"vehicle-crime","location_type":"Force","location":{"latitude":"51.465095","street":{"id":947559,"name":"On or near Sun Court"},"longitude":"0.186173"},"context":"","outcome_status":{"category":"Status update unavailable","date":"2019-09"},"persistent_id":"dadc5db4c4eb66ca25862fe17933683228081d2348f7115a25078b91a3f3b432","id":74319685,"location_subtype":"","month":"2019-05"},{"category":"vehicle-crime","location_type":"Force","location":{"latitude":"51.465619","street":{"id":947593,"name":"On or near Venners Close"},"longitude":"0.175918"},"context":"","outcome_status":{"category":"Status update unavailable","date":"2019-09"},"persistent_id":"817d455c5e18edbb6fa471ffb9b5ef19b2e1ccd7a71982592c821e5951ca285d","id":74354119,"location_subtype":"","month":"2019-05"},{"category":"vehicle-crime","location_type":"Force","location":{"latitude":"51.456193","street":{"id":941050,"name":"On or near Woollett Close"},"longitude":"0.187590"},"context":"","outcome_status":{"category":"Status update unavailable","date":"2019-09"},"persistent_id":"85ec1666fbdd1a71a433a0f786b0678a803231feb25a5dcb1ed1325eafeead67","id":74369371,"location_subtype":"","month":"2019-05"},{"category":"vehicle-crime","location_type":"Force","location":{"latitude":"51.477582","street":{"id":947740,"name":"On or near Avenue Road"},"longitude":"0.177251"},"context":"","outcome_status":{"category":"Status update unavailable","date":"2019-09"},"persistent_id":"14bbebf61a5f378df5b70303d01c58a831d1c350e27588d8779b1d3bcb687959","id":74329701,"location_subtype":"","month":"2019-05"},{"category":"vehicle-crime","location_type":"Force","location":{"latitude":"51.455359","street":{"id":941051,"name":"On or near Woodfall Drive"},"longitude":"0.179720"},"context":"","outcome_status":{"category":"Status update unavailable","date":"2019-09"},"persistent_id":"391a6e48110971a08c4ddfdbbaefa7a516dbf642f9fb633ac05d29cd819cc356","id":74360556,"location_subtype":"","month":"2019-05"},{"category":"vehicle-crime","location_type":"Force","location":{"latitude":"51.471633","street":{"id":947630,"name":"On or near Colyers Lane"},"longitude":"0.171164"},"context":"","outcome_status":{"category":"Status update unavailable","date":"2019-09"},"persistent_id":"c14ecba7977c0cdc17a5b40ae23ff92083ce21d69a25f6983c93789f2a45b11a","id":74319053,"location_subtype":"","month":"2019-05"},{"category":"vehicle-crime","location_type":"Force","location":{"latitude":"51.473677","street":{"id":947694,"name":"On or near Longreach Road"},"longitude":"0.196635"},"context":"","outcome_status":{"category":"Status update unavailable","date":"2019-09"},"persistent_id":"24ba455335fc64ec642754f002db3f84df7e7a85fa1c5b6b5c3eeb1e743dc919","id":74361373,"location_subtype":"","month":"2019-05"},{"category":"vehicle-crime","location_type":"Force","location":{"latitude":"51.473405","street":{"id":947592,"name":"On or near Waterhead Close"},"longitude":"0.178924"},"context":"","outcome_status":{"category":"Status update unavailable","date":"2019-09"},"persistent_id":"0b3a10719798dce88035f79b69ca8158cce891defbcb14e1cb298aeb1a73f3b0","id":74361377,"location_subtype":"","month":"2019-05"},{"category":"vehicle-crime","location_type":"Force","location":{"latitude":"51.478918","street":{"id":947755,"name":"On or near Aveley Close"},"longitude":"0.184702"},"context":"","outcome_status":{"category":"Status update unavailable","date":"2019-09"},"persistent_id":"cbfaacb4eab03c33244cd6a1837fa089dab5e3f7d5a94eddc55e0085ca527be5","id":74362023,"location_subtype":"","month":"2019-05"},{"category":"vehicle-crime","location_type":"Force","location":{"latitude":"51.459232","street":{"id":941057,"name":"On or near Stour Road"},"longitude":"0.189074"},"context":"","outcome_status":{"category":"Investigation complete; no suspect identified","date":"2020-04"},"persistent_id":"d7d637f2ae47e7a5ad32a67ccfe1dd9ea115dc1e5702523d03a9f56b7cebcff0","id":74296171,"location_subtype":"","month":"2019-05"},{"category":"vehicle-crime","location_type":"Force","location":{"latitude":"51.455330","street":{"id":941058,"name":"On or near Oak Close"},"longitude":"0.179344"},"context":"","outcome_status":{"category":"Status update unavailable","date":"2019-09"},"persistent_id":"416a1b0f632133a281d866fd13b5323f471af5a385ea4ce673abf4ae16273f50","id":74362234,"location_subtype":"","month":"2019-05"},{"category":"vehicle-crime","location_type":"Force","location":{"latitude":"51.461042","street":{"id":947685,"name":"On or near Kennet Road"},"longitude":"0.193753"},"context":"","outcome_status":{"category":"Status update unavailable","date":"2019-09"},"persistent_id":"ab9c83e0e91a096cfd40c34954516afdf0d494a4cc208f839ff1bdfc38252d40","id":74330335,"location_subtype":"","month":"2019-05"},{"category":"vehicle-crime","location_type":"Force","location":{"latitude":"51.475626","street":{"id":947783,"name":"On or near Coniston Close"},"longitude":"0.173586"},"context":"","outcome_status":{"category":"Status update unavailable","date":"2019-09"},"persistent_id":"37966e3b8064cbcb2ebbb98f48284a765b9627a014075076e8caeb60eccbc6bf","id":74367650,"location_subtype":"","month":"2019-05"},{"category":"vehicle-crime","location_type":"Force","location":{"latitude":"51.476496","street":{"id":947700,"name":"On or near Bilton Road"},"longitude":"0.192579"},"context":"","outcome_status":{"category":"Status update unavailable","date":"2019-09"},"persistent_id":"bb953ed58329e2817f229806c589b4288a128d4451eb367546e2286d3af1e1dc","id":74344473,"location_subtype":"","month":"2019-05"},{"category":"vehicle-crime","location_type":"Force","location":{"latitude":"51.455255","street":{"id":941007,"name":"On or near Sports\/recreation Area"},"longitude":"0.195908"},"context":"","outcome_status":{"category":"Status update unavailable","date":"2019-09"},"persistent_id":"9584ff8e35c9472622d7fd7dcb55fa85785c2a898bb7a33dffcdc830db7f8fa9","id":74321339,"location_subtype":"","month":"2019-05"},{"category":"vehicle-crime","location_type":"Force","location":{"latitude":"51.466484","street":{"id":947557,"name":"On or near Wessex Drive"},"longitude":"0.180163"},"context":"","outcome_status":{"category":"Status update unavailable","date":"2019-09"},"persistent_id":"ec181ea5c44c428d8a881db26aefe14fccf072d4a5b3dd21426ab55aa4e0d8ad","id":74294003,"location_subtype":"","month":"2019-05"},{"category":"vehicle-crime","location_type":"Force","location":{"latitude":"51.474078","street":{"id":947770,"name":"On or near Guild Road"},"longitude":"0.182354"},"context":"","outcome_status":{"category":"Investigation complete; no suspect identified","date":"2020-09"},"persistent_id":"f9303101033dcb2eb49eec434453e44931b2469dbef2675841003827758b78a9","id":74370060,"location_subtype":"","month":"2019-05"},{"category":"vehicle-crime","location_type":"Force","location":{"latitude":"51.475806","street":{"id":947764,"name":"On or near Shermanbury Close"},"longitude":"0.182322"},"context":"","outcome_status":{"category":"Status update unavailable","date":"2019-09"},"persistent_id":"433459d11f6e6457dc60dcfc5c331b822d030a8020f5656bb8df6bb01a5fe1fd","id":74371067,"location_subtype":"","month":"2019-05"},{"category":"vehicle-crime","location_type":"Force","location":{"latitude":"51.466687","street":{"id":947583,"name":"On or near Barnett Close"},"longitude":"0.182318"},"context":"","outcome_status":{"category":"Status update unavailable","date":"2019-09"},"persistent_id":"ce67b4d55877bc5ebd9f75e893d3358cab590fc1132099e65329b305bd8d87db","id":74333554,"location_subtype":"","month":"2019-05"},{"category":"vehicle-crime","location_type":"Force","location":{"latitude":"51.478494","street":{"id":947748,"name":"On or near Manor Road"},"longitude":"0.181888"},"context":"","outcome_status":{"category":"Status update unavailable","date":"2019-09"},"persistent_id":"ea76bd99fd089bf526204677a5d2448b330a4a39866fa588309789cdfadcd124","id":74333102,"location_subtype":"","month":"2019-05"},{"category":"vehicle-crime","location_type":"Force","location":{"latitude":"51.468767","street":{"id":947682,"name":"On or near Cedar Road"},"longitude":"0.191805"},"context":"","outcome_status":{"category":"Status update unavailable","date":"2019-09"},"persistent_id":"e61d3372d0a1ea78f26eb38fa00d35c3ac9bc83ff004dc8825e3b76ecc57ea3f","id":74304771,"location_subtype":"","month":"2019-05"},{"category":"vehicle-crime","location_type":"Force","location":{"latitude":"51.471229","street":{"id":947564,"name":"On or near Northend Road"},"longitude":"0.180807"},"context":"","outcome_status":{"category":"Status update unavailable","date":"2019-09"},"persistent_id":"bdf45d0a3a8626bc29128e44fe61c7e54ba1dd2fd105b3b4a01a5baf3e258737","id":74337228,"location_subtype":"","month":"2019-05"},{"category":"vehicle-crime","location_type":"Force","location":{"latitude":"51.473848","street":{"id":947692,"name":"On or near Sandpiper Drive"},"longitude":"0.199508"},"context":"","outcome_status":{"category":"Status update unavailable","date":"2019-09"},"persistent_id":"cfb448325042be9b870251a53030bde1cada092753272b99dcfde15b1de4ca75","id":74295520,"location_subtype":"","month":"2019-05"},{"category":"vehicle-crime","location_type":"Force","location":{"latitude":"51.478494","street":{"id":947748,"name":"On or near Manor Road"},"longitude":"0.181888"},"context":"","outcome_status":{"category":"Status update unavailable","date":"2019-09"},"persistent_id":"5dea48c93358e124fe9a82d6bd7fbe3dbf5d6e3588e035d97586c6637a68b199","id":74352580,"location_subtype":"","month":"2019-05"},{"category":"vehicle-crime","location_type":"Force","location":{"latitude":"51.465095","street":{"id":947559,"name":"On or near Sun Court"},"longitude":"0.186173"},"context":"","outcome_status":{"category":"Status update unavailable","date":"2019-09"},"persistent_id":"36eeefee0aca1066d22bbc1edf71c39595ddcf936cd3da99a549bf8727823165","id":74336924,"location_subtype":"","month":"2019-05"},{"category":"vehicle-crime","location_type":"Force","location":{"latitude":"51.474872","street":{"id":947691,"name":"On or near Snipe Close"},"longitude":"0.196217"},"context":"","outcome_status":{"category":"Status update unavailable","date":"2019-09"},"persistent_id":"c3437b8721acb66ccf3e22e7466c6a44c4ced18b1c262be8dce32254e630217c","id":74314337,"location_subtype":"","month":"2019-05"},{"category":"vehicle-crime","location_type":"Force","location":{"latitude":"51.471633","street":{"id":947630,"name":"On or near Colyers Lane"},"longitude":"0.171164"},"context":"","outcome_status":{"category":"Status update unavailable","date":"2019-09"},"persistent_id":"bb472f976fc2960809b8f361b440e89e66bcbef2f533d646ef6188274f5b4864","id":74366453,"location_subtype":"","month":"2019-05"},{"category":"vehicle-crime","location_type":"Force","location":{"latitude":"51.471987","street":{"id":947563,"name":"On or near Page Crescent"},"longitude":"0.185019"},"context":"","outcome_status":{"category":"Status update unavailable","date":"2019-09"},"persistent_id":"85725def0e4bca22bd1b4846f14dfe51ca371bd723985b06a23b222d9825a1ac","id":74350358,"location_subtype":"","month":"2019-05"},{"category":"vehicle-crime","location_type":"Force","location":{"latitude":"51.471236","street":{"id":947491,"name":"On or near Colyers Close"},"longitude":"0.168338"},"context":"","outcome_status":{"category":"Status update unavailable","date":"2019-09"},"persistent_id":"34f703d57eecc00dfcf2ac6b2e7a5c4c8dbef1eef90918df2e2f47c43e48d8fb","id":74362021,"location_subtype":"","month":"2019-05"},{"category":"vehicle-crime","location_type":"Force","location":{"latitude":"51.454587","street":{"id":941059,"name":"On or near Iron Mill Place"},"longitude":"0.182562"},"context":"","outcome_status":{"category":"Status update unavailable","date":"2019-09"},"persistent_id":"1bf4293ee96a10180c61ac3fc673574b9604907afe1fa316a13802b0be738ca9","id":74303475,"location_subtype":"","month":"2019-05"},{"category":"vehicle-crime","location_type":"Force","location":{"latitude":"51.466687","street":{"id":947583,"name":"On or near Barnett Close"},"longitude":"0.182318"},"context":"","outcome_status":{"category":"Status update unavailable","date":"2019-09"},"persistent_id":"c0f456379581f0171869e23fcf3499d17daa6ffb61e206e598f0aaf5d1864e78","id":74336247,"location_subtype":"","month":"2019-05"},{"category":"vehicle-crime","location_type":"Force","location":{"latitude":"51.477484","street":{"id":947752,"name":"On or near Cornwallis Close"},"longitude":"0.187313"},"context":"","outcome_status":{"category":"Status update unavailable","date":"2019-09"},"persistent_id":"5499282579ea5766cacd3a371e4901450aceee192e9843f77d57fd44f03ee0a9","id":74339236,"location_subtype":"","month":"2019-05"},{"category":"vehicle-crime","location_type":"Force","location":{"latitude":"51.456261","street":{"id":941006,"name":"On or near Crayford Way"},"longitude":"0.195482"},"context":"","outcome_status":{"category":"Status update unavailable","date":"2019-09"},"persistent_id":"5482908fbe1c96ce4c6c3816202fb6c663932415d1a1ef00205b8743b7f868df","id":74339336,"location_subtype":"","month":"2019-05"},{"category":"vehicle-crime","location_type":"Force","location":{"latitude":"51.473405","street":{"id":947592,"name":"On or near Waterhead Close"},"longitude":"0.178924"},"context":"","outcome_status":{"category":"Status update unavailable","date":"2019-09"},"persistent_id":"d87f3f3dbeb257617e08bccd59785ec8db8528ce7bb350011d0ebbb621d932cb","id":74339337,"location_subtype":"","month":"2019-05"},{"category":"vehicle-crime","location_type":"Force","location":{"latitude":"51.463949","street":{"id":947567,"name":"On or near Northend Road"},"longitude":"0.182044"},"context":"","outcome_status":{"category":"Status update unavailable","date":"2019-09"},"persistent_id":"c0fc3f0002bcf1d57df4d660f5611ff3442f769d653ed2bc480f49fecc552645","id":74336246,"location_subtype":"","month":"2019-05"},{"category":"vehicle-crime","location_type":"Force","location":{"latitude":"51.454204","street":{"id":941064,"name":"On or near Crayford Way"},"longitude":"0.187193"},"context":"","outcome_status":{"category":"Status update unavailable","date":"2019-09"},"persistent_id":"ec4aee9c4bc5f5505d25df1d986edc88b3405242c4f1d98eb01abc65358fd16d","id":74293769,"location_subtype":"","month":"2019-05"},{"category":"violent-crime","location_type":"Force","location":{"latitude":"51.468167","street":{"id":947587,"name":"On or near Sports\/recreation Area"},"longitude":"0.188321"},"context":"","outcome_status":{"category":"Status update unavailable","date":"2019-09"},"persistent_id":"ad5eab3f959715cbd15e975b6592a02b21804faf589715e1f304b2149d2e2290","id":74359652,"location_subtype":"","month":"2019-05"},{"category":"violent-crime","location_type":"Force","location":{"latitude":"51.467977","street":{"id":947672,"name":"On or near Pedestrian Subway"},"longitude":"0.190270"},"context":"","outcome_status":{"category":"Status update unavailable","date":"2019-09"},"persistent_id":"29e8ff6865650e48fecb6568124ee6ffbaa1ef041402ae0bbf2df971ce6ebd91","id":74360660,"location_subtype":"","month":"2019-05"},{"category":"violent-crime","location_type":"Force","location":{"latitude":"51.471606","street":{"id":947674,"name":"On or near Slade Green Road"},"longitude":"0.190977"},"context":"","outcome_status":{"category":"Status update unavailable","date":"2019-09"},"persistent_id":"00090076039272c4e87122fbc918932b661bfb6f05de4a8d23a4c7fb7ee40122","id":74367561,"location_subtype":"","month":"2019-05"},{"category":"violent-crime","location_type":"Force","location":{"latitude":"51.471150","street":{"id":947562,"name":"On or near Plantation Road"},"longitude":"0.189414"},"context":"","outcome_status":{"category":"Status update unavailable","date":"2019-09"},"persistent_id":"70d8d8ca8532687a34c30bdc6bb7dc36d9fcfad1fef4a8378554c7ea8311c50f","id":74301643,"location_subtype":"","month":"2019-05"},{"category":"violent-crime","location_type":"Force","location":{"latitude":"51.470606","street":{"id":947662,"name":"On or near Rodeo Close"},"longitude":"0.196861"},"context":"","outcome_status":{"category":"Status update unavailable","date":"2019-09"},"persistent_id":"37c16730801fadb784b17129897ed1f44620206887d2303e64c4927044d5d625","id":74322880,"location_subtype":"","month":"2019-05"},{"category":"violent-crime","location_type":"Force","location":{"latitude":"51.469812","street":{"id":947617,"name":"On or near Brendon Close"},"longitude":"0.176290"},"context":"","outcome_status":{"category":"Status update unavailable","date":"2019-09"},"persistent_id":"7104aa6c4d7bb10bbf1defb97d17d9bbe7b9e3e9ec4e5807692a1544301b79ba","id":74365576,"location_subtype":"","month":"2019-05"},{"category":"violent-crime","location_type":"Force","location":{"latitude":"51.477536","street":{"id":947757,"name":"On or near Aperfield Road"},"longitude":"0.185515"},"context":"","outcome_status":{"category":"Status update unavailable","date":"2019-09"},"persistent_id":"c847884a5cbf17b297a6097e72e72302c81a52979f996db2922bdee161809acf","id":74300462,"location_subtype":"","month":"2019-05"},{"category":"violent-crime","location_type":"Force","location":{"latitude":"51.463946","street":{"id":947653,"name":"On or near Eversley Cross"},"longitude":"0.177364"},"context":"","outcome_status":{"category":"Status update unavailable","date":"2019-09"},"persistent_id":"3acb28462eba706420730377e35e32f72a23161df5cf19b8ec2c45d86a0251c0","id":74299921,"location_subtype":"","month":"2019-05"},{"category":"violent-crime","location_type":"Force","location":{"latitude":"51.454633","street":{"id":941066,"name":"On or near Barnes Cray Road"},"longitude":"0.188739"},"context":"","outcome_status":{"category":"Status update unavailable","date":"2019-09"},"persistent_id":"524edb0e8785c7b6894b58f3afda46d2ddb81a245a54afd29f08aaee6e809dbd","id":74299917,"location_subtype":"","month":"2019-05"},{"category":"violent-crime","location_type":"Force","location":{"latitude":"51.457621","street":{"id":940995,"name":"On or near Russell Close"},"longitude":"0.192020"},"context":"","outcome_status":{"category":"Status update unavailable","date":"2019-09"},"persistent_id":"b08ac06ea868c1ae378591e3e12568bcd9d39b0863d92053859b6be42835bdcd","id":74299781,"location_subtype":"","month":"2019-05"},{"category":"violent-crime","location_type":"Force","location":{"latitude":"51.463946","street":{"id":947653,"name":"On or near Eversley Cross"},"longitude":"0.177364"},"context":"","outcome_status":{"category":"Status update unavailable","date":"2019-09"},"persistent_id":"9f560d9e650ab6177698a7c015ff7b9668471e30a797f156cc3e432fb7649c41","id":74307372,"location_subtype":"","month":"2019-05"},{"category":"violent-crime","location_type":"Force","location":{"latitude":"51.460164","street":{"id":940994,"name":"On or near Shuttle Road"},"longitude":"0.189709"},"context":"","outcome_status":{"category":"Status update unavailable","date":"2019-09"},"persistent_id":"41084fb7ce9ff1ea6e42e37c3763c98c9ed47ec24497452066622508fe9f31ba","id":74307222,"location_subtype":"","month":"2019-05"},{"category":"violent-crime","location_type":"Force","location":{"latitude":"51.473460","street":{"id":947696,"name":"On or near Jenningtree Road"},"longitude":"0.198107"},"context":"","outcome_status":{"category":"Status update unavailable","date":"2019-09"},"persistent_id":"f174e33312ecb5c17cfb0e26481d22ec377632f22c39e3f6c388d790b6ef63c5","id":74301867,"location_subtype":"","month":"2019-05"},{"category":"violent-crime","location_type":"Force","location":{"latitude":"51.468879","street":{"id":947566,"name":"On or near Northend Road"},"longitude":"0.180997"},"context":"","outcome_status":{"category":"Status update unavailable","date":"2019-09"},"persistent_id":"a2488432d9d118e6fbcfc1108b07d6fc57409a23291528d61efd6bc29ee25b06","id":74331008,"location_subtype":"","month":"2019-05"},{"category":"violent-crime","location_type":"Force","location":{"latitude":"51.474872","street":{"id":947691,"name":"On or near Snipe Close"},"longitude":"0.196217"},"context":"","outcome_status":{"category":"Investigation complete; no suspect identified","date":"2020-03"},"persistent_id":"c8b5243d7eb333351d8a89083f79c11062bdc111c22a77043a88e9659a33624f","id":74294971,"location_subtype":"","month":"2019-05"},{"category":"violent-crime","location_type":"Force","location":{"latitude":"51.471698","street":{"id":947632,"name":"On or near Birling Road"},"longitude":"0.172996"},"context":"","outcome_status":{"category":"Status update unavailable","date":"2019-09"},"persistent_id":"0ec3b1d42cd80cffeced7e62c2f35be3905a09d9a6dee58183d5ee73cb1d44df","id":74303019,"location_subtype":"","month":"2019-05"},{"category":"violent-crime","location_type":"Force","location":{"latitude":"51.467301","street":{"id":947627,"name":"On or near Edendale Road"},"longitude":"0.172010"},"context":"","outcome_status":{"category":"Status update unavailable","date":"2019-09"},"persistent_id":"d9e7553b691faf8bcc8434f19314f52a288fb9d418d4d0da0636b66ae5d143ab","id":74294124,"location_subtype":"","month":"2019-05"},{"category":"violent-crime","location_type":"Force","location":{"latitude":"51.458471","street":{"id":940997,"name":"On or near Medway Road"},"longitude":"0.189829"},"context":"","outcome_status":{"category":"Status update unavailable","date":"2019-09"},"persistent_id":"b5a124b1ce47d2c3660fa62ea9795bc571daedbf6201a3c58673fa9c91f7f7fb","id":74303815,"location_subtype":"","month":"2019-05"},{"category":"violent-crime","location_type":"Force","location":{"latitude":"51.468167","street":{"id":947587,"name":"On or near Sports\/recreation Area"},"longitude":"0.188321"},"context":"","outcome_status":{"category":"Status update unavailable","date":"2019-09"},"persistent_id":"bbb08bd48ec4ca59512919550d869defc9c4faa7a4e46d56560bae2202abe24c","id":74352579,"location_subtype":"","month":"2019-05"},{"category":"violent-crime","location_type":"Force","location":{"latitude":"51.471698","street":{"id":947632,"name":"On or near Birling Road"},"longitude":"0.172996"},"context":"","outcome_status":{"category":"Status update unavailable","date":"2019-09"},"persistent_id":"abaeb829bd6906ddf854929b8cfc4c9f18abaee64bd6a94b6625cc6b9672c218","id":74304005,"location_subtype":"","month":"2019-05"},{"category":"violent-crime","location_type":"Force","location":{"latitude":"51.464575","street":{"id":947607,"name":"On or near Eversley Cross"},"longitude":"0.177380"},"context":"","outcome_status":{"category":"Status update unavailable","date":"2019-09"},"persistent_id":"b73f245f93fac2b55af4555308462fad3c5e896def4b51a6717cc758012c94de","id":74304188,"location_subtype":"","month":"2019-05"},{"category":"violent-crime","location_type":"Force","location":{"latitude":"51.477536","street":{"id":947757,"name":"On or near Aperfield Road"},"longitude":"0.185515"},"context":"","outcome_status":{"category":"Status update unavailable","date":"2019-09"},"persistent_id":"c847884a5cbf17b297a6097e72e72302c81a52979f996db2922bdee161809acf","id":74304567,"location_subtype":"","month":"2019-05"},{"category":"violent-crime","location_type":"Force","location":{"latitude":"51.480369","street":{"id":947744,"name":"On or near Parking Area"},"longitude":"0.180653"},"context":"","outcome_status":{"category":"Status update unavailable","date":"2019-09"},"persistent_id":"21fc6800bc9822d4272dc3ca3ef46f7ccc55a0c6b711f3e6e9450e5a4f924284","id":74301986,"location_subtype":"","month":"2019-05"},{"category":"violent-crime","location_type":"Force","location":{"latitude":"51.466891","street":{"id":947498,"name":"On or near Beechcroft Avenue"},"longitude":"0.167916"},"context":"","outcome_status":{"category":"Status update unavailable","date":"2019-09"},"persistent_id":"e40fe8cf84114fad2ca4d839c3db00d326b5a3b8db500de6ab845327a09dafb4","id":74331118,"location_subtype":"","month":"2019-05"},{"category":"violent-crime","location_type":"Force","location":{"latitude":"51.476273","street":{"id":947766,"name":"On or near Raleigh Close"},"longitude":"0.187183"},"context":"","outcome_status":{"category":"Status update unavailable","date":"2019-09"},"persistent_id":"62804880b739f744bf3819d0b26347088e5d04d17137bef61647f9e7c88d6d00","id":74345152,"location_subtype":"","month":"2019-05"},{"category":"violent-crime","location_type":"Force","location":{"latitude":"51.469633","street":{"id":947576,"name":"On or near Defoe Close"},"longitude":"0.180097"},"context":"","outcome_status":{"category":"Status update unavailable","date":"2019-09"},"persistent_id":"20fc5592353053ee68fa0493ad8df296216a1fc4ec32f4e2afae51e4572e68aa","id":74333803,"location_subtype":"","month":"2019-05"},{"category":"violent-crime","location_type":"Force","location":{"latitude":"51.466687","street":{"id":947583,"name":"On or near Barnett Close"},"longitude":"0.182318"},"context":"","outcome_status":{"category":"Status update unavailable","date":"2019-09"},"persistent_id":"2476c8f895045d3ac8287db166bf9f4bff3bfafefb559bcece9239d8e9c3762c","id":74329374,"location_subtype":"","month":"2019-05"},{"category":"violent-crime","location_type":"Force","location":{"latitude":"51.463946","street":{"id":947653,"name":"On or near Eversley Cross"},"longitude":"0.177364"},"context":"","outcome_status":{"category":"Status update unavailable","date":"2019-09"},"persistent_id":"e9e3f57ec962e0383069989fca39fa4831dee82cd25d3ec58cf1c685b3ea3998","id":74313910,"location_subtype":"","month":"2019-05"},{"category":"violent-crime","location_type":"BTP","location":{"latitude":"51.467900","street":{"id":1488023,"name":"Slade Green (station)"},"longitude":"0.190082"},"context":"","outcome_status":{"category":"Status update unavailable","date":"2019-09"},"persistent_id":"","id":88717996,"location_subtype":"STATION","month":"2019-05"},{"category":"violent-crime","location_type":"Force","location":{"latitude":"51.466687","street":{"id":947583,"name":"On or near Barnett Close"},"longitude":"0.182318"},"context":"","outcome_status":{"category":"Status update unavailable","date":"2019-09"},"persistent_id":"2215b0bfec329601ee1c7f591bd0b8d8b1a31ed50a57559e108bde018ae91982","id":74336125,"location_subtype":"","month":"2019-05"},{"category":"violent-crime","location_type":"Force","location":{"latitude":"51.455894","street":{"id":941068,"name":"On or near Ambrose Close"},"longitude":"0.186712"},"context":"","outcome_status":{"category":"Status update unavailable","date":"2019-09"},"persistent_id":"62efd44e61e991a5998a69b505b124b217990822d873dd4c772356e33a438f7e","id":74326757,"location_subtype":"","month":"2019-05"},{"category":"violent-crime","location_type":"Force","location":{"latitude":"51.470374","street":{"id":947666,"name":"On or near Hazel Drive"},"longitude":"0.195310"},"context":"","outcome_status":{"category":"Court result unavailable","date":"2019-12"},"persistent_id":"36428e6a1dd22d88f89d26feca13bb08d423c11b6e874c6c5e7a649756f677e4","id":74334286,"location_subtype":"","month":"2019-05"},{"category":"violent-crime","location_type":"Force","location":{"latitude":"51.465311","street":{"id":947571,"name":"On or near Lincoln Close"},"longitude":"0.183289"},"context":"","outcome_status":{"category":"Status update unavailable","date":"2019-09"},"persistent_id":"54da432ae2639d0d2899b59b450ef587a6c6e902ce7f44b16e5c78a7cf823153","id":74334139,"location_subtype":"","month":"2019-05"},{"category":"violent-crime","location_type":"Force","location":{"latitude":"51.478863","street":{"id":947756,"name":"On or near Appold Street"},"longitude":"0.186183"},"context":"","outcome_status":{"category":"Status update unavailable","date":"2019-09"},"persistent_id":"8406c7bcc03268f5e6fcdc77dd4181288a290979a2112d6105948e2623591c2d","id":74345930,"location_subtype":"","month":"2019-05"},{"category":"violent-crime","location_type":"Force","location":{"latitude":"51.463946","street":{"id":947653,"name":"On or near Eversley Cross"},"longitude":"0.177364"},"context":"","outcome_status":{"category":"Status update unavailable","date":"2019-09"},"persistent_id":"e939cb73f31d3445bc7c45e5ec94fcb3ba4e19bcd7dd610addb098407fb4d1f4","id":74333724,"location_subtype":"","month":"2019-05"},{"category":"violent-crime","location_type":"Force","location":{"latitude":"51.478863","street":{"id":947756,"name":"On or near Appold Street"},"longitude":"0.186183"},"context":"","outcome_status":{"category":"Status update unavailable","date":"2019-09"},"persistent_id":"8406c7bcc03268f5e6fcdc77dd4181288a290979a2112d6105948e2623591c2d","id":74346287,"location_subtype":"","month":"2019-05"},{"category":"violent-crime","location_type":"Force","location":{"latitude":"51.471606","street":{"id":947674,"name":"On or near Slade Green Road"},"longitude":"0.190977"},"context":"","outcome_status":{"category":"Status update unavailable","date":"2019-09"},"persistent_id":"bb8c3d523493c3c29c66301854b99276652c6d99cdfd3811a222d251018868ec","id":74332668,"location_subtype":"","month":"2019-05"},{"category":"violent-crime","location_type":"Force","location":{"latitude":"51.457621","street":{"id":940995,"name":"On or near Russell Close"},"longitude":"0.192020"},"context":"","outcome_status":{"category":"Status update unavailable","date":"2019-09"},"persistent_id":"463cc35b3a289fb386f99448cf0fe4439c73bc9e5fd9d28ba2d884842e43ceab","id":74329419,"location_subtype":"","month":"2019-05"},{"category":"violent-crime","location_type":"Force","location":{"latitude":"51.471236","street":{"id":947491,"name":"On or near Colyers Close"},"longitude":"0.168338"},"context":"","outcome_status":{"category":"Status update unavailable","date":"2019-09"},"persistent_id":"19c9fd6a66a966371d489b92e4e766648de40812b2381829ecdab5429de8d3b3","id":74346917,"location_subtype":"","month":"2019-05"},{"category":"violent-crime","location_type":"Force","location":{"latitude":"51.471236","street":{"id":947491,"name":"On or near Colyers Close"},"longitude":"0.168338"},"context":"","outcome_status":{"category":"Status update unavailable","date":"2019-09"},