[{"category":"anti-social-behaviour","location_type":"Force","location":{"latitude":"51.556038","street":{"id":966658,"name":"On or near Bradfield Road"},"longitude":"-0.379686"},"context":"","outcome_status":null,"persistent_id":"","id":74286375,"location_subtype":"","month":"2019-05"},{"category":"anti-social-behaviour","location_type":"Force","location":{"latitude":"51.556038","street":{"id":966658,"name":"On or near Bradfield Road"},"longitude":"-0.379686"},"context":"","outcome_status":null,"persistent_id":"","id":74286374,"location_subtype":"","month":"2019-05"},{"category":"anti-social-behaviour","location_type":"Force","location":{"latitude":"51.566196","street":{"id":973234,"name":"On or near Torrington Road"},"longitude":"-0.412294"},"context":"","outcome_status":null,"persistent_id":"","id":74287161,"location_subtype":"","month":"2019-05"},{"category":"anti-social-behaviour","location_type":"Force","location":{"latitude":"51.563945","street":{"id":973308,"name":"On or near Berkeley Close"},"longitude":"-0.414060"},"context":"","outcome_status":null,"persistent_id":"","id":74287162,"location_subtype":"","month":"2019-05"},{"category":"anti-social-behaviour","location_type":"Force","location":{"latitude":"51.563052","street":{"id":973313,"name":"On or near Sports\/recreation Area"},"longitude":"-0.411206"},"context":"","outcome_status":null,"persistent_id":"","id":74287147,"location_subtype":"","month":"2019-05"},{"category":"anti-social-behaviour","location_type":"Force","location":{"latitude":"51.563834","street":{"id":973312,"name":"On or near Cottingham Chase"},"longitude":"-0.407904"},"context":"","outcome_status":null,"persistent_id":"","id":74287121,"location_subtype":"","month":"2019-05"},{"category":"anti-social-behaviour","location_type":"Force","location":{"latitude":"51.566362","street":{"id":973235,"name":"On or near Tiverton Road"},"longitude":"-0.409316"},"context":"","outcome_status":null,"persistent_id":"","id":74287117,"location_subtype":"","month":"2019-05"},{"category":"anti-social-behaviour","location_type":"Force","location":{"latitude":"51.566362","street":{"id":973235,"name":"On or near Tiverton Road"},"longitude":"-0.409316"},"context":"","outcome_status":null,"persistent_id":"","id":74287115,"location_subtype":"","month":"2019-05"},{"category":"anti-social-behaviour","location_type":"Force","location":{"latitude":"51.566362","street":{"id":973235,"name":"On or near Tiverton Road"},"longitude":"-0.409316"},"context":"","outcome_status":null,"persistent_id":"","id":74287116,"location_subtype":"","month":"2019-05"},{"category":"anti-social-behaviour","location_type":"Force","location":{"latitude":"51.566362","street":{"id":973235,"name":"On or near Tiverton Road"},"longitude":"-0.409316"},"context":"","outcome_status":null,"persistent_id":"","id":74287114,"location_subtype":"","month":"2019-05"},{"category":"anti-social-behaviour","location_type":"Force","location":{"latitude":"51.566362","street":{"id":973235,"name":"On or near Tiverton Road"},"longitude":"-0.409316"},"context":"","outcome_status":null,"persistent_id":"","id":74287113,"location_subtype":"","month":"2019-05"},{"category":"anti-social-behaviour","location_type":"Force","location":{"latitude":"51.566362","street":{"id":973235,"name":"On or near Tiverton Road"},"longitude":"-0.409316"},"context":"","outcome_status":null,"persistent_id":"","id":74287112,"location_subtype":"","month":"2019-05"},{"category":"anti-social-behaviour","location_type":"Force","location":{"latitude":"51.556884","street":{"id":923816,"name":"On or near Tedder Close"},"longitude":"-0.407266"},"context":"","outcome_status":null,"persistent_id":"","id":74287097,"location_subtype":"","month":"2019-05"},{"category":"anti-social-behaviour","location_type":"Force","location":{"latitude":"51.556884","street":{"id":923816,"name":"On or near Tedder Close"},"longitude":"-0.407266"},"context":"","outcome_status":null,"persistent_id":"","id":74287096,"location_subtype":"","month":"2019-05"},{"category":"anti-social-behaviour","location_type":"Force","location":{"latitude":"51.560840","street":{"id":966620,"name":"On or near Braintree Road"},"longitude":"-0.402642"},"context":"","outcome_status":null,"persistent_id":"","id":74286461,"location_subtype":"","month":"2019-05"},{"category":"anti-social-behaviour","location_type":"Force","location":{"latitude":"51.558002","street":{"id":966714,"name":"On or near Parking Area"},"longitude":"-0.397591"},"context":"","outcome_status":null,"persistent_id":"","id":74286435,"location_subtype":"","month":"2019-05"},{"category":"anti-social-behaviour","location_type":"Force","location":{"latitude":"51.564896","street":{"id":973139,"name":"On or near Shaldon Drive"},"longitude":"-0.397392"},"context":"","outcome_status":null,"persistent_id":"","id":74286434,"location_subtype":"","month":"2019-05"},{"category":"anti-social-behaviour","location_type":"Force","location":{"latitude":"51.564896","street":{"id":973139,"name":"On or near Shaldon Drive"},"longitude":"-0.397392"},"context":"","outcome_status":null,"persistent_id":"","id":74286433,"location_subtype":"","month":"2019-05"},{"category":"anti-social-behaviour","location_type":"Force","location":{"latitude":"51.564896","street":{"id":973139,"name":"On or near Shaldon Drive"},"longitude":"-0.397392"},"context":"","outcome_status":null,"persistent_id":"","id":74286432,"location_subtype":"","month":"2019-05"},{"category":"anti-social-behaviour","location_type":"Force","location":{"latitude":"51.555051","street":{"id":966687,"name":"On or near Great Central Avenue"},"longitude":"-0.395488"},"context":"","outcome_status":null,"persistent_id":"","id":74286423,"location_subtype":"","month":"2019-05"},{"category":"anti-social-behaviour","location_type":"Force","location":{"latitude":"51.558002","street":{"id":966714,"name":"On or near Parking Area"},"longitude":"-0.397591"},"context":"","outcome_status":null,"persistent_id":"","id":74286422,"location_subtype":"","month":"2019-05"},{"category":"anti-social-behaviour","location_type":"Force","location":{"latitude":"51.553908","street":{"id":966769,"name":"On or near Field End Road"},"longitude":"-0.377137"},"context":"","outcome_status":null,"persistent_id":"","id":74269506,"location_subtype":"","month":"2019-05"},{"category":"anti-social-behaviour","location_type":"Force","location":{"latitude":"51.553027","street":{"id":966640,"name":"On or near Wilsmere Drive"},"longitude":"-0.380428"},"context":"","outcome_status":null,"persistent_id":"","id":74269537,"location_subtype":"","month":"2019-05"},{"category":"anti-social-behaviour","location_type":"Force","location":{"latitude":"51.549597","street":{"id":966709,"name":"On or near Bruffs Meadow"},"longitude":"-0.381415"},"context":"","outcome_status":null,"persistent_id":"","id":74269541,"location_subtype":"","month":"2019-05"},{"category":"anti-social-behaviour","location_type":"Force","location":{"latitude":"51.549738","street":{"id":966710,"name":"On or near Attewood Road"},"longitude":"-0.382492"},"context":"","outcome_status":null,"persistent_id":"","id":74269551,"location_subtype":"","month":"2019-05"},{"category":"anti-social-behaviour","location_type":"Force","location":{"latitude":"51.549939","street":{"id":966711,"name":"On or near Arnold Road"},"longitude":"-0.383408"},"context":"","outcome_status":null,"persistent_id":"","id":74269563,"location_subtype":"","month":"2019-05"},{"category":"anti-social-behaviour","location_type":"Force","location":{"latitude":"51.560204","street":{"id":966788,"name":"On or near Kenilworth Avenue"},"longitude":"-0.377244"},"context":"","outcome_status":null,"persistent_id":"","id":74272284,"location_subtype":"","month":"2019-05"},{"category":"anti-social-behaviour","location_type":"Force","location":{"latitude":"51.560204","street":{"id":966788,"name":"On or near Kenilworth Avenue"},"longitude":"-0.377244"},"context":"","outcome_status":null,"persistent_id":"","id":74272285,"location_subtype":"","month":"2019-05"},{"category":"anti-social-behaviour","location_type":"Force","location":{"latitude":"51.560381","street":{"id":966657,"name":"On or near Brookside Close"},"longitude":"-0.379619"},"context":"","outcome_status":null,"persistent_id":"","id":74272292,"location_subtype":"","month":"2019-05"},{"category":"anti-social-behaviour","location_type":"Force","location":{"latitude":"51.560381","street":{"id":966657,"name":"On or near Brookside Close"},"longitude":"-0.379619"},"context":"","outcome_status":null,"persistent_id":"","id":74272293,"location_subtype":"","month":"2019-05"},{"category":"anti-social-behaviour","location_type":"Force","location":{"latitude":"51.560381","street":{"id":966657,"name":"On or near Brookside Close"},"longitude":"-0.379619"},"context":"","outcome_status":null,"persistent_id":"","id":74272294,"location_subtype":"","month":"2019-05"},{"category":"anti-social-behaviour","location_type":"Force","location":{"latitude":"51.563145","street":{"id":973198,"name":"On or near Torbay Road"},"longitude":"-0.381165"},"context":"","outcome_status":null,"persistent_id":"","id":74272296,"location_subtype":"","month":"2019-05"},{"category":"anti-social-behaviour","location_type":"Force","location":{"latitude":"51.558002","street":{"id":966714,"name":"On or near Parking Area"},"longitude":"-0.397591"},"context":"","outcome_status":null,"persistent_id":"","id":74286421,"location_subtype":"","month":"2019-05"},{"category":"anti-social-behaviour","location_type":"Force","location":{"latitude":"51.565186","street":{"id":973141,"name":"On or near Queens Walk"},"longitude":"-0.394929"},"context":"","outcome_status":null,"persistent_id":"","id":74286417,"location_subtype":"","month":"2019-05"},{"category":"anti-social-behaviour","location_type":"Force","location":{"latitude":"51.567805","street":{"id":973136,"name":"On or near Whitby Road"},"longitude":"-0.395746"},"context":"","outcome_status":null,"persistent_id":"","id":74286416,"location_subtype":"","month":"2019-05"},{"category":"anti-social-behaviour","location_type":"Force","location":{"latitude":"51.560422","street":{"id":966694,"name":"On or near Sports\/recreation Area"},"longitude":"-0.392428"},"context":"","outcome_status":null,"persistent_id":"","id":74286409,"location_subtype":"","month":"2019-05"},{"category":"anti-social-behaviour","location_type":"Force","location":{"latitude":"51.569438","street":{"id":973137,"name":"On or near St Peter's Close"},"longitude":"-0.391561"},"context":"","outcome_status":null,"persistent_id":"","id":74286408,"location_subtype":"","month":"2019-05"},{"category":"anti-social-behaviour","location_type":"Force","location":{"latitude":"51.566590","street":{"id":973145,"name":"On or near Mount Pleasant"},"longitude":"-0.392398"},"context":"","outcome_status":null,"persistent_id":"","id":74286407,"location_subtype":"","month":"2019-05"},{"category":"anti-social-behaviour","location_type":"Force","location":{"latitude":"51.560181","street":{"id":966682,"name":"On or near Queens Walk"},"longitude":"-0.389897"},"context":"","outcome_status":null,"persistent_id":"","id":74286397,"location_subtype":"","month":"2019-05"},{"category":"anti-social-behaviour","location_type":"Force","location":{"latitude":"51.563353","street":{"id":973203,"name":"On or near White Butts Road"},"longitude":"-0.386481"},"context":"","outcome_status":null,"persistent_id":"","id":74286386,"location_subtype":"","month":"2019-05"},{"category":"anti-social-behaviour","location_type":"Force","location":{"latitude":"51.556369","street":{"id":966647,"name":"On or near Stonefield Close"},"longitude":"-0.384723"},"context":"","outcome_status":null,"persistent_id":"","id":74286383,"location_subtype":"","month":"2019-05"},{"category":"anti-social-behaviour","location_type":"Force","location":{"latitude":"51.562482","street":{"id":973201,"name":"On or near Malvern Avenue"},"longitude":"-0.382011"},"context":"","outcome_status":null,"persistent_id":"","id":74286379,"location_subtype":"","month":"2019-05"},{"category":"anti-social-behaviour","location_type":"Force","location":{"latitude":"51.558613","street":{"id":966653,"name":"On or near Field End Road"},"longitude":"-0.379912"},"context":"","outcome_status":null,"persistent_id":"","id":74286376,"location_subtype":"","month":"2019-05"},{"category":"anti-social-behaviour","location_type":"Force","location":{"latitude":"51.563828","street":{"id":973197,"name":"On or near Well Close"},"longitude":"-0.383088"},"context":"","outcome_status":null,"persistent_id":"","id":74286382,"location_subtype":"","month":"2019-05"},{"category":"bicycle-theft","location_type":"Force","location":{"latitude":"51.556568","street":{"id":966674,"name":"On or near Parking Area"},"longitude":"-0.399271"},"context":"","outcome_status":{"category":"Status update unavailable","date":"2019-09"},"persistent_id":"65cf0d3eba71d5f41aaf933834fb28b7f1ec276c92ccdc772cbb95e696f411be","id":74302704,"location_subtype":"","month":"2019-05"},{"category":"bicycle-theft","location_type":"Force","location":{"latitude":"51.564804","street":{"id":973274,"name":"On or near Whitby Road"},"longitude":"-0.403137"},"context":"","outcome_status":{"category":"Status update unavailable","date":"2019-09"},"persistent_id":"1680738e121e6a9eeeb96f9513140eaa932f2655ee53fae9eabe38fc45d3d1d7","id":74306262,"location_subtype":"","month":"2019-05"},{"category":"burglary","location_type":"Force","location":{"latitude":"51.558613","street":{"id":966653,"name":"On or near Field End Road"},"longitude":"-0.379912"},"context":"","outcome_status":{"category":"Status update unavailable","date":"2019-09"},"persistent_id":"236e3602a1bb191724be1ff92412e5fc498ebf7541ccf793304589c29aab46b8","id":74361429,"location_subtype":"","month":"2019-05"},{"category":"burglary","location_type":"Force","location":{"latitude":"51.566367","street":{"id":973287,"name":"On or near Sports\/recreation Area"},"longitude":"-0.401741"},"context":"","outcome_status":{"category":"Status update unavailable","date":"2019-09"},"persistent_id":"1249cc362c1d8c27af06e86784fa1476ef84adfd30724608511c5e46d73a907c","id":74350841,"location_subtype":"","month":"2019-05"},{"category":"burglary","location_type":"Force","location":{"latitude":"51.550388","street":{"id":966637,"name":"On or near Warsaw Close"},"longitude":"-0.401767"},"context":"","outcome_status":{"category":"Status update unavailable","date":"2019-09"},"persistent_id":"1388c3e275ca76678ec086b9b0bb8564d3dd087cf7ad7a25c886d0afdefee193","id":74299023,"location_subtype":"","month":"2019-05"},{"category":"burglary","location_type":"Force","location":{"latitude":"51.560362","street":{"id":966619,"name":"On or near Bridgwater Road"},"longitude":"-0.405818"},"context":"","outcome_status":{"category":"Status update unavailable","date":"2019-09"},"persistent_id":"ff5e14b8c50a37e39bdd28b069c270ed9527415e74f4b0830722bbae6abeff9c","id":74333853,"location_subtype":"","month":"2019-05"},{"category":"burglary","location_type":"Force","location":{"latitude":"51.553438","street":{"id":966766,"name":"On or near Hexham Gardens"},"longitude":"-0.378293"},"context":"","outcome_status":{"category":"Status update unavailable","date":"2019-09"},"persistent_id":"242eaecd7e88992927059b15153c4e89bfea05d26c02ae1b2dd0ecd52bd8629a","id":74302766,"location_subtype":"","month":"2019-05"},{"category":"burglary","location_type":"Force","location":{"latitude":"51.565186","street":{"id":973141,"name":"On or near Queens Walk"},"longitude":"-0.394929"},"context":"","outcome_status":{"category":"Status update unavailable","date":"2019-09"},"persistent_id":"b1f0fc7f15e4fc5dca4dee33671d86300f78372a8f8a7fa38a5af90873d7d95f","id":74304081,"location_subtype":"","month":"2019-05"},{"category":"burglary","location_type":"Force","location":{"latitude":"51.553572","street":{"id":966670,"name":"On or near Cedar Avenue"},"longitude":"-0.394559"},"context":"","outcome_status":{"category":"Status update unavailable","date":"2019-09"},"persistent_id":"b81e8ca09e552e2a15b2ad2658abfad28c4aed06502e4f8e2125d4cc40034d15","id":74306527,"location_subtype":"","month":"2019-05"},{"category":"burglary","location_type":"Force","location":{"latitude":"51.564526","street":{"id":973185,"name":"On or near Lynwood Close"},"longitude":"-0.380265"},"context":"","outcome_status":{"category":"Status update unavailable","date":"2019-09"},"persistent_id":"ee2b2b4f1818d31838418cc52ee3970d37343367bfff452cd8915474e09a4368","id":74353472,"location_subtype":"","month":"2019-05"},{"category":"burglary","location_type":"Force","location":{"latitude":"51.559860","street":{"id":966645,"name":"On or near Warwick Avenue"},"longitude":"-0.378382"},"context":"","outcome_status":{"category":"Status update unavailable","date":"2019-09"},"persistent_id":"6785c97eee40d3df323832c81f3827814a4cf9f8d5b60860bf1b17f263b93e20","id":74308929,"location_subtype":"","month":"2019-05"},{"category":"burglary","location_type":"Force","location":{"latitude":"51.558434","street":{"id":966677,"name":"On or near Victoria Road"},"longitude":"-0.394979"},"context":"","outcome_status":{"category":"Status update unavailable","date":"2019-09"},"persistent_id":"f9b18c7c41701cfd18df6f5b5b0beb990f241a4888dad61f68e0e58a09f637e8","id":74365601,"location_subtype":"","month":"2019-05"},{"category":"burglary","location_type":"Force","location":{"latitude":"51.563073","street":{"id":973309,"name":"On or near Bell Close"},"longitude":"-0.414740"},"context":"","outcome_status":{"category":"Status update unavailable","date":"2019-09"},"persistent_id":"082acafdd56503be71fddc50eba75b9d53247e574afa8b5e344ab49f91bd2c38","id":74361519,"location_subtype":"","month":"2019-05"},{"category":"burglary","location_type":"Force","location":{"latitude":"51.563073","street":{"id":973309,"name":"On or near Bell Close"},"longitude":"-0.414740"},"context":"","outcome_status":{"category":"Status update unavailable","date":"2019-09"},"persistent_id":"70d850498c9746b556761daa547b1bf241908800f2a8f30494b8b85af271ad7f","id":74292300,"location_subtype":"","month":"2019-05"},{"category":"criminal-damage-arson","location_type":"Force","location":{"latitude":"51.560381","street":{"id":966657,"name":"On or near Brookside Close"},"longitude":"-0.379619"},"context":"","outcome_status":{"category":"Status update unavailable","date":"2019-09"},"persistent_id":"7e1d1465a64fb4876a881154740384f306b5eacd92d3663c873019870fe27ac0","id":74325396,"location_subtype":"","month":"2019-05"},{"category":"criminal-damage-arson","location_type":"Force","location":{"latitude":"51.559860","street":{"id":966645,"name":"On or near Warwick Avenue"},"longitude":"-0.378382"},"context":"","outcome_status":{"category":"Status update unavailable","date":"2019-09"},"persistent_id":"edbd4ad5d65f110d2ee26305bff95dcba2c250298675527398cc2ebdfdb3ba3d","id":74302713,"location_subtype":"","month":"2019-05"},{"category":"criminal-damage-arson","location_type":"Force","location":{"latitude":"51.555111","street":{"id":966613,"name":"On or near Station Approach"},"longitude":"-0.401256"},"context":"","outcome_status":{"category":"Investigation complete; no suspect identified","date":"2020-03"},"persistent_id":"1e7d9deced6a9c7e4adfeaa4023a8ea81e0413b9f98a51ead505641ba6ca2a07","id":74342424,"location_subtype":"","month":"2019-05"},{"category":"criminal-damage-arson","location_type":"Force","location":{"latitude":"51.553742","street":{"id":966643,"name":"On or near Rabournmead Drive"},"longitude":"-0.380763"},"context":"","outcome_status":{"category":"Status update unavailable","date":"2019-09"},"persistent_id":"1985c750a3194cf88c95330b9d6d2e379936fd4aec80ed7b2e35c1aaee16bd7e","id":74299898,"location_subtype":"","month":"2019-05"},{"category":"criminal-damage-arson","location_type":"Force","location":{"latitude":"51.564436","street":{"id":973144,"name":"On or near Mount Pleasant"},"longitude":"-0.388766"},"context":"","outcome_status":{"category":"Status update unavailable","date":"2019-09"},"persistent_id":"47f262b7bdb872faac830bd3ba1942c721bc5032030348e6d2834cd496766a5c","id":74342015,"location_subtype":"","month":"2019-05"},{"category":"criminal-damage-arson","location_type":"Force","location":{"latitude":"51.555111","street":{"id":966613,"name":"On or near Station Approach"},"longitude":"-0.401256"},"context":"","outcome_status":{"category":"Status update unavailable","date":"2019-09"},"persistent_id":"5c82ffeb9c3d6ba52eeff5b2563790816076b515482d3dc879e4efbf8a07ee87","id":74344256,"location_subtype":"","month":"2019-05"},{"category":"criminal-damage-arson","location_type":"Force","location":{"latitude":"51.561411","street":{"id":966684,"name":"On or near Monks Close"},"longitude":"-0.389104"},"context":"","outcome_status":{"category":"Status update unavailable","date":"2019-09"},"persistent_id":"16cec1e98dca2467a40e8196b8811f7b1c0d316e7d6e35c2eee9e397db72623b","id":74354437,"location_subtype":"","month":"2019-05"},{"category":"criminal-damage-arson","location_type":"Force","location":{"latitude":"51.563887","street":{"id":973205,"name":"On or near Paddock Road"},"longitude":"-0.386116"},"context":"","outcome_status":{"category":"Status update unavailable","date":"2019-09"},"persistent_id":"bc610181f2376e1cb9e540c4b3999dfe34bf55f7df2075b1f6dfc96284717397","id":74344955,"location_subtype":"","month":"2019-05"},{"category":"drugs","location_type":"Force","location":{"latitude":"51.563073","street":{"id":973309,"name":"On or near Bell Close"},"longitude":"-0.414740"},"context":"","outcome_status":{"category":"Local resolution","date":"2019-05"},"persistent_id":"cbcbfef32792adfdf34d41129c6ed4e328e91d5872098230d018656bce6e44fa","id":74316352,"location_subtype":"","month":"2019-05"},{"category":"drugs","location_type":"Force","location":{"latitude":"51.563073","street":{"id":973309,"name":"On or near Bell Close"},"longitude":"-0.414740"},"context":"","outcome_status":{"category":"Local resolution","date":"2019-05"},"persistent_id":"967fe86f375dbbe6f7b16af301094c6885d5a660c535e7a44df914ed86685541","id":74316363,"location_subtype":"","month":"2019-05"},{"category":"drugs","location_type":"Force","location":{"latitude":"51.569438","street":{"id":973137,"name":"On or near St Peter's Close"},"longitude":"-0.391561"},"context":"","outcome_status":{"category":"Local resolution","date":"2019-05"},"persistent_id":"beecacf705b3e9f047fbd113f619d9d874ad74bfdb7e12e3df1a887742928ef5","id":74292792,"location_subtype":"","month":"2019-05"},{"category":"drugs","location_type":"Force","location":{"latitude":"51.551665","street":{"id":966762,"name":"On or near Newbury Close"},"longitude":"-0.378168"},"context":"","outcome_status":{"category":"Status update unavailable","date":"2019-09"},"persistent_id":"827f859cad0b3662f2039fe958ea731443fca025e46950c69b48ed059aa6e455","id":74300428,"location_subtype":"","month":"2019-05"},{"category":"other-theft","location_type":"Force","location":{"latitude":"51.559594","street":{"id":966650,"name":"On or near Princes Way"},"longitude":"-0.383195"},"context":"","outcome_status":{"category":"Status update unavailable","date":"2019-09"},"persistent_id":"c8d19f6b529793463d0f65b0b6c9350b92b842976efca9b1232b77e63fb53b4e","id":74300696,"location_subtype":"","month":"2019-05"},{"category":"other-theft","location_type":"Force","location":{"latitude":"51.562369","street":{"id":973304,"name":"On or near Sports\/recreation Area"},"longitude":"-0.405315"},"context":"","outcome_status":{"category":"Status update unavailable","date":"2019-09"},"persistent_id":"e54d63e7a8d14e31f86e47e31a6ea724bbb7ce409f6a2cc553beff859e697756","id":74300961,"location_subtype":"","month":"2019-05"},{"category":"other-theft","location_type":"Force","location":{"latitude":"51.559698","street":{"id":966633,"name":"On or near Carmichael Close"},"longitude":"-0.409202"},"context":"","outcome_status":{"category":"Status update unavailable","date":"2019-09"},"persistent_id":"0ed35f22bffaa3f4a4b8460ddf01954492861a4505cb69bcb9d03b3899d7e2cb","id":74347940,"location_subtype":"","month":"2019-05"},{"category":"other-theft","location_type":"Force","location":{"latitude":"51.565022","street":{"id":973275,"name":"On or near Torcross Road"},"longitude":"-0.400028"},"context":"","outcome_status":{"category":"Status update unavailable","date":"2019-09"},"persistent_id":"075887014a7ca108e82dbf36d19c0beaf8bc5d6c8a8f998f9bceed002bac681a","id":74343087,"location_subtype":"","month":"2019-05"},{"category":"other-theft","location_type":"Force","location":{"latitude":"51.560448","street":{"id":966628,"name":"On or near Bedford Road"},"longitude":"-0.416187"},"context":"","outcome_status":{"category":"Investigation complete; no suspect identified","date":"2020-03"},"persistent_id":"a98eaf241c2644eaa9f62b43a6ea67ae931aecc187323fea95c195fa2fbbb373","id":74363639,"location_subtype":"","month":"2019-05"},{"category":"other-theft","location_type":"Force","location":{"latitude":"51.560472","street":{"id":966659,"name":"On or near Petrol Station"},"longitude":"-0.381000"},"context":"","outcome_status":{"category":"Status update unavailable","date":"2019-09"},"persistent_id":"b26f4cdd6f543f613ca58d7bee32a1b220216c458e1f22b12037cd4eb1b537e2","id":74307869,"location_subtype":"","month":"2019-05"},{"category":"other-theft","location_type":"Force","location":{"latitude":"51.569438","street":{"id":973137,"name":"On or near St Peter's Close"},"longitude":"-0.391561"},"context":"","outcome_status":{"category":"Status update unavailable","date":"2019-09"},"persistent_id":"d408d063489cddca47bf273fc82f3c9fa7fd7bce84a3b3736e24f682f8ab8c82","id":74333630,"location_subtype":"","month":"2019-05"},{"category":"other-theft","location_type":"Force","location":{"latitude":"51.560907","street":{"id":966660,"name":"On or near Supermarket"},"longitude":"-0.381288"},"context":"","outcome_status":{"category":"Status update unavailable","date":"2019-09"},"persistent_id":"61510c5c04b2c028a87aebb9ebc4032265ad80b826fed3d9286fdaad8919aa12","id":74293335,"location_subtype":"","month":"2019-05"},{"category":"other-theft","location_type":"Force","location":{"latitude":"51.555111","street":{"id":966613,"name":"On or near Station Approach"},"longitude":"-0.401256"},"context":"","outcome_status":{"category":"Status update unavailable","date":"2019-09"},"persistent_id":"da7fed849d6bc8d8df4381deeccd247430fc03335bf02c91d5cb8bea61727d7a","id":74290384,"location_subtype":"","month":"2019-05"},{"category":"other-theft","location_type":"Force","location":{"latitude":"51.555730","street":{"id":966621,"name":"On or near Bourne Court"},"longitude":"-0.400426"},"context":"","outcome_status":{"category":"Status update unavailable","date":"2019-09"},"persistent_id":"f0be8f3235105cfc1b8952f2405de3882e9936f034f8260a364d6b43637afdc1","id":74291224,"location_subtype":"","month":"2019-05"},{"category":"possession-of-weapons","location_type":"Force","location":{"latitude":"51.556605","street":{"id":966698,"name":"On or near Shopping Area"},"longitude":"-0.387528"},"context":"","outcome_status":{"category":"Offender given a caution","date":"2019-09"},"persistent_id":"e39bfd814fcb00dd73f617d8074bcfd12e129ac6800aab8e23ad4a4210947aae","id":74369049,"location_subtype":"","month":"2019-05"},{"category":"possession-of-weapons","location_type":"BTP","location":{"latitude":"51.556800","street":{"id":1486807,"name":"South Ruislip (lu Station)"},"longitude":"-0.398582"},"context":"","outcome_status":{"category":"Status update unavailable","date":"2019-09"},"persistent_id":"","id":88721774,"location_subtype":"STATION","month":"2019-05"},{"category":"possession-of-weapons","location_type":"Force","location":{"latitude":"51.551665","street":{"id":966762,"name":"On or near Newbury Close"},"longitude":"-0.378168"},"context":"","outcome_status":{"category":"Local resolution","date":"2019-05"},"persistent_id":"827f859cad0b3662f2039fe958ea731443fca025e46950c69b48ed059aa6e455","id":74303403,"location_subtype":"","month":"2019-05"},{"category":"public-order","location_type":"Force","location":{"latitude":"51.559108","street":{"id":966693,"name":"On or near Petrol Station"},"longitude":"-0.397610"},"context":"","outcome_status":{"category":"Status update unavailable","date":"2019-09"},"persistent_id":"bda87370dd97a2633a18939058f3c6c373b4300aa751d5c08436b9b29373f3ca","id":74342949,"location_subtype":"","month":"2019-05"},{"category":"public-order","location_type":"Force","location":{"latitude":"51.566196","street":{"id":973234,"name":"On or near Torrington Road"},"longitude":"-0.412294"},"context":"","outcome_status":{"category":"Status update unavailable","date":"2019-09"},"persistent_id":"80527866d54bcc813ec156bcd50d5b414bd58558eb809c8997175b1cf31b8e16","id":74330550,"location_subtype":"","month":"2019-05"},{"category":"public-order","location_type":"Force","location":{"latitude":"51.569438","street":{"id":973137,"name":"On or near St Peter's Close"},"longitude":"-0.391561"},"context":"","outcome_status":{"category":"Investigation complete; no suspect identified","date":"2020-03"},"persistent_id":"ed52ad9533e47a1245925c84cd181d8ef55182bbbeea4e2a2fbb4e006f272962","id":74321793,"location_subtype":"","month":"2019-05"},{"category":"public-order","location_type":"Force","location":{"latitude":"51.549718","street":{"id":966702,"name":"On or near Stroud Field"},"longitude":"-0.383012"},"context":"","outcome_status":{"category":"Status update unavailable","date":"2019-09"},"persistent_id":"cfd0dff176f10196c16a79f038d04e301ecad0e0a0163cc103dec3017a199a54","id":74300429,"location_subtype":"","month":"2019-05"},{"category":"public-order","location_type":"Force","location":{"latitude":"51.566196","street":{"id":973234,"name":"On or near Torrington Road"},"longitude":"-0.412294"},"context":"","outcome_status":{"category":"Status update unavailable","date":"2019-09"},"persistent_id":"80527866d54bcc813ec156bcd50d5b414bd58558eb809c8997175b1cf31b8e16","id":74330549,"location_subtype":"","month":"2019-05"},{"category":"public-order","location_type":"Force","location":{"latitude":"51.560381","street":{"id":966657,"name":"On or near Brookside Close"},"longitude":"-0.379619"},"context":"","outcome_status":{"category":"Status update unavailable","date":"2019-09"},"persistent_id":"5a82378f0a9f0902b5783599b614ef468b485a4247be30817eb6231cea30df38","id":74318984,"location_subtype":"","month":"2019-05"},{"category":"public-order","location_type":"Force","location":{"latitude":"51.558002","street":{"id":966714,"name":"On or near Parking Area"},"longitude":"-0.397591"},"context":"","outcome_status":{"category":"Status update unavailable","date":"2019-09"},"persistent_id":"ecc937f1b80ad69f744e4e06cf6c11fe727141b86e2d705c75b79ac3e787e330","id":74332138,"location_subtype":"","month":"2019-05"},{"category":"public-order","location_type":"Force","location":{"latitude":"51.569988","street":{"id":973283,"name":"On or near Elliott Avenue"},"longitude":"-0.404154"},"context":"","outcome_status":{"category":"Status update unavailable","date":"2019-09"},"persistent_id":"a5c93a32a2105f1d94950af27aeeeeabdbd86613a4129d8e4ce963b81ca9a508","id":74332752,"location_subtype":"","month":"2019-05"},{"category":"public-order","location_type":"Force","location":{"latitude":"51.558002","street":{"id":966714,"name":"On or near Parking Area"},"longitude":"-0.397591"},"context":"","outcome_status":{"category":"Status update unavailable","date":"2019-09"},"persistent_id":"c4b4a07adc67c8af1b093cf86e9c6eddc359e7c4ccf716c95e402761f74017b2","id":74327996,"location_subtype":"","month":"2019-05"},{"category":"shoplifting","location_type":"Force","location":{"latitude":"51.558002","street":{"id":966714,"name":"On or near Parking Area"},"longitude":"-0.397591"},"context":"","outcome_status":{"category":"Status update unavailable","date":"2019-09"},"persistent_id":"10eb4c72fa0e1b288b6749c23240fa5ddc68018239ba26317ea1ff13913e26a3","id":74334663,"location_subtype":"","month":"2019-05"},{"category":"shoplifting","location_type":"Force","location":{"latitude":"51.556248","street":{"id":923589,"name":"On or near Crown Road"},"longitude":"-0.387065"},"context":"","outcome_status":{"category":"Status update unavailable","date":"2019-09"},"persistent_id":"f9ff1e1dc14a80df6bd8be72d5d7b29daf40b797f438e72d59bf088f9cfaac00","id":74348087,"location_subtype":"","month":"2019-05"},{"category":"shoplifting","location_type":"Force","location":{"latitude":"51.558002","street":{"id":966714,"name":"On or near Parking Area"},"longitude":"-0.397591"},"context":"","outcome_status":{"category":"Offender given a caution","date":"2019-06"},"persistent_id":"6c5d40afc620cb78a66613b6a178e6916d78aff731f2a7efdafbc5ee848b5ce9","id":74290739,"location_subtype":"","month":"2019-05"},{"category":"shoplifting","location_type":"Force","location":{"latitude":"51.560393","street":{"id":966675,"name":"On or near West Mead"},"longitude":"-0.399527"},"context":"","outcome_status":{"category":"Court result unavailable","date":"2019-12"},"persistent_id":"c17ba2cd092a4779a22b8a7a5d1d7cba41e954d157c1aaf55d744d8b17c84010","id":74304427,"location_subtype":"","month":"2019-05"},{"category":"shoplifting","location_type":"Force","location":{"latitude":"51.560541","street":{"id":966611,"name":"On or near Tiptree Road"},"longitude":"-0.401801"},"context":"","outcome_status":{"category":"Status update unavailable","date":"2019-09"},"persistent_id":"d82f88f8746691c43647acaca84b47f0e5f0b406106e74aa46ca3993cd51573f","id":74315045,"location_subtype":"","month":"2019-05"},{"category":"shoplifting","location_type":"Force","location":{"latitude":"51.560541","street":{"id":966611,"name":"On or near Tiptree Road"},"longitude":"-0.401801"},"context":"","outcome_status":{"category":"Status update unavailable","date":"2019-09"},"persistent_id":"d82f88f8746691c43647acaca84b47f0e5f0b406106e74aa46ca3993cd51573f","id":74315046,"location_subtype":"","month":"2019-05"},{"category":"theft-from-the-person","location_type":"Force","location":{"latitude":"51.555111","street":{"id":966613,"name":"On or near Station Approach"},"longitude":"-0.401256"},"context":"","outcome_status":{"category":"Status update unavailable","date":"2019-09"},"persistent_id":"122420d2db62599fc36bdd9f3097d9c3993c9ed295cafc52c765a20f1d1d1e4b","id":74368907,"location_subtype":"","month":"2019-05"},{"category":"theft-from-the-person","location_type":"Force","location":{"latitude":"51.556568","street":{"id":966674,"name":"On or near Parking Area"},"longitude":"-0.399271"},"context":"","outcome_status":{"category":"Investigation complete; no suspect identified","date":"2020-03"},"persistent_id":"b5e5214ac76d5add4bf8eb149024928015f54d4380e1ad900326f8d04fe1c590","id":74346667,"location_subtype":"","month":"2019-05"},{"category":"vehicle-crime","location_type":"Force","location":{"latitude":"51.553742","street":{"id":966643,"name":"On or near Rabournmead Drive"},"longitude":"-0.380763"},"context":"","outcome_status":{"category":"Status update unavailable","date":"2019-09"},"persistent_id":"491d858a0e9a8c53ff591ed2e6c7a4a0f2133f4988aa332c659dbeb5ef03bc43","id":74299459,"location_subtype":"","month":"2019-05"},{"category":"vehicle-crime","location_type":"Force","location":{"latitude":"51.550388","street":{"id":966637,"name":"On or near Warsaw Close"},"longitude":"-0.401767"},"context":"","outcome_status":{"category":"Status update unavailable","date":"2019-09"},"persistent_id":"aece35e26bb6d60e4c97846cac6a4afdad084d9a0f70a34031543e15c7c23cc4","id":74297847,"location_subtype":"","month":"2019-05"},{"category":"vehicle-crime","location_type":"Force","location":{"latitude":"51.566196","street":{"id":973234,"name":"On or near Torrington Road"},"longitude":"-0.412294"},"context":"","outcome_status":{"category":"Status update unavailable","date":"2019-09"},"persistent_id":"b38943f112882e1d995dc0d097eaf2f98ac1cfc185ba346874b2986722472e3b","id":74342060,"location_subtype":"","month":"2019-05"},{"category":"vehicle-crime","location_type":"Force","location":{"latitude":"51.568693","street":{"id":923460,"name":"On or near Ashburton Road"},"longitude":"-0.410793"},"context":"","outcome_status":{"category":"Status update unavailable","date":"2019-09"},"persistent_id":"00f3979056d082c333878fc8d0735f866c1ea68cb9a421140c2f8f54bf16af53","id":74342110,"location_subtype":"","month":"2019-05"},{"category":"vehicle-crime","location_type":"Force","location":{"latitude":"51.563828","street":{"id":973197,"name":"On or near Well Close"},"longitude":"-0.383088"},"context":"","outcome_status":{"category":"Status update unavailable","date":"2019-09"},"persistent_id":"62f6ae311f90f7bca1521814debff347f647dc2714857926e3c8655bf4ed2dc6","id":74342113,"location_subtype":"","month":"2019-05"},{"category":"vehicle-crime","location_type":"Force","location":{"latitude":"51.560907","street":{"id":966660,"name":"On or near Supermarket"},"longitude":"-0.381288"},"context":"","outcome_status":{"category":"Status update unavailable","date":"2019-09"},"persistent_id":"6438650a935b8bafd3d588e2e80116882560d023fc99653549d72fc4326acb95","id":74342114,"location_subtype":"","month":"2019-05"},{"category":"vehicle-crime","location_type":"Force","location":{"latitude":"51.550051","street":{"id":966636,"name":"On or near Weldon Close"},"longitude":"-0.402731"},"context":"","outcome_status":{"category":"Status update unavailable","date":"2019-09"},"persistent_id":"86d28bba02b21b627ba60a900144fc7679e7df167c16ddf175803723112ed80a","id":74329273,"location_subtype":"","month":"2019-05"},{"category":"vehicle-crime","location_type":"Force","location":{"latitude":"51.563702","street":{"id":973303,"name":"On or near Appledore Avenue"},"longitude":"-0.399511"},"context":"","outcome_status":{"category":"Status update unavailable","date":"2019-09"},"persistent_id":"70ecdb89a8c7ecececa62aea6b4845f3bf9b676d72ba99b9b1e580c861d996a1","id":74342466,"location_subtype":"","month":"2019-05"},{"category":"vehicle-crime","location_type":"Force","location":{"latitude":"51.552689","street":{"id":966604,"name":"On or near West End Road"},"longitude":"-0.402999"},"context":"","outcome_status":{"category":"Status update unavailable","date":"2019-09"},"persistent_id":"402c93a63a1801e982a23b513a0602a9521c3ad228e8ed4f0cd43d895245ac89","id":74342683,"location_subtype":"","month":"2019-05"},{"category":"vehicle-crime","location_type":"Force","location":{"latitude":"51.556038","street":{"id":966658,"name":"On or near Bradfield Road"},"longitude":"-0.379686"},"context":"","outcome_status":{"category":"Status update unavailable","date":"2019-09"},"persistent_id":"af427590b7502a43e86ac176a116fad580c39d370c63215b36fb6093f8d667e7","id":74299226,"location_subtype":"","month":"2019-05"},{"category":"vehicle-crime","location_type":"Force","location":{"latitude":"51.558002","street":{"id":966714,"name":"On or near Parking Area"},"longitude":"-0.397591"},"context":"","outcome_status":{"category":"Status update unavailable","date":"2019-09"},"persistent_id":"3a2c5619723112997048e49a8e573f05e01a93e48611ddb485263a7f898a94cb","id":74303546,"location_subtype":"","month":"2019-05"},{"category":"vehicle-crime","location_type":"Force","location":{"latitude":"51.560393","street":{"id":966675,"name":"On or near West Mead"},"longitude":"-0.399527"},"context":"","outcome_status":{"category":"Status update unavailable","date":"2019-09"},"persistent_id":"e713c89f4507da292455a01b91946241c3cd71948488dd1117f21aee559197ab","id":74296991,"location_subtype":"","month":"2019-05"},{"category":"vehicle-crime","location_type":"Force","location":{"latitude":"51.551602","street":{"id":966644,"name":"On or near Cartmel Court"},"longitude":"-0.379426"},"context":"","outcome_status":{"category":"Status update unavailable","date":"2019-09"},"persistent_id":"43e20cd682e7e97caa6e5710a75a0df3b88f40ed942f893f4743188200767fba","id":74319660,"location_subtype":"","month":"2019-05"},{"category":"vehicle-crime","location_type":"Force","location":{"latitude":"51.564933","street":{"id":973241,"name":"On or near Flamborough Road"},"longitude":"-0.407389"},"context":"","outcome_status":{"category":"Status update unavailable","date":"2019-09"},"persistent_id":"b0a626b2d98404415d8458c6b587d18473f53b84ee0fce2ccb6f051418a54b10","id":74298879,"location_subtype":"","month":"2019-05"},{"category":"vehicle-crime","location_type":"Force","location":{"latitude":"51.563828","street":{"id":973197,"name":"On or near Well Close"},"longitude":"-0.383088"},"context":"","outcome_status":{"category":"Status update unavailable","date":"2019-09"},"persistent_id":"d8a3ea80e7b3423e54b2949e5dd78a3ca88373828148193661b64eccc4550947","id":74342827,"location_subtype":"","month":"2019-05"},{"category":"vehicle-crime","location_type":"Force","location":{"latitude":"51.566196","street":{"id":973234,"name":"On or near Torrington Road"},"longitude":"-0.412294"},"context":"","outcome_status":{"category":"Status update unavailable","date":"2019-09"},"persistent_id":"4a55f17819a4ea887d2d4ad29887950f89140bb2425ccf46095b364a75491bc2","id":74358678,"location_subtype":"","month":"2019-05"},{"category":"vehicle-crime","location_type":"Force","location":{"latitude":"51.560181","street":{"id":966682,"name":"On or near Queens Walk"},"longitude":"-0.389897"},"context":"","outcome_status":{"category":"Status update unavailable","date":"2019-09"},"persistent_id":"561b92c15336731dcfa91abc8da7973b1a71d36ddb0410ad42ca4166968c7f88","id":74344454,"location_subtype":"","month":"2019-05"},{"category":"vehicle-crime","location_type":"Force","location":{"latitude":"51.568447","street":{"id":973233,"name":"On or near Victoria Road"},"longitude":"-0.409214"},"context":"","outcome_status":{"category":"Status update unavailable","date":"2019-09"},"persistent_id":"507735214c3559e9709693de6d2928915d8f30d05eff0f2bdd97469bb4bdb157","id":74344740,"location_subtype":"","month":"2019-05"},{"category":"vehicle-crime","location_type":"Force","location":{"latitude":"51.561411","street":{"id":966684,"name":"On or near Monks Close"},"longitude":"-0.389104"},"context":"","outcome_status":{"category":"Status update unavailable","date":"2019-09"},"persistent_id":"4ec3904179af2d7ed14463dc5c7cdba7a79c551b16f364321703d8113ba45290","id":74299621,"location_subtype":"","month":"2019-05"},{"category":"vehicle-crime","location_type":"Force","location":{"latitude":"51.560948","street":{"id":966654,"name":"On or near Field End Road"},"longitude":"-0.380291"},"context":"","outcome_status":{"category":"Status update unavailable","date":"2019-09"},"persistent_id":"59d69b4d9412589e751fc90c95ff82cb8140a0b2ec364f6df2887794a3702762","id":74342414,"location_subtype":"","month":"2019-05"},{"category":"vehicle-crime","location_type":"Force","location":{"latitude":"51.560393","street":{"id":966675,"name":"On or near West Mead"},"longitude":"-0.399527"},"context":"","outcome_status":{"category":"Status update unavailable","date":"2019-09"},"persistent_id":"23c843b187c34c74ab10cfb26c269e289238af12e9d8fc7cd9c46727625e1d62","id":74352274,"location_subtype":"","month":"2019-05"},{"category":"vehicle-crime","location_type":"Force","location":{"latitude":"51.563353","street":{"id":973203,"name":"On or near White Butts Road"},"longitude":"-0.386481"},"context":"","outcome_status":{"category":"Status update unavailable","date":"2019-09"},"persistent_id":"c5d77960a77c1099389156e08f48732f62a97513cc17c28c28ea7ff8197e7613","id":74352749,"location_subtype":"","month":"2019-05"},{"category":"vehicle-crime","location_type":"Force","location":{"latitude":"51.562399","street":{"id":973212,"name":"On or near Abbot Close"},"longitude":"-0.390396"},"context":"","outcome_status":{"category":"Status update unavailable","date":"2019-09"},"persistent_id":"b4cb475a2b1e4f1d464e640fd57eed597abafc234600d8bd356caf4378ac013b","id":74340058,"location_subtype":"","month":"2019-05"},{"category":"vehicle-crime","location_type":"Force","location":{"latitude":"51.556369","street":{"id":966647,"name":"On or near Stonefield Close"},"longitude":"-0.384723"},"context":"","outcome_status":{"category":"Status update unavailable","date":"2019-09"},"persistent_id":"2ee1605dea5d50c5d9726cec0fd537c6c6b52d5ac7ca3004b67cd8466983fe57","id":74299224,"location_subtype":"","month":"2019-05"},{"category":"vehicle-crime","location_type":"Force","location":{"latitude":"51.560393","street":{"id":966675,"name":"On or near West Mead"},"longitude":"-0.399527"},"context":"","outcome_status":{"category":"Status update unavailable","date":"2019-09"},"persistent_id":"edda4b696393e011e4487c4e8d05481bd5885f172cf3c31213887368d4de2b26","id":74341423,"location_subtype":"","month":"2019-05"},{"category":"vehicle-crime","location_type":"Force","location":{"latitude":"51.553027","street":{"id":966640,"name":"On or near Wilsmere Drive"},"longitude":"-0.380428"},"context":"","outcome_status":{"category":"Status update unavailable","date":"2019-09"},"persistent_id":"bfba075c044204a67b40609189e2ae22a26735d4e13d3972b48c3a2fcb2369bc","id":74338704,"location_subtype":"","month":"2019-05"},{"category":"vehicle-crime","location_type":"Force","location":{"latitude":"51.565849","street":{"id":973286,"name":"On or near Bempton Drive"},"longitude":"-0.405265"},"context":"","outcome_status":{"category":"Status update unavailable","date":"2019-09"},"persistent_id":"4f0990cbe1fdad927275107005802e5533847aef0a02bf553abf912d06766e3c","id":74341481,"location_subtype":"","month":"2019-05"},{"category":"vehicle-crime","location_type":"Force","location":{"latitude":"51.564933","street":{"id":973241,"name":"On or near Flamborough Road"},"longitude":"-0.407389"},"context":"","outcome_status":{"category":"Status update unavailable","date":"2019-09"},"persistent_id":"1a787f8dc414b09f243fa839645daf101ca7c524feda786e0704610f9318bda8","id":74305748,"location_subtype":"","month":"2019-05"},{"category":"vehicle-crime","location_type":"Force","location":{"latitude":"51.558002","street":{"id":966714,"name":"On or near Parking Area"},"longitude":"-0.397591"},"context":"","outcome_status":{"category":"Status update unavailable","date":"2019-09"},"persistent_id":"1ef3715de1672ece4e6d505e5076d8d391f8475dc58a1683e2120e8054c6e2fa","id":74337104,"location_subtype":"","month":"2019-05"},{"category":"vehicle-crime","location_type":"Force","location":{"latitude":"51.568293","street":{"id":973223,"name":"On or near Kingswear Road"},"longitude":"-0.413144"},"context":"","outcome_status":{"category":"Status update unavailable","date":"2019-09"},"persistent_id":"28d42be7dc9801fd0bb093240235a705468f03c8c66b3e52d046e8c266b614a2","id":74347278,"location_subtype":"","month":"2019-05"},{"category":"vehicle-crime","location_type":"Force","location":{"latitude":"51.567553","street":{"id":973143,"name":"On or near Oxford Drive"},"longitude":"-0.393085"},"context":"","outcome_status":{"category":"Status update unavailable","date":"2019-09"},"persistent_id":"5ced5bbfc48716ecf72cb233905c13a69e84f9cf7a2c13c2eee568050878d227","id":74300648,"location_subtype":"","month":"2019-05"},{"category":"vehicle-crime","location_type":"Force","location":{"latitude":"51.548532","street":{"id":966147,"name":"On or near Roxbourne Close"},"longitude":"-0.386386"},"context":"","outcome_status":{"category":"Status update unavailable","date":"2019-09"},"persistent_id":"eb401be3981c9b30f55d7eff9d61ec48303d4d77fd5b2032a4773e14fad793d4","id":74347298,"location_subtype":"","month":"2019-05"},{"category":"violent-crime","location_type":"Force","location":{"latitude":"51.556248","street":{"id":923589,"name":"On or near Crown Road"},"longitude":"-0.387065"},"context":"","outcome_status":{"category":"Status update unavailable","date":"2019-09"},"persistent_id":"298655a864948516aecca73d517c591646c99a2f355603758bfea45aace25ddd","id":74350009,"location_subtype":"","month":"2019-05"},{"category":"violent-crime","location_type":"Force","location":{"latitude":"51.556248","street":{"id":923589,"name":"On or near Crown Road"},"longitude":"-0.387065"},"context":"","outcome_status":{"category":"Status update unavailable","date":"2019-09"},"persistent_id":"298655a864948516aecca73d517c591646c99a2f355603758bfea45aace25ddd","id":74350270,"location_subtype":"","month":"2019-05"},{"category":"violent-crime","location_type":"Force","location":{"latitude":"51.556248","street":{"id":923589,"name":"On or near Crown Road"},"longitude":"-0.387065"},"context":"","outcome_status":{"category":"Investigation complete; no suspect identified","date":"2020-03"},"persistent_id":"298655a864948516aecca73d517c591646c99a2f355603758bfea45aace25ddd","id":74350271,"location_subtype":"","month":"2019-05"},{"category":"violent-crime","location_type":"Force","location":{"latitude":"51.566196","street":{"id":973234,"name":"On or near Torrington Road"},"longitude":"-0.412294"},"context":"","outcome_status":{"category":"Status update unavailable","date":"2019-09"},"persistent_id":"59a2c51bd1442e3795e6b34aad0cea6f0488d5eb73632257fbbcefff60f53fcc","id":74351635,"location_subtype":"","month":"2019-05"},{"category":"violent-crime","location_type":"Force","location":{"latitude":"51.558002","street":{"id":966714,"name":"On or near Parking Area"},"longitude":"-0.397591"},"context":"","outcome_status":{"category":"Status update unavailable","date":"2019-09"},"persistent_id":"1d56b52c433f6f70bbdac3d44c3804d183fdade2cfe09adc8516413aff0bbf80","id":74351730,"location_subtype":"","month":"2019-05"},{"category":"violent-crime","location_type":"Force","location":{"latitude":"51.556605","street":{"id":966698,"name":"On or near Shopping Area"},"longitude":"-0.387528"},"context":"","outcome_status":{"category":"Status update unavailable","date":"2019-09"},"persistent_id":"5de34213edc0f66179bf4d9839bdaf73699209c89f1663a7397d0ef04d11672e","id":74361553,"location_subtype":"","month":"2019-05"},{"category":"violent-crime","location_type":"Force","location":{"latitude":"51.556605","street":{"id":966698,"name":"On or near Shopping Area"},"longitude":"-0.387528"},"context":"","outcome_status":{"category":"Status update unavailable","date":"2019-09"},"persistent_id":"5de34213edc0f66179bf4d9839bdaf73699209c89f1663a7397d0ef04d11672e","id":74361555,"location_subtype":"","month":"2019-05"},{"category":"violent-crime","location_type":"Force","location":{"latitude":"51.550892","street":{"id":966700,"name":"On or near Masson Avenue"},"longitude":"-0.399096"},"context":"","outcome_status":{"category":"Status update unavailable","date":"2019-09"},"persistent_id":"982e34e19a6ebcdd82bddf041fde016a1e9a43fb12cb76e32ff9c45130730780","id":74366132,"location_subtype":"","month":"2019-05"},{"category":"violent-crime","location_type":"Force","location":{"latitude":"51.552369","street":{"id":966761,"name":"On or near Newbury Way"},"longitude":"-0.378317"},"context":"","outcome_status":{"category":"Status update unavailable","date":"2019-09"},"persistent_id":"c5ff3a351cd88f4efccaa2f4e31b079d824cccb6b61204f22ab1ff6c22e104dd","id":74366517,"location_subtype":"","month":"2019-05"},{"category":"violent-crime","location_type":"Force","location":{"latitude":"51.559860","street":{"id":966645,"name":"On or near Warwick Avenue"},"longitude":"-0.378382"},"context":"","outcome_status":{"category":"Court result unavailable","date":"2019-11"},"persistent_id":"edbd4ad5d65f110d2ee26305bff95dcba2c250298675527398cc2ebdfdb3ba3d","id":74302846,"location_subtype":"","month":"2019-05"},{"category":"violent-crime","location_type":"Force","location":{"latitude":"51.552369","street":{"id":966761,"name":"On or near Newbury Way"},"longitude":"-0.378317"},"context":"","outcome_status":{"category":"Status update unavailable","date":"2019-09"},"persistent_id":"353248f64c885dd36cde78b1e144ba7e4d6106b8f724a776d18d893af04fa0ca","id":74368991,"location_subtype":"","month":"2019-05"},{"category":"violent-crime","location_type":"Force","location":{"latitude":"51.562066","street":{"id":973202,"name":"On or near Field End Road"},"longitude":"-0.381867"},"context":"","outcome_status":{"category":"Status update unavailable","date":"2019-09"},"persistent_id":"5c9d91a847ff8f02b5f26dad22015161b172ecf54fe79a629f1f9ce8c862a04f","id":74306418,"location_subtype":"","month":"2019-05"},{"category":"violent-crime","location_type":"Force","location":{"latitude":"51.558002","street":{"id":966714,"name":"On or near Parking Area"},"longitude":"-0.397591"},"context":"","outcome_status":{"category":"Court result unavailable","date":"2020-07"},"persistent_id":"05cf419afb4fa774805e59d3c931b67442b94ce4c1f19f0a3dd91f7ef4e4a749","id":74337977,"location_subtype":"","month":"2019-05"},{"category":"violent-crime","location_type":"Force","location":{"latitude":"51.566590","street":{"id":973145,"name":"On or near Mount Pleasant"},"longitude":"-0.392398"},"context":"","outcome_status":{"category":"Status update unavailable","date":"2019-09"},"persistent_id":"97cc63bb840a7ad04354a7eadc2e033c25717c8a1720a6fb721355cde606b63d","id":74326274,"location_subtype":"","month":"2019-05"},{"category":"violent-crime","location_type":"Force","location":{"latitude":"51.561803","street":{"id":966648,"name":"On or near Royal Crescent"},"longitude":"-0.384920"},"context":"","outcome_status":{"category":"Status update unavailable","date":"2019-09"},"persistent_id":"471b14cfd3d6e8f5d76ec98380bb084ec141d2f3f2293163107dee356402c305","id":74318583,"location_subtype":"","month":"2019-05"},{"category":"violent-crime","location_type":"Force","location":{"latitude":"51.553859","street":{"id":966605,"name":"On or near Northolt Avenue"},"longitude":"-0.400405"},"context":"","outcome_status":{"category":"Status update unavailable","date":"2019-09"},"persistent_id":"8db479bac23b9d2cf36fbffd6b8c7c7049f83960417c3c1bd648ac7fd3dcb768","id":74329282,"location_subtype":"","month":"2019-05"},{"category":"violent-crime","location_type":"Force","location":{"latitude":"51.566590","street":{"id":973145,"name":"On or near Mount Pleasant"},"longitude":"-0.392398"},"context":"","outcome_status":{"category":"Status update unavailable","date":"2019-09"},"persistent_id":"5accac14b2521cbef00a864272e64a865ea008f7e2612320c074e5af43623648","id":74326155,"location_subtype":"","month":"2019-05"},{"category":"violent-crime","location_type":"Force","location":{"latitude":"51.570260","street":{"id":973243,"name":"On or near Dawlish Drive"},"longitude":"-0.406958"},"context":"","outcome_status":{"category":"Status update unavailable","date":"2019-09"},"persistent_id":"9cb94992592662171134b31d4444c490ed05c8cbc3736d6a4506270fb40c1917","id":74332200,"location_subtype":"","month":"2019-05"},{"category":"violent-crime","location_type":"Force","location":{"latitude":"51.562399","street":{"id":973212,"name":"On or near Abbot Close"},"longitude":"-0.390396"},"context":"","outcome_status":{"category":"Status update unavailable","date":"2019-09"},"persistent_id":"843e0c878f677939b340ddd0c26cfc274616a11d7f6e959e63bd747c9eb635e5","id":74323558,"location_subtype":"","month":"2019-05"},{"category":"violent-crime","location_type":"Force","location":{"latitude":"51.558434","street":{"id":966677,"name":"On or near Victoria Road"},"longitude":"-0.394979"},"context":"","outcome_status":{"category":"Status update unavailable","date":"2019-09"},"persistent_id":"7df9834df989fb4d6f76e836771d249ce62f586d975a6dcd624e8548e30e041d","id":74332799,"location_subtype":"","month":"2019-05"},{"category":"violent-crime","location_type":"Force","location":{"latitude":"51.561411","street":{"id":966684,"name":"On or near Monks Close"},"longitude":"-0.389104"},"context":"","outcome_status":{"category":"Status update unavailable","date":"2019-09"},"persistent_id":"1b31d1fd62869cb59578957274754deba65d6270f1a2b61ed40625bdf733b99a","id":74307131,"location_subtype":"","month":"2019-05"},{"category":"violent-crime","location_type":"Force","location":{"latitude":"51.556605","street":{"id":966698,"name":"On or near Shopping Area"},"longitude":"-0.387528"},"context":"","outcome_status":{"category":"Status update unavailable","date":"2019-09"},"persistent_id":"6f31013901b9b9b7b4e1bd58e1090b292d23cbc0e2e6fedb872b2e5ece97a0fc","id":74303988,"location_subtype":"","month":"2019-05"},{"category":"violent-crime","location_type":"Force","location":{"latitude":"51.561378","street":{"id":966627,"name":"On or near Bromley Crescent"},"longitude":"-0.418434"},"context":"","outcome_status":{"category":"Court result unavailable","date":"2019-12"},"persistent_id":"f81bd6c2094661664bb0a7e4b4b4e545564f68cece747d77a05cc8a916a211ef","id":74336291,"location_subtype":"","month":"2019-05"},{"category":"violent-crime","location_type":"Force","location":{"latitude":"51.556149","street":{"id":966692,"name":"On or near Petrol Station"},"longitude":"-0.392968"},"context":"","outcome_status":{"category":"Status update unavailable","date":"2019-09"},"persistent_id":"2b0cad25f7896d3021c64baf0562af67f72795fd701ca19a658bee60f692e700","id":74301249,"location_subtype":"","month":"2019-05"},{"category":"violent-crime","location_type":"Force","location":{"latitude":"51.556149","street":{"id":966692,"name":"On or near Petrol Station"},"longitude":"-0.392968"},"context":"","outcome_status":{"category":"Status update unavailable","date":"2019-09"},"persistent_id":"7dacf636e00336a62c27337eeecf6a9054e8f206179e4a4e124044ac2af64c0c","id":74301186,"location_subtype":"","month":"2019-05"},{"category":"violent-crime","location_type":"Force","location":{"latitude":"51.557853","street":{"id":966790,"name":"On or near Holyrood Avenue"},"longitude":"-0.378251"},"context":"","outcome_status":{"category":"Status update unavailable","date":"2019-09"},"persistent_id":"c490c59ade42f4d6cfe4f5738352a2494df69849b560cd15d5faa07e81a1fe17","id":74299974,"location_subtype":"","month":"2019-05"},{"category":"violent-crime","location_type":"Force","location":{"latitude":"51.556605","street":{"id":966698,"name":"On or near Shopping Area"},"longitude":"-0.387528"},"context":"","outcome_status":{"category":"Status update unavailable","date":"2019-09"},"persistent_id":"a412b714786cddeb6cc5703ff2275fbaea959024f214aeb6673663b32bab153d","id":74341166,"location_subtype":"","month":"2019-05"},{"category":"violent-crime","location_type":"Force","location":{"latitude":"51.564138","street":{"id":973306,"name":"On or near Lawn Close"},"longitude":"-0.417718"},"context":"","outcome_status":{"category":"Status update unavailable","date":"2019-09"},"persistent_id":"8586937d49cf2227d0cd6a78d8be2f514ab885872faa86f78ff7aca23bf877ec","id":74341419,"location_subtype":"","month":"2019-05"},{"category":"violent-crime","location_type":"Force","location":{"latitude":"51.564138","street":{"id":973306,"name":"On or near Lawn Close"},"longitude":"-0.417718"},"context":"","outcome_status":{"category":"Status update unavailable","date":"2019-09"},"persistent_id":"8586937d49cf2227d0cd6a78d8be2f514ab885872faa86f78ff7aca23bf877ec","id":74341420,"location_subtype":"","month":"2019-05"},{"category":"violent-crime","location_type":"Force","location":{"latitude":"51.564138","street":{"id":973306,"name":"On or near Lawn Close"},"longitude":"-0.417718"},"context":"","outcome_status":{"category":"Status update unavailable","date":"2019-09"},"persistent_id":"8586937d49cf2227d0cd6a78d8be2f514ab885872faa86f78ff7aca23bf877ec","id":74341421,"location_subtype":"","month":"2019-05"},{"category":"violent-crime","location_type":"Force","location":{"latitude":"51.555111","street":{"id":966613,"name":"On or near Station Approach"},"longitude":"-0.401256"},"context":"","outcome_status":{"category":"Status update unavailable","date":"2019-09"},"persistent_id":"5c82ffeb9c3d6ba52eeff5b2563790816076b515482d3dc879e4efbf8a07ee87","id":74341483,"location_subtype":"","month":"2019-05"},{"category":"violent-crime","location_type":"Force","location":{"latitude":"51.555111","street":{"id":966613,"name":"On or near Station Approach"},"longitude":"-0.401256"},"context":"","outcome_status":{"category":"Status update unavailable","date":"2019-09"},"persistent_id":"1e7d9deced6a9c7e4adfeaa4023a8ea81e0413b9f98a51ead505641ba6ca2a07","id":74342197,"location_subtype":"","month":"2019-05"},{"category":"violent-crime","location_type":"Force","location":{"latitude":"51.556526","street":{"id":966612,"name":"On or near The Runway"},"longitude":"-0.400110"},"context":"","outcome_status":{"category":"Status update unavailable","date":"2019-09"},"persistent_id":"06b2397f29979a4847ad2203e457e69870eeb3a46e27c3c138589cef336bc754","id":74343813,"location_subtype":"","month":"2019-05"},{"category":"violent-crime","location_type":"Force","location":{"latitude":"51.560181","street":{"id":966682,"name":"On or near Queens Walk"},"longitude":"-0.389897"},"context":"","outcome_status":{"category":"Status update unavailable","date":"2019-09"},"persistent_id":"06c7854ead6f11f967bcede1dd72f380c14e96301a3606c76117a522cdddbb40","id":74344025,"location_subtype":"","month":"2019-05"},{"category":"violent-crime","location_type":"Force","location":{"latitude":"51.558002","street":{"id":966714,"name":"On or near Parking Area"},"longitude":"-0.397591"},"context":"","outcome_status":{"category":"Status update unavailable","date":"2019-09"},"persistent_id":"d1eb6659923067ee2097e7b5b8452db79266194cb1beef3088ff4e3ea8c15def","id":74337282,"location_subtype":"","month":"2019-05"},{"category":"violent-crime","location_type":"Force","location":{"latitude":"51.558002","street":{"id":966714,"name":"On or near Parking Area"},"longitude":"-0.397591"},"context":"","outcome_status":{"category":"Status update unavailable","date":"2019-09"},"persistent_id":"05cf419afb4fa774805e59d3c931b67442b94ce4c1f19f0a3dd91f7ef4e4a749","id":74337976,"location_subtype":"","month":"2019-05"},{"category":"violent-crime","location_type":"Force","location":{"latitude":"51.552689","street":{"id":966604,"name":"On or near West End Road"},"longitude":"-0.402999"},"context":"","outcome_status":{"category":"Status update unavailable","date":"2019-09"},"persistent_id":"be3579a67245e54bcdcd0405d434b57c854b50f8d872ab9ff06f2b70ad2bbe10","id":74339795,"location_subtype":"","month":"2019-05"},{"category":"violent-crime","location_type":"Force","location":{"latitude":"51.566367","street":{"id":973287,"name":"On or near Sports\/recreation Area"},"longitude":"-0.401741"},"context":"","outcome_status":{"category":"Status update unavailable","date":"2019-09"},"persistent_id":"7266e02fa465d24abb106361fbb9bf49e5894ce95a3b2272a9bdef3f5994f032","id":74346933,"location_subtype":"","month":"2019-05"},{"category":"violent-crime","location_type":"Force","location":{"latitude":"51.561378","street":{"id":966627,"name":"On or near Bromley Crescent"},"longitude":"-0.418434"},"context":"","outcome_status":{"category":"Status update unavailable","date":"2019-09"},"persistent_id":"fda079cda26cd02b9f38e33de151ab7faed033597eda90da30ec2e0e5b22c0a4","id":74353677,"location_subtype":"","month":"2019-05"},{"category":"violent-crime","location_type":"Force","location":{"latitude":"51.556605","street":{"id":966698,"name":"On or near Shopping Area"},"longitude":"-0.387528"},"context":"","outcome_status":{"category":"Status update unavailable","date":"2019-09"},"persistent_id":"fc9ef0049d2c8427481bf6ad1fedd965541ec1b5b097f6d4c5231d3b8b747db7","id":74355579,"location_subtype":"","month":"2019-05"},{"category":"violent-crime","location_type":"Force","location":{"latitude":"51.561202","street":{"id":966623,"name":"On or near Trevor Crescent"},"longitude":"-0.416046"},"context":"","outcome_status":{"category":"Status update unavailable","date":"2019-09"},"persistent_id":"4ac4003e7868cc0acea4f519eef0f1e795f6139b914b792a31181fcaa6462e11","id":74297159,"location_subtype":"","month":"2019-05"},{"category":"violent-crime","location_type":"Force","location":{"latitude":"51.558887","street":{"id":966646,"name":"On or near The Court"},"longitude":"-0.384750"},"context":"","outcome_status":{"category":"Status update unavailable","date":"2019-09"},"persistent_id":"6e916d2fc681370794bcdaac30014134ec3f856133f60f3a6cded890d05298f3","id":74322182,"location_subtype":"","month":"2019-05"},{"category":"violent-crime","location_type":"Force","location":{"latitude":"51.564804","street":{"id":973274,"name":"On or near Whitby Road"},"longitude":"-0.403137"},"context":"","outcome_status":{"category":"Status update unavailable","date":"2019-09"},"persistent_id":"cd6fb3ab6569f72edf9909fd394ce44c420f695b8ad1f1457395aab139acfe1a","id":74347696,"location_subtype":"","month":"2019-05"},{"category":"violent-crime","location_type":"Force","location":{"latitude":"51.561355","street":{"id":966614,"name":"On or near Manningtree Road"},"longitude":"-0.403475"},"context":"","outcome_status":{"category":"Status update unavailable","date":"2019-09"},"persistent_id":"07d380056e3d4343f8aeaf0fc97419ee73aff30effeeca229edd4c2dffe293e7","id":74348788,"location_subtype":"","month":"2019-05"},{"category":"violent-crime","location_type":"Force","location":{"latitude":"51.556248","street":{"id":923589,"name":"On or near Crown Road"},"longitude":"-0.387065"},"context":"","outcome_status":{"category":"Status update unavailable","date":"2019-09"},"persistent_id":"ef8a5734d273ca7cba1c129faaebcb9adfa5450b1ec07b18753884e5b3384b21","id":74349422,"location_subtype":"","month":"2019-05"},{"category":"violent-crime","location_type":"Force","location":{"latitude":"51.555096","street":{"id":966616,"name":"On or near Dudley Drive"},"longitude":"-0.403463"},"context":"","outcome_status":{"category":"Investigation complete; no suspect identified","date":"2020-03"},"persistent_id":"d0957e3e66f36ccc6f6da6aebdf13570d3c2cbd8ee9d2cc48662b7e5cb73db98","id":74293475,"location_subtype":"","month":"2019-05"},{"category":"violent-crime","location_type":"Force","location":{"latitude":"51.550051","street":{"id":966636,"name":"On or near Weldon Close"},"longitude":"-0.402731"},"context":"","outcome_status":{"category":"Investigation complete; no suspect identified","date":"2020-03"},"persistent_id":"5052b27ea14288d12b16b5afa2699dc017de90627ef4d01a095a76a11b27ea0c","id":74356236,"location_subtype":"","month":"2019-05"},{"category":"violent-crime","location_type":"Force","location":{"latitude":"51.553908","street":{"id":966769,"name":"On or near Field End Road"},"longitude":"-0.377137"},"context":"","outcome_status":{"category":"Status update unavailable","date":"2019-09"},"persistent_id":"e2a8ec7db4ac865eb2fc17acff0b0ae23c606849360d3fdd8278ba0dfa767dd3","id":74305772,"location_subtype":"","month":"2019-05"},{"category":"violent-crime","location_type":"Force","location":{"latitude":"51.553742","street":{"id":966643,"name":"On or near Rabournmead Drive"},"longitude":"-0.380763"},"context":"","outcome_status":{"category":"Investigation complete; no suspect identified","date":"2020-03"},"persistent_id":"cfb903f7c2b61187fb9fc2cc578e6d85633931aac2578e48bd6374cb823c12a6","id":74349762,"location_subtype":"","month":"2019-05"},{"category":"violent-crime","location_type":"Force","location":{"latitude":"51.556605","street":{"id":966698,"name":"On or near Shopping Area"},"longitude":"-0.387528"},"context":"","outcome_status":{"category":"Investigation complete; no suspect identified","date":"2020-03"},"persistent_id":"5de34213edc0f66179bf4d9839bdaf73699209c89f1663a7397d0ef04d11672e","id":74361557,"location_subtype":"","month":"2019-05"},{"category":"violent-crime","location_type":"Force","location":{"latitude":"51.556248","street":{"id":923589,"name":"On or near Crown Road"},"longitude":"-0.387065"},"context":"","outcome_status":{"category":"Investigation complete; no suspect identified","date":"2020-03"},"persistent_id":"ef8a5734d273ca7cba1c129faaebcb9adfa5450b1ec07b18753884e5b3384b21","id":74349423,"location_subtype":"","month":"2019-05"},{"category":"violent-crime","location_type":"Force","location":{"latitude":"51.559108","street":{"id":966693,"name":"On or near Petrol Station"},"longitude":"-0.397610"},"context":"","outcome_status":{"category":"Status update unavailable","date":"2019-09"},"persistent_id":"0f55440940f6e41dcbdfd80dcd08d2b1b53fbebf9dbfa2a377f234e5519798c1","id":74299927,"location_subtype":"","month":"2019-05"},{"category":"violent-crime","location_type":"Force","location":{"latitude":"51.559860","street":{"id":966645,"name":"On or near Warwick Avenue"},"longitude":"-0.378382"},"context":"","outcome_status":{"category":"Investigation complete; no suspect identified","date":"2020-03"},"persistent_id":"7c835ace889aa9426e7103b60267bb7fb46c940e9a6a97e88f488ec5e370cb9d","id":74355656,"location_subtype":"","month":"2019-05"},{"category":"violent-crime","location_type":"Force","location":{"latitude":"51.562399","street":{"id":973212,"name":"On or near Abbot Close"},"longitude":"-0.390396"},"context":"","outcome_status":{"category":"Investigation complete; no suspect identified","date":"2020-03"},"persistent_id":"43290c5a0df29db43c27f4a3eb8f20ecf95e2114e3f35a1c4c50583412e6be60","id":74335170,"location_subtype":"","month":"2019-05"},{"category":"other-crime","location_type":"Force","location":{"latitude":"51.550388","street":{"id":966637,"name":"On or near Warsaw Close"},"longitude":"-0.401767"},"context":"","outcome_status":{"category":"Investigation complete; no suspect identified","date":"2020-03"},"persistent_id":"59e1584f3df41f299900ab757942f701cc0681df8a20da2c6ba9d9f63137fbee","id":74304065,"location_subtype":"","month":"2019-05"},{"category":"other-crime","location_type":"Force","location":{"latitude":"51.562399","street":{"id":973212,"name":"On or near Abbot Close"},"longitude":"-0.390396"},"context":"","outcome_status":{"category":"Status update unavailable","date":"2019-09"},"persistent_id":"8d75e0f71abe2efa42e4650af969e1485d120ab3c3a11942973a307843a2c9d3","id":74318125,"location_subtype":"","month":"2019-05"},{"category":"other-crime","location_type":"Force","location":{"latitude":"51.560939","street":{"id":966649,"name":"On or near Rosebery Avenue"},"longitude":"-0.378387"},"context":"","outcome_status":{"category":"Status update unavailable","date":"2019-09"},"persistent_id":"f983c22a938ab91a08facaad4b30d7975e4c3dcf777cd9e6e8a6abd8ac50fc4e","id":74364463,"location_subtype":"","month":"2019-05"}]