[{"category":"anti-social-behaviour","location_type":"Force","location":{"latitude":"51.501616","street":{"id":952198,"name":"On or near Bollo Bridge Road"},"longitude":"-0.271828"},"context":"","outcome_status":null,"persistent_id":"","id":74270124,"location_subtype":"","month":"2019-05"},{"category":"anti-social-behaviour","location_type":"Force","location":{"latitude":"51.492142","street":{"id":950742,"name":"On or near Police Station"},"longitude":"-0.258170"},"context":"","outcome_status":null,"persistent_id":"","id":74278684,"location_subtype":"","month":"2019-05"},{"category":"anti-social-behaviour","location_type":"Force","location":{"latitude":"51.492142","street":{"id":950742,"name":"On or near Police Station"},"longitude":"-0.258170"},"context":"","outcome_status":null,"persistent_id":"","id":74278685,"location_subtype":"","month":"2019-05"},{"category":"anti-social-behaviour","location_type":"Force","location":{"latitude":"51.493591","street":{"id":950726,"name":"On or near Chiswick Common Road"},"longitude":"-0.258864"},"context":"","outcome_status":null,"persistent_id":"","id":74278688,"location_subtype":"","month":"2019-05"},{"category":"anti-social-behaviour","location_type":"Force","location":{"latitude":"51.493591","street":{"id":950726,"name":"On or near Chiswick Common Road"},"longitude":"-0.258864"},"context":"","outcome_status":null,"persistent_id":"","id":74278689,"location_subtype":"","month":"2019-05"},{"category":"anti-social-behaviour","location_type":"Force","location":{"latitude":"51.493574","street":{"id":950714,"name":"On or near Fisher's Lane"},"longitude":"-0.260089"},"context":"","outcome_status":null,"persistent_id":"","id":74278690,"location_subtype":"","month":"2019-05"},{"category":"anti-social-behaviour","location_type":"Force","location":{"latitude":"51.493364","street":{"id":950735,"name":"On or near Arnott Close"},"longitude":"-0.260529"},"context":"","outcome_status":null,"persistent_id":"","id":74278691,"location_subtype":"","month":"2019-05"},{"category":"anti-social-behaviour","location_type":"Force","location":{"latitude":"51.494265","street":{"id":952279,"name":"On or near Belmont Grove"},"longitude":"-0.261835"},"context":"","outcome_status":null,"persistent_id":"","id":74278692,"location_subtype":"","month":"2019-05"},{"category":"anti-social-behaviour","location_type":"Force","location":{"latitude":"51.481661","street":{"id":950750,"name":"On or near Burlington Lane"},"longitude":"-0.262674"},"context":"","outcome_status":null,"persistent_id":"","id":74278695,"location_subtype":"","month":"2019-05"},{"category":"anti-social-behaviour","location_type":"Force","location":{"latitude":"51.492796","street":{"id":950665,"name":"On or near Essex Place Square"},"longitude":"-0.264642"},"context":"","outcome_status":null,"persistent_id":"","id":74278698,"location_subtype":"","month":"2019-05"},{"category":"anti-social-behaviour","location_type":"Force","location":{"latitude":"51.492796","street":{"id":950665,"name":"On or near Essex Place Square"},"longitude":"-0.264642"},"context":"","outcome_status":null,"persistent_id":"","id":74278699,"location_subtype":"","month":"2019-05"},{"category":"anti-social-behaviour","location_type":"Force","location":{"latitude":"51.493736","street":{"id":950634,"name":"On or near Parking Area"},"longitude":"-0.266191"},"context":"","outcome_status":null,"persistent_id":"","id":74278701,"location_subtype":"","month":"2019-05"},{"category":"anti-social-behaviour","location_type":"Force","location":{"latitude":"51.493736","street":{"id":950634,"name":"On or near Parking Area"},"longitude":"-0.266191"},"context":"","outcome_status":null,"persistent_id":"","id":74278702,"location_subtype":"","month":"2019-05"},{"category":"anti-social-behaviour","location_type":"Force","location":{"latitude":"51.492821","street":{"id":950670,"name":"On or near Chiswick High Road"},"longitude":"-0.268199"},"context":"","outcome_status":null,"persistent_id":"","id":74278703,"location_subtype":"","month":"2019-05"},{"category":"anti-social-behaviour","location_type":"Force","location":{"latitude":"51.492480","street":{"id":950680,"name":"On or near Bishops Close"},"longitude":"-0.269408"},"context":"","outcome_status":null,"persistent_id":"","id":74278706,"location_subtype":"","month":"2019-05"},{"category":"anti-social-behaviour","location_type":"Force","location":{"latitude":"51.492480","street":{"id":950680,"name":"On or near Bishops Close"},"longitude":"-0.269408"},"context":"","outcome_status":null,"persistent_id":"","id":74278707,"location_subtype":"","month":"2019-05"},{"category":"anti-social-behaviour","location_type":"Force","location":{"latitude":"51.487771","street":{"id":950663,"name":"On or near Falcon Close"},"longitude":"-0.272711"},"context":"","outcome_status":null,"persistent_id":"","id":74278709,"location_subtype":"","month":"2019-05"},{"category":"anti-social-behaviour","location_type":"Force","location":{"latitude":"51.488990","street":{"id":950654,"name":"On or near Harvard Road"},"longitude":"-0.273040"},"context":"","outcome_status":null,"persistent_id":"","id":74278710,"location_subtype":"","month":"2019-05"},{"category":"anti-social-behaviour","location_type":"Force","location":{"latitude":"51.490538","street":{"id":950636,"name":"On or near Wellesley Road"},"longitude":"-0.274321"},"context":"","outcome_status":null,"persistent_id":"","id":74278711,"location_subtype":"","month":"2019-05"},{"category":"anti-social-behaviour","location_type":"Force","location":{"latitude":"51.494733","street":{"id":952253,"name":"On or near Park\/open Space"},"longitude":"-0.274624"},"context":"","outcome_status":null,"persistent_id":"","id":74278712,"location_subtype":"","month":"2019-05"},{"category":"anti-social-behaviour","location_type":"Force","location":{"latitude":"51.492032","street":{"id":950822,"name":"On or near Gunnersbury Mews"},"longitude":"-0.275676"},"context":"","outcome_status":null,"persistent_id":"","id":74278713,"location_subtype":"","month":"2019-05"},{"category":"anti-social-behaviour","location_type":"Force","location":{"latitude":"51.492032","street":{"id":950822,"name":"On or near Gunnersbury Mews"},"longitude":"-0.275676"},"context":"","outcome_status":null,"persistent_id":"","id":74278716,"location_subtype":"","month":"2019-05"},{"category":"anti-social-behaviour","location_type":"Force","location":{"latitude":"51.493589","street":{"id":950815,"name":"On or near Silver Crescent"},"longitude":"-0.276957"},"context":"","outcome_status":null,"persistent_id":"","id":74278718,"location_subtype":"","month":"2019-05"},{"category":"anti-social-behaviour","location_type":"Force","location":{"latitude":"51.507474","street":{"id":957620,"name":"On or near Ollgar Close"},"longitude":"-0.243665"},"context":"","outcome_status":null,"persistent_id":"","id":74285795,"location_subtype":"","month":"2019-05"},{"category":"anti-social-behaviour","location_type":"Force","location":{"latitude":"51.503468","street":{"id":952376,"name":"On or near Lefroy Road"},"longitude":"-0.249986"},"context":"","outcome_status":null,"persistent_id":"","id":74285814,"location_subtype":"","month":"2019-05"},{"category":"anti-social-behaviour","location_type":"Force","location":{"latitude":"51.505878","street":{"id":952395,"name":"On or near Clifton Avenue"},"longitude":"-0.243972"},"context":"","outcome_status":null,"persistent_id":"","id":74285802,"location_subtype":"","month":"2019-05"},{"category":"anti-social-behaviour","location_type":"Force","location":{"latitude":"51.507474","street":{"id":957620,"name":"On or near Ollgar Close"},"longitude":"-0.243665"},"context":"","outcome_status":null,"persistent_id":"","id":74285794,"location_subtype":"","month":"2019-05"},{"category":"anti-social-behaviour","location_type":"Force","location":{"latitude":"51.507474","street":{"id":957620,"name":"On or near Ollgar Close"},"longitude":"-0.243665"},"context":"","outcome_status":null,"persistent_id":"","id":74285801,"location_subtype":"","month":"2019-05"},{"category":"anti-social-behaviour","location_type":"Force","location":{"latitude":"51.503275","street":{"id":952378,"name":"On or near Landor Walk"},"longitude":"-0.242487"},"context":"","outcome_status":null,"persistent_id":"","id":74285780,"location_subtype":"","month":"2019-05"},{"category":"anti-social-behaviour","location_type":"Force","location":{"latitude":"51.493297","street":{"id":950599,"name":"On or near Supermarket"},"longitude":"-0.241560"},"context":"","outcome_status":null,"persistent_id":"","id":74285769,"location_subtype":"","month":"2019-05"},{"category":"anti-social-behaviour","location_type":"Force","location":{"latitude":"51.507474","street":{"id":957620,"name":"On or near Ollgar Close"},"longitude":"-0.243665"},"context":"","outcome_status":null,"persistent_id":"","id":74285792,"location_subtype":"","month":"2019-05"},{"category":"anti-social-behaviour","location_type":"Force","location":{"latitude":"51.507474","street":{"id":957620,"name":"On or near Ollgar Close"},"longitude":"-0.243665"},"context":"","outcome_status":null,"persistent_id":"","id":74285791,"location_subtype":"","month":"2019-05"},{"category":"anti-social-behaviour","location_type":"Force","location":{"latitude":"51.503835","street":{"id":952318,"name":"On or near Percy Road"},"longitude":"-0.239093"},"context":"","outcome_status":null,"persistent_id":"","id":74285760,"location_subtype":"","month":"2019-05"},{"category":"anti-social-behaviour","location_type":"Force","location":{"latitude":"51.507474","street":{"id":957620,"name":"On or near Ollgar Close"},"longitude":"-0.243665"},"context":"","outcome_status":null,"persistent_id":"","id":74285793,"location_subtype":"","month":"2019-05"},{"category":"anti-social-behaviour","location_type":"Force","location":{"latitude":"51.507474","street":{"id":957620,"name":"On or near Ollgar Close"},"longitude":"-0.243665"},"context":"","outcome_status":null,"persistent_id":"","id":74285789,"location_subtype":"","month":"2019-05"},{"category":"anti-social-behaviour","location_type":"Force","location":{"latitude":"51.507474","street":{"id":957620,"name":"On or near Ollgar Close"},"longitude":"-0.243665"},"context":"","outcome_status":null,"persistent_id":"","id":74285788,"location_subtype":"","month":"2019-05"},{"category":"anti-social-behaviour","location_type":"Force","location":{"latitude":"51.507474","street":{"id":957620,"name":"On or near Ollgar Close"},"longitude":"-0.243665"},"context":"","outcome_status":null,"persistent_id":"","id":74285786,"location_subtype":"","month":"2019-05"},{"category":"anti-social-behaviour","location_type":"Force","location":{"latitude":"51.507474","street":{"id":957620,"name":"On or near Ollgar Close"},"longitude":"-0.243665"},"context":"","outcome_status":null,"persistent_id":"","id":74285785,"location_subtype":"","month":"2019-05"},{"category":"anti-social-behaviour","location_type":"Force","location":{"latitude":"51.507474","street":{"id":957620,"name":"On or near Ollgar Close"},"longitude":"-0.243665"},"context":"","outcome_status":null,"persistent_id":"","id":74285787,"location_subtype":"","month":"2019-05"},{"category":"anti-social-behaviour","location_type":"Force","location":{"latitude":"51.500178","street":{"id":923904,"name":"On or near Ashchurch Park Villas"},"longitude":"-0.242274"},"context":"","outcome_status":null,"persistent_id":"","id":74285784,"location_subtype":"","month":"2019-05"},{"category":"anti-social-behaviour","location_type":"Force","location":{"latitude":"51.500178","street":{"id":923904,"name":"On or near Ashchurch Park Villas"},"longitude":"-0.242274"},"context":"","outcome_status":null,"persistent_id":"","id":74285783,"location_subtype":"","month":"2019-05"},{"category":"anti-social-behaviour","location_type":"Force","location":{"latitude":"51.494032","street":{"id":952413,"name":"On or near Westcroft Square"},"longitude":"-0.243764"},"context":"","outcome_status":null,"persistent_id":"","id":74285782,"location_subtype":"","month":"2019-05"},{"category":"anti-social-behaviour","location_type":"Force","location":{"latitude":"51.503275","street":{"id":952378,"name":"On or near Landor Walk"},"longitude":"-0.242487"},"context":"","outcome_status":null,"persistent_id":"","id":74285781,"location_subtype":"","month":"2019-05"},{"category":"anti-social-behaviour","location_type":"Force","location":{"latitude":"51.494045","street":{"id":952441,"name":"On or near Hamlet Gardens"},"longitude":"-0.241041"},"context":"","outcome_status":null,"persistent_id":"","id":74285775,"location_subtype":"","month":"2019-05"},{"category":"anti-social-behaviour","location_type":"Force","location":{"latitude":"51.495305","street":{"id":952438,"name":"On or near Ravenscourt Gardens"},"longitude":"-0.242303"},"context":"","outcome_status":null,"persistent_id":"","id":74285777,"location_subtype":"","month":"2019-05"},{"category":"anti-social-behaviour","location_type":"Force","location":{"latitude":"51.494045","street":{"id":952441,"name":"On or near Hamlet Gardens"},"longitude":"-0.241041"},"context":"","outcome_status":null,"persistent_id":"","id":74285774,"location_subtype":"","month":"2019-05"},{"category":"anti-social-behaviour","location_type":"Force","location":{"latitude":"51.505097","street":{"id":952310,"name":"On or near Vespan Road"},"longitude":"-0.240457"},"context":"","outcome_status":null,"persistent_id":"","id":74285773,"location_subtype":"","month":"2019-05"},{"category":"anti-social-behaviour","location_type":"Force","location":{"latitude":"51.505097","street":{"id":952310,"name":"On or near Vespan Road"},"longitude":"-0.240457"},"context":"","outcome_status":null,"persistent_id":"","id":74285771,"location_subtype":"","month":"2019-05"},{"category":"anti-social-behaviour","location_type":"Force","location":{"latitude":"51.500938","street":{"id":952302,"name":"On or near Ashchurch Grove"},"longitude":"-0.241337"},"context":"","outcome_status":null,"persistent_id":"","id":74285770,"location_subtype":"","month":"2019-05"},{"category":"anti-social-behaviour","location_type":"Force","location":{"latitude":"51.505097","street":{"id":952310,"name":"On or near Vespan Road"},"longitude":"-0.240457"},"context":"","outcome_status":null,"persistent_id":"","id":74285772,"location_subtype":"","month":"2019-05"},{"category":"anti-social-behaviour","location_type":"Force","location":{"latitude":"51.493297","street":{"id":950599,"name":"On or near Supermarket"},"longitude":"-0.241560"},"context":"","outcome_status":null,"persistent_id":"","id":74285768,"location_subtype":"","month":"2019-05"},{"category":"anti-social-behaviour","location_type":"Force","location":{"latitude":"51.494045","street":{"id":952441,"name":"On or near Hamlet Gardens"},"longitude":"-0.241041"},"context":"","outcome_status":null,"persistent_id":"","id":74285767,"location_subtype":"","month":"2019-05"},{"category":"anti-social-behaviour","location_type":"Force","location":{"latitude":"51.492469","street":{"id":950560,"name":"On or near Theresa Road"},"longitude":"-0.240324"},"context":"","outcome_status":null,"persistent_id":"","id":74285762,"location_subtype":"","month":"2019-05"},{"category":"anti-social-behaviour","location_type":"Force","location":{"latitude":"51.484352","street":{"id":950554,"name":"On or near Howsman Road"},"longitude":"-0.242321"},"context":"","outcome_status":null,"persistent_id":"","id":74288140,"location_subtype":"","month":"2019-05"},{"category":"anti-social-behaviour","location_type":"Force","location":{"latitude":"51.495259","street":{"id":952437,"name":"On or near Ravenscourt Park"},"longitude":"-0.239827"},"context":"","outcome_status":null,"persistent_id":"","id":74285761,"location_subtype":"","month":"2019-05"},{"category":"anti-social-behaviour","location_type":"Force","location":{"latitude":"51.503835","street":{"id":952318,"name":"On or near Percy Road"},"longitude":"-0.239093"},"context":"","outcome_status":null,"persistent_id":"","id":74285759,"location_subtype":"","month":"2019-05"},{"category":"anti-social-behaviour","location_type":"Force","location":{"latitude":"51.505998","street":{"id":952233,"name":"On or near Gloucester Road"},"longitude":"-0.265351"},"context":"","outcome_status":null,"persistent_id":"","id":74270047,"location_subtype":"","month":"2019-05"},{"category":"anti-social-behaviour","location_type":"Force","location":{"latitude":"51.501276","street":{"id":952327,"name":"On or near Greenside Road"},"longitude":"-0.238140"},"context":"","outcome_status":null,"persistent_id":"","id":74285756,"location_subtype":"","month":"2019-05"},{"category":"anti-social-behaviour","location_type":"Force","location":{"latitude":"51.484633","street":{"id":950578,"name":"On or near Kilmington Road"},"longitude":"-0.240654"},"context":"","outcome_status":null,"persistent_id":"","id":74288138,"location_subtype":"","month":"2019-05"},{"category":"anti-social-behaviour","location_type":"Force","location":{"latitude":"51.501270","street":{"id":952322,"name":"On or near Leysfield Road"},"longitude":"-0.237708"},"context":"","outcome_status":null,"persistent_id":"","id":74285752,"location_subtype":"","month":"2019-05"},{"category":"anti-social-behaviour","location_type":"Force","location":{"latitude":"51.505878","street":{"id":952395,"name":"On or near Clifton Avenue"},"longitude":"-0.243972"},"context":"","outcome_status":null,"persistent_id":"","id":74285803,"location_subtype":"","month":"2019-05"},{"category":"anti-social-behaviour","location_type":"Force","location":{"latitude":"51.504122","street":{"id":952331,"name":"On or near Ellingham Road"},"longitude":"-0.237829"},"context":"","outcome_status":null,"persistent_id":"","id":74285751,"location_subtype":"","month":"2019-05"},{"category":"anti-social-behaviour","location_type":"Force","location":{"latitude":"51.507474","street":{"id":957620,"name":"On or near Ollgar Close"},"longitude":"-0.243665"},"context":"","outcome_status":null,"persistent_id":"","id":74285800,"location_subtype":"","month":"2019-05"},{"category":"anti-social-behaviour","location_type":"Force","location":{"latitude":"51.507474","street":{"id":957620,"name":"On or near Ollgar Close"},"longitude":"-0.243665"},"context":"","outcome_status":null,"persistent_id":"","id":74285799,"location_subtype":"","month":"2019-05"},{"category":"anti-social-behaviour","location_type":"Force","location":{"latitude":"51.491827","street":{"id":950557,"name":"On or near Weltje Road"},"longitude":"-0.237655"},"context":"","outcome_status":null,"persistent_id":"","id":74285750,"location_subtype":"","month":"2019-05"},{"category":"anti-social-behaviour","location_type":"Force","location":{"latitude":"51.490446","street":{"id":950559,"name":"On or near Upper Mall"},"longitude":"-0.236728"},"context":"","outcome_status":null,"persistent_id":"","id":74285740,"location_subtype":"","month":"2019-05"},{"category":"anti-social-behaviour","location_type":"Force","location":{"latitude":"51.502252","street":{"id":952337,"name":"On or near Cathnor Road"},"longitude":"-0.234875"},"context":"","outcome_status":null,"persistent_id":"","id":74285737,"location_subtype":"","month":"2019-05"},{"category":"anti-social-behaviour","location_type":"Force","location":{"latitude":"51.500992","street":{"id":952288,"name":"On or near Parnell Close"},"longitude":"-0.235414"},"context":"","outcome_status":null,"persistent_id":"","id":74285733,"location_subtype":"","month":"2019-05"},{"category":"anti-social-behaviour","location_type":"Force","location":{"latitude":"51.500992","street":{"id":952288,"name":"On or near Parnell Close"},"longitude":"-0.235414"},"context":"","outcome_status":null,"persistent_id":"","id":74285732,"location_subtype":"","month":"2019-05"},{"category":"anti-social-behaviour","location_type":"Force","location":{"latitude":"51.507387","street":{"id":957737,"name":"On or near Greenview Close"},"longitude":"-0.256508"},"context":"","outcome_status":null,"persistent_id":"","id":74269997,"location_subtype":"","month":"2019-05"},{"category":"anti-social-behaviour","location_type":"Force","location":{"latitude":"51.503370","street":{"id":952209,"name":"On or near Wilkinson Way"},"longitude":"-0.263966"},"context":"","outcome_status":null,"persistent_id":"","id":74270034,"location_subtype":"","month":"2019-05"},{"category":"anti-social-behaviour","location_type":"Force","location":{"latitude":"51.504383","street":{"id":952217,"name":"On or near Park Road East"},"longitude":"-0.271694"},"context":"","outcome_status":null,"persistent_id":"","id":74270117,"location_subtype":"","month":"2019-05"},{"category":"anti-social-behaviour","location_type":"Force","location":{"latitude":"51.504383","street":{"id":952217,"name":"On or near Park Road East"},"longitude":"-0.271694"},"context":"","outcome_status":null,"persistent_id":"","id":74270118,"location_subtype":"","month":"2019-05"},{"category":"anti-social-behaviour","location_type":"Force","location":{"latitude":"51.500992","street":{"id":952288,"name":"On or near Parnell Close"},"longitude":"-0.235414"},"context":"","outcome_status":null,"persistent_id":"","id":74285731,"location_subtype":"","month":"2019-05"},{"category":"anti-social-behaviour","location_type":"Force","location":{"latitude":"51.507474","street":{"id":957620,"name":"On or near Ollgar Close"},"longitude":"-0.243665"},"context":"","outcome_status":null,"persistent_id":"","id":74285798,"location_subtype":"","month":"2019-05"},{"category":"anti-social-behaviour","location_type":"Force","location":{"latitude":"51.507474","street":{"id":957620,"name":"On or near Ollgar Close"},"longitude":"-0.243665"},"context":"","outcome_status":null,"persistent_id":"","id":74285796,"location_subtype":"","month":"2019-05"},{"category":"anti-social-behaviour","location_type":"Force","location":{"latitude":"51.500992","street":{"id":952288,"name":"On or near Parnell Close"},"longitude":"-0.235414"},"context":"","outcome_status":null,"persistent_id":"","id":74285730,"location_subtype":"","month":"2019-05"},{"category":"anti-social-behaviour","location_type":"Force","location":{"latitude":"51.493707","street":{"id":950364,"name":"On or near Albion Mews"},"longitude":"-0.232353"},"context":"","outcome_status":null,"persistent_id":"","id":74285717,"location_subtype":"","month":"2019-05"},{"category":"anti-social-behaviour","location_type":"Force","location":{"latitude":"51.507474","street":{"id":957620,"name":"On or near Ollgar Close"},"longitude":"-0.243665"},"context":"","outcome_status":null,"persistent_id":"","id":74285797,"location_subtype":"","month":"2019-05"},{"category":"anti-social-behaviour","location_type":"Force","location":{"latitude":"51.496907","street":{"id":952450,"name":"On or near Aldensley Road"},"longitude":"-0.232834"},"context":"","outcome_status":null,"persistent_id":"","id":74285716,"location_subtype":"","month":"2019-05"},{"category":"anti-social-behaviour","location_type":"Force","location":{"latitude":"51.507416","street":{"id":957630,"name":"On or near Sycamore Close"},"longitude":"-0.252414"},"context":"","outcome_status":null,"persistent_id":"","id":74269981,"location_subtype":"","month":"2019-05"},{"category":"anti-social-behaviour","location_type":"Force","location":{"latitude":"51.500889","street":{"id":952113,"name":"On or near Whellock Road"},"longitude":"-0.254940"},"context":"","outcome_status":null,"persistent_id":"","id":74269984,"location_subtype":"","month":"2019-05"},{"category":"anti-social-behaviour","location_type":"Force","location":{"latitude":"51.505093","street":{"id":952160,"name":"On or near Bradford Road"},"longitude":"-0.256480"},"context":"","outcome_status":null,"persistent_id":"","id":74269986,"location_subtype":"","month":"2019-05"},{"category":"anti-social-behaviour","location_type":"Force","location":{"latitude":"51.505093","street":{"id":952160,"name":"On or near Bradford Road"},"longitude":"-0.256480"},"context":"","outcome_status":null,"persistent_id":"","id":74269987,"location_subtype":"","month":"2019-05"},{"category":"anti-social-behaviour","location_type":"Force","location":{"latitude":"51.507387","street":{"id":957737,"name":"On or near Greenview Close"},"longitude":"-0.256508"},"context":"","outcome_status":null,"persistent_id":"","id":74269988,"location_subtype":"","month":"2019-05"},{"category":"anti-social-behaviour","location_type":"Force","location":{"latitude":"51.507387","street":{"id":957737,"name":"On or near Greenview Close"},"longitude":"-0.256508"},"context":"","outcome_status":null,"persistent_id":"","id":74269989,"location_subtype":"","month":"2019-05"},{"category":"anti-social-behaviour","location_type":"Force","location":{"latitude":"51.498598","street":{"id":952116,"name":"On or near The Avenue"},"longitude":"-0.256296"},"context":"","outcome_status":null,"persistent_id":"","id":74269990,"location_subtype":"","month":"2019-05"},{"category":"anti-social-behaviour","location_type":"Force","location":{"latitude":"51.498598","street":{"id":952116,"name":"On or near The Avenue"},"longitude":"-0.256296"},"context":"","outcome_status":null,"persistent_id":"","id":74269991,"location_subtype":"","month":"2019-05"},{"category":"anti-social-behaviour","location_type":"Force","location":{"latitude":"51.505072","street":{"id":952140,"name":"On or near Stanley Gardens"},"longitude":"-0.256884"},"context":"","outcome_status":null,"persistent_id":"","id":74269992,"location_subtype":"","month":"2019-05"},{"category":"anti-social-behaviour","location_type":"Force","location":{"latitude":"51.507387","street":{"id":957737,"name":"On or near Greenview Close"},"longitude":"-0.256508"},"context":"","outcome_status":null,"persistent_id":"","id":74269993,"location_subtype":"","month":"2019-05"},{"category":"anti-social-behaviour","location_type":"Force","location":{"latitude":"51.507387","street":{"id":957737,"name":"On or near Greenview Close"},"longitude":"-0.256508"},"context":"","outcome_status":null,"persistent_id":"","id":74269994,"location_subtype":"","month":"2019-05"},{"category":"anti-social-behaviour","location_type":"Force","location":{"latitude":"51.507387","street":{"id":957737,"name":"On or near Greenview Close"},"longitude":"-0.256508"},"context":"","outcome_status":null,"persistent_id":"","id":74269995,"location_subtype":"","month":"2019-05"},{"category":"anti-social-behaviour","location_type":"Force","location":{"latitude":"51.507387","street":{"id":957737,"name":"On or near Greenview Close"},"longitude":"-0.256508"},"context":"","outcome_status":null,"persistent_id":"","id":74269996,"location_subtype":"","month":"2019-05"},{"category":"anti-social-behaviour","location_type":"Force","location":{"latitude":"51.507387","street":{"id":957737,"name":"On or near Greenview Close"},"longitude":"-0.256508"},"context":"","outcome_status":null,"persistent_id":"","id":74269998,"location_subtype":"","month":"2019-05"},{"category":"anti-social-behaviour","location_type":"Force","location":{"latitude":"51.507387","street":{"id":957737,"name":"On or near Greenview Close"},"longitude":"-0.256508"},"context":"","outcome_status":null,"persistent_id":"","id":74269999,"location_subtype":"","month":"2019-05"},{"category":"anti-social-behaviour","location_type":"Force","location":{"latitude":"51.507387","street":{"id":957737,"name":"On or near Greenview Close"},"longitude":"-0.256508"},"context":"","outcome_status":null,"persistent_id":"","id":74270000,"location_subtype":"","month":"2019-05"},{"category":"anti-social-behaviour","location_type":"Force","location":{"latitude":"51.507387","street":{"id":957737,"name":"On or near Greenview Close"},"longitude":"-0.256508"},"context":"","outcome_status":null,"persistent_id":"","id":74270001,"location_subtype":"","month":"2019-05"},{"category":"anti-social-behaviour","location_type":"Force","location":{"latitude":"51.506516","street":{"id":952137,"name":"On or near The Vale"},"longitude":"-0.257809"},"context":"","outcome_status":null,"persistent_id":"","id":74270002,"location_subtype":"","month":"2019-05"},{"category":"anti-social-behaviour","location_type":"Force","location":{"latitude":"51.495419","street":{"id":952275,"name":"On or near South Parade"},"longitude":"-0.259615"},"context":"","outcome_status":null,"persistent_id":"","id":74270005,"location_subtype":"","month":"2019-05"},{"category":"anti-social-behaviour","location_type":"Force","location":{"latitude":"51.499702","street":{"id":952115,"name":"On or near Vanbrugh Road"},"longitude":"-0.258602"},"context":"","outcome_status":null,"persistent_id":"","id":74270012,"location_subtype":"","month":"2019-05"},{"category":"anti-social-behaviour","location_type":"Force","location":{"latitude":"51.500071","street":{"id":952128,"name":"On or near Eridge Road"},"longitude":"-0.261052"},"context":"","outcome_status":null,"persistent_id":"","id":74270016,"location_subtype":"","month":"2019-05"},{"category":"anti-social-behaviour","location_type":"Force","location":{"latitude":"51.496327","street":{"id":952280,"name":"On or near Petrol Station"},"longitude":"-0.263269"},"context":"","outcome_status":null,"persistent_id":"","id":74270020,"location_subtype":"","month":"2019-05"},{"category":"anti-social-behaviour","location_type":"Force","location":{"latitude":"51.506577","street":{"id":952162,"name":"On or near Birkbeck Grove"},"longitude":"-0.262533"},"context":"","outcome_status":null,"persistent_id":"","id":74270025,"location_subtype":"","month":"2019-05"},{"category":"anti-social-behaviour","location_type":"Force","location":{"latitude":"51.504839","street":{"id":952246,"name":"On or near Beardsley Way"},"longitude":"-0.262988"},"context":"","outcome_status":null,"persistent_id":"","id":74270026,"location_subtype":"","month":"2019-05"},{"category":"anti-social-behaviour","location_type":"Force","location":{"latitude":"51.504839","street":{"id":952246,"name":"On or near Beardsley Way"},"longitude":"-0.262988"},"context":"","outcome_status":null,"persistent_id":"","id":74270027,"location_subtype":"","month":"2019-05"},{"category":"anti-social-behaviour","location_type":"Force","location":{"latitude":"51.507717","street":{"id":957766,"name":"On or near Birkbeck Road"},"longitude":"-0.264205"},"context":"","outcome_status":null,"persistent_id":"","id":74270029,"location_subtype":"","month":"2019-05"},{"category":"anti-social-behaviour","location_type":"Force","location":{"latitude":"51.503370","street":{"id":952209,"name":"On or near Wilkinson Way"},"longitude":"-0.263966"},"context":"","outcome_status":null,"persistent_id":"","id":74270033,"location_subtype":"","month":"2019-05"},{"category":"anti-social-behaviour","location_type":"Force","location":{"latitude":"51.503370","street":{"id":952209,"name":"On or near Wilkinson Way"},"longitude":"-0.263966"},"context":"","outcome_status":null,"persistent_id":"","id":74270035,"location_subtype":"","month":"2019-05"},{"category":"anti-social-behaviour","location_type":"Force","location":{"latitude":"51.501936","street":{"id":952237,"name":"On or near Clovelly Road"},"longitude":"-0.264280"},"context":"","outcome_status":null,"persistent_id":"","id":74270037,"location_subtype":"","month":"2019-05"},{"category":"anti-social-behaviour","location_type":"Force","location":{"latitude":"51.507717","street":{"id":957766,"name":"On or near Birkbeck Road"},"longitude":"-0.264205"},"context":"","outcome_status":null,"persistent_id":"","id":74270038,"location_subtype":"","month":"2019-05"},{"category":"anti-social-behaviour","location_type":"Force","location":{"latitude":"51.507717","street":{"id":957766,"name":"On or near Birkbeck Road"},"longitude":"-0.264205"},"context":"","outcome_status":null,"persistent_id":"","id":74270039,"location_subtype":"","month":"2019-05"},{"category":"anti-social-behaviour","location_type":"Force","location":{"latitude":"51.505998","street":{"id":952233,"name":"On or near Gloucester Road"},"longitude":"-0.265351"},"context":"","outcome_status":null,"persistent_id":"","id":74270043,"location_subtype":"","month":"2019-05"},{"category":"anti-social-behaviour","location_type":"Force","location":{"latitude":"51.506274","street":{"id":952226,"name":"On or near Melville Villas Road"},"longitude":"-0.265124"},"context":"","outcome_status":null,"persistent_id":"","id":74270044,"location_subtype":"","month":"2019-05"},{"category":"anti-social-behaviour","location_type":"Force","location":{"latitude":"51.506274","street":{"id":952226,"name":"On or near Melville Villas Road"},"longitude":"-0.265124"},"context":"","outcome_status":null,"persistent_id":"","id":74270045,"location_subtype":"","month":"2019-05"},{"category":"anti-social-behaviour","location_type":"Force","location":{"latitude":"51.506274","street":{"id":952226,"name":"On or near Melville Villas Road"},"longitude":"-0.265124"},"context":"","outcome_status":null,"persistent_id":"","id":74270046,"location_subtype":"","month":"2019-05"},{"category":"anti-social-behaviour","location_type":"Force","location":{"latitude":"51.505998","street":{"id":952233,"name":"On or near Gloucester Road"},"longitude":"-0.265351"},"context":"","outcome_status":null,"persistent_id":"","id":74270048,"location_subtype":"","month":"2019-05"},{"category":"anti-social-behaviour","location_type":"Force","location":{"latitude":"51.501012","street":{"id":952177,"name":"On or near Reynolds Road"},"longitude":"-0.266260"},"context":"","outcome_status":null,"persistent_id":"","id":74270049,"location_subtype":"","month":"2019-05"},{"category":"anti-social-behaviour","location_type":"Force","location":{"latitude":"51.501012","street":{"id":952177,"name":"On or near Reynolds Road"},"longitude":"-0.266260"},"context":"","outcome_status":null,"persistent_id":"","id":74270050,"location_subtype":"","month":"2019-05"},{"category":"anti-social-behaviour","location_type":"Force","location":{"latitude":"51.503996","street":{"id":952248,"name":"On or near Acton Lane"},"longitude":"-0.266796"},"context":"","outcome_status":null,"persistent_id":"","id":74270052,"location_subtype":"","month":"2019-05"},{"category":"anti-social-behaviour","location_type":"Force","location":{"latitude":"51.505998","street":{"id":952212,"name":"On or near Salisbury Street"},"longitude":"-0.267152"},"context":"","outcome_status":null,"persistent_id":"","id":74270056,"location_subtype":"","month":"2019-05"},{"category":"anti-social-behaviour","location_type":"Force","location":{"latitude":"51.505757","street":{"id":952208,"name":"On or near Winchester Street"},"longitude":"-0.267867"},"context":"","outcome_status":null,"persistent_id":"","id":74270062,"location_subtype":"","month":"2019-05"},{"category":"anti-social-behaviour","location_type":"Force","location":{"latitude":"51.498879","street":{"id":952185,"name":"On or near Kent Road"},"longitude":"-0.268560"},"context":"","outcome_status":null,"persistent_id":"","id":74270067,"location_subtype":"","month":"2019-05"},{"category":"anti-social-behaviour","location_type":"Force","location":{"latitude":"51.498409","street":{"id":952184,"name":"On or near Kingswood Road"},"longitude":"-0.269658"},"context":"","outcome_status":null,"persistent_id":"","id":74270070,"location_subtype":"","month":"2019-05"},{"category":"anti-social-behaviour","location_type":"Force","location":{"latitude":"51.498409","street":{"id":952184,"name":"On or near Kingswood Road"},"longitude":"-0.269658"},"context":"","outcome_status":null,"persistent_id":"","id":74270071,"location_subtype":"","month":"2019-05"},{"category":"anti-social-behaviour","location_type":"Force","location":{"latitude":"51.500317","street":{"id":952168,"name":"On or near Parking Area"},"longitude":"-0.270364"},"context":"","outcome_status":null,"persistent_id":"","id":74270074,"location_subtype":"","month":"2019-05"},{"category":"anti-social-behaviour","location_type":"Force","location":{"latitude":"51.494489","street":{"id":952266,"name":"On or near Colonial Drive"},"longitude":"-0.269663"},"context":"","outcome_status":null,"persistent_id":"","id":74270075,"location_subtype":"","month":"2019-05"},{"category":"anti-social-behaviour","location_type":"Force","location":{"latitude":"51.494489","street":{"id":952266,"name":"On or near Colonial Drive"},"longitude":"-0.269663"},"context":"","outcome_status":null,"persistent_id":"","id":74270076,"location_subtype":"","month":"2019-05"},{"category":"anti-social-behaviour","location_type":"Force","location":{"latitude":"51.494489","street":{"id":952266,"name":"On or near Colonial Drive"},"longitude":"-0.269663"},"context":"","outcome_status":null,"persistent_id":"","id":74270077,"location_subtype":"","month":"2019-05"},{"category":"anti-social-behaviour","location_type":"Force","location":{"latitude":"51.494489","street":{"id":952266,"name":"On or near Colonial Drive"},"longitude":"-0.269663"},"context":"","outcome_status":null,"persistent_id":"","id":74270078,"location_subtype":"","month":"2019-05"},{"category":"anti-social-behaviour","location_type":"Force","location":{"latitude":"51.502836","street":{"id":952242,"name":"On or near Brouncker Road"},"longitude":"-0.269851"},"context":"","outcome_status":null,"persistent_id":"","id":74270079,"location_subtype":"","month":"2019-05"},{"category":"anti-social-behaviour","location_type":"Force","location":{"latitude":"51.500317","street":{"id":952168,"name":"On or near Parking Area"},"longitude":"-0.270364"},"context":"","outcome_status":null,"persistent_id":"","id":74270087,"location_subtype":"","month":"2019-05"},{"category":"anti-social-behaviour","location_type":"Force","location":{"latitude":"51.500970","street":{"id":952203,"name":"On or near All Saints' Road"},"longitude":"-0.270152"},"context":"","outcome_status":null,"persistent_id":"","id":74270088,"location_subtype":"","month":"2019-05"},{"category":"anti-social-behaviour","location_type":"Force","location":{"latitude":"51.502836","street":{"id":952242,"name":"On or near Brouncker Road"},"longitude":"-0.269851"},"context":"","outcome_status":null,"persistent_id":"","id":74270089,"location_subtype":"","month":"2019-05"},{"category":"anti-social-behaviour","location_type":"Force","location":{"latitude":"51.500552","street":{"id":952179,"name":"On or near Palmerston Road"},"longitude":"-0.271047"},"context":"","outcome_status":null,"persistent_id":"","id":74270090,"location_subtype":"","month":"2019-05"},{"category":"anti-social-behaviour","location_type":"Force","location":{"latitude":"51.502133","street":{"id":952211,"name":"On or near Strafford Road"},"longitude":"-0.270929"},"context":"","outcome_status":null,"persistent_id":"","id":74270096,"location_subtype":"","month":"2019-05"},{"category":"anti-social-behaviour","location_type":"Force","location":{"latitude":"51.504383","street":{"id":952217,"name":"On or near Park Road East"},"longitude":"-0.271694"},"context":"","outcome_status":null,"persistent_id":"","id":74270099,"location_subtype":"","month":"2019-05"},{"category":"anti-social-behaviour","location_type":"Force","location":{"latitude":"51.504383","street":{"id":952217,"name":"On or near Park Road East"},"longitude":"-0.271694"},"context":"","outcome_status":null,"persistent_id":"","id":74270100,"location_subtype":"","month":"2019-05"},{"category":"anti-social-behaviour","location_type":"Force","location":{"latitude":"51.504383","street":{"id":952217,"name":"On or near Park Road East"},"longitude":"-0.271694"},"context":"","outcome_status":null,"persistent_id":"","id":74270101,"location_subtype":"","month":"2019-05"},{"category":"anti-social-behaviour","location_type":"Force","location":{"latitude":"51.504383","street":{"id":952217,"name":"On or near Park Road East"},"longitude":"-0.271694"},"context":"","outcome_status":null,"persistent_id":"","id":74270102,"location_subtype":"","month":"2019-05"},{"category":"anti-social-behaviour","location_type":"Force","location":{"latitude":"51.504383","street":{"id":952217,"name":"On or near Park Road East"},"longitude":"-0.271694"},"context":"","outcome_status":null,"persistent_id":"","id":74270103,"location_subtype":"","month":"2019-05"},{"category":"anti-social-behaviour","location_type":"Force","location":{"latitude":"51.504383","street":{"id":952217,"name":"On or near Park Road East"},"longitude":"-0.271694"},"context":"","outcome_status":null,"persistent_id":"","id":74270104,"location_subtype":"","month":"2019-05"},{"category":"anti-social-behaviour","location_type":"Force","location":{"latitude":"51.504383","street":{"id":952217,"name":"On or near Park Road East"},"longitude":"-0.271694"},"context":"","outcome_status":null,"persistent_id":"","id":74270105,"location_subtype":"","month":"2019-05"},{"category":"anti-social-behaviour","location_type":"Force","location":{"latitude":"51.504383","street":{"id":952217,"name":"On or near Park Road East"},"longitude":"-0.271694"},"context":"","outcome_status":null,"persistent_id":"","id":74270106,"location_subtype":"","month":"2019-05"},{"category":"anti-social-behaviour","location_type":"Force","location":{"latitude":"51.503283","street":{"id":952220,"name":"On or near Newport Road"},"longitude":"-0.272111"},"context":"","outcome_status":null,"persistent_id":"","id":74270111,"location_subtype":"","month":"2019-05"},{"category":"anti-social-behaviour","location_type":"Force","location":{"latitude":"51.500333","street":{"id":952173,"name":"On or near Stanley Road"},"longitude":"-0.272078"},"context":"","outcome_status":null,"persistent_id":"","id":74270113,"location_subtype":"","month":"2019-05"},{"category":"anti-social-behaviour","location_type":"Force","location":{"latitude":"51.504383","street":{"id":952217,"name":"On or near Park Road East"},"longitude":"-0.271694"},"context":"","outcome_status":null,"persistent_id":"","id":74270115,"location_subtype":"","month":"2019-05"},{"category":"anti-social-behaviour","location_type":"Force","location":{"latitude":"51.504383","street":{"id":952217,"name":"On or near Park Road East"},"longitude":"-0.271694"},"context":"","outcome_status":null,"persistent_id":"","id":74270116,"location_subtype":"","month":"2019-05"},{"category":"anti-social-behaviour","location_type":"Force","location":{"latitude":"51.501616","street":{"id":952198,"name":"On or near Bollo Bridge Road"},"longitude":"-0.271828"},"context":"","outcome_status":null,"persistent_id":"","id":74270119,"location_subtype":"","month":"2019-05"},{"category":"anti-social-behaviour","location_type":"Force","location":{"latitude":"51.501616","street":{"id":952198,"name":"On or near Bollo Bridge Road"},"longitude":"-0.271828"},"context":"","outcome_status":null,"persistent_id":"","id":74270120,"location_subtype":"","month":"2019-05"},{"category":"anti-social-behaviour","location_type":"Force","location":{"latitude":"51.501616","street":{"id":952198,"name":"On or near Bollo Bridge Road"},"longitude":"-0.271828"},"context":"","outcome_status":null,"persistent_id":"","id":74270121,"location_subtype":"","month":"2019-05"},{"category":"anti-social-behaviour","location_type":"Force","location":{"latitude":"51.501616","street":{"id":952198,"name":"On or near Bollo Bridge Road"},"longitude":"-0.271828"},"context":"","outcome_status":null,"persistent_id":"","id":74270122,"location_subtype":"","month":"2019-05"},{"category":"anti-social-behaviour","location_type":"Force","location":{"latitude":"51.501616","street":{"id":952198,"name":"On or near Bollo Bridge Road"},"longitude":"-0.271828"},"context":"","outcome_status":null,"persistent_id":"","id":74270123,"location_subtype":"","month":"2019-05"},{"category":"anti-social-behaviour","location_type":"Force","location":{"latitude":"51.503481","street":{"id":952241,"name":"On or near Castle Close"},"longitude":"-0.272708"},"context":"","outcome_status":null,"persistent_id":"","id":74270127,"location_subtype":"","month":"2019-05"},{"category":"anti-social-behaviour","location_type":"Force","location":{"latitude":"51.503481","street":{"id":952241,"name":"On or near Castle Close"},"longitude":"-0.272708"},"context":"","outcome_status":null,"persistent_id":"","id":74270131,"location_subtype":"","month":"2019-05"},{"category":"anti-social-behaviour","location_type":"Force","location":{"latitude":"51.500470","street":{"id":952054,"name":"On or near Roslin Road"},"longitude":"-0.275286"},"context":"","outcome_status":null,"persistent_id":"","id":74270319,"location_subtype":"","month":"2019-05"},{"category":"anti-social-behaviour","location_type":"Force","location":{"latitude":"51.505607","street":{"id":952391,"name":"On or near Davis Road"},"longitude":"-0.246878"},"context":"","outcome_status":null,"persistent_id":"","id":74269822,"location_subtype":"","month":"2019-05"},{"category":"anti-social-behaviour","location_type":"Force","location":{"latitude":"51.507510","street":{"id":957615,"name":"On or near Third Avenue"},"longitude":"-0.249111"},"context":"","outcome_status":null,"persistent_id":"","id":74269828,"location_subtype":"","month":"2019-05"},{"category":"anti-social-behaviour","location_type":"Force","location":{"latitude":"51.505768","street":{"id":952402,"name":"On or near Agnes Road"},"longitude":"-0.250460"},"context":"","outcome_status":null,"persistent_id":"","id":74269829,"location_subtype":"","month":"2019-05"},{"category":"anti-social-behaviour","location_type":"Force","location":{"latitude":"51.491630","street":{"id":950541,"name":"On or near British Grove"},"longitude":"-0.245484"},"context":"","outcome_status":null,"persistent_id":"","id":74278666,"location_subtype":"","month":"2019-05"},{"category":"anti-social-behaviour","location_type":"Force","location":{"latitude":"51.493899","street":{"id":950510,"name":"On or near Ravensmede Way"},"longitude":"-0.247515"},"context":"","outcome_status":null,"persistent_id":"","id":74278667,"location_subtype":"","month":"2019-05"},{"category":"anti-social-behaviour","location_type":"Force","location":{"latitude":"51.497125","street":{"id":952418,"name":"On or near South Side"},"longitude":"-0.246743"},"context":"","outcome_status":null,"persistent_id":"","id":74278668,"location_subtype":"","month":"2019-05"},{"category":"anti-social-behaviour","location_type":"Force","location":{"latitude":"51.487996","street":{"id":950527,"name":"On or near Dorchester Grove"},"longitude":"-0.251443"},"context":"","outcome_status":null,"persistent_id":"","id":74278669,"location_subtype":"","month":"2019-05"},{"category":"anti-social-behaviour","location_type":"Force","location":{"latitude":"51.496327","street":{"id":952427,"name":"On or near Bath Road"},"longitude":"-0.252320"},"context":"","outcome_status":null,"persistent_id":"","id":74278670,"location_subtype":"","month":"2019-05"},{"category":"anti-social-behaviour","location_type":"Force","location":{"latitude":"51.497106","street":{"id":952411,"name":"On or near Rupert Road"},"longitude":"-0.253356"},"context":"","outcome_status":null,"persistent_id":"","id":74278671,"location_subtype":"","month":"2019-05"},{"category":"anti-social-behaviour","location_type":"Force","location":{"latitude":"51.482099","street":{"id":950747,"name":"On or near Edensor Road"},"longitude":"-0.255845"},"context":"","outcome_status":null,"persistent_id":"","id":74278672,"location_subtype":"","month":"2019-05"},{"category":"anti-social-behaviour","location_type":"Force","location":{"latitude":"51.491783","street":{"id":950736,"name":"On or near Annandale Road"},"longitude":"-0.255202"},"context":"","outcome_status":null,"persistent_id":"","id":74278673,"location_subtype":"","month":"2019-05"},{"category":"anti-social-behaviour","location_type":"Force","location":{"latitude":"51.491783","street":{"id":950736,"name":"On or near Annandale Road"},"longitude":"-0.255202"},"context":"","outcome_status":null,"persistent_id":"","id":74278674,"location_subtype":"","month":"2019-05"},{"category":"anti-social-behaviour","location_type":"Force","location":{"latitude":"51.491783","street":{"id":950736,"name":"On or near Annandale Road"},"longitude":"-0.255202"},"context":"","outcome_status":null,"persistent_id":"","id":74278675,"location_subtype":"","month":"2019-05"},{"category":"anti-social-behaviour","location_type":"Force","location":{"latitude":"51.491783","street":{"id":950736,"name":"On or near Annandale Road"},"longitude":"-0.255202"},"context":"","outcome_status":null,"persistent_id":"","id":74278676,"location_subtype":"","month":"2019-05"},{"category":"anti-social-behaviour","location_type":"Force","location":{"latitude":"51.493977","street":{"id":950727,"name":"On or near Chardin Road"},"longitude":"-0.255752"},"context":"","outcome_status":null,"persistent_id":"","id":74278677,"location_subtype":"","month":"2019-05"},{"category":"anti-social-behaviour","location_type":"Force","location":{"latitude":"51.493977","street":{"id":950727,"name":"On or near Chardin Road"},"longitude":"-0.255752"},"context":"","outcome_status":null,"persistent_id":"","id":74278678,"location_subtype":"","month":"2019-05"},{"category":"anti-social-behaviour","location_type":"Force","location":{"latitude":"51.493977","street":{"id":950727,"name":"On or near Chardin Road"},"longitude":"-0.255752"},"context":"","outcome_status":null,"persistent_id":"","id":74278679,"location_subtype":"","month":"2019-05"},{"category":"anti-social-behaviour","location_type":"Force","location":{"latitude":"51.493339","street":{"id":950693,"name":"On or near Windmill Road"},"longitude":"-0.256986"},"context":"","outcome_status":null,"persistent_id":"","id":74278680,"location_subtype":"","month":"2019-05"},{"category":"anti-social-behaviour","location_type":"Force","location":{"latitude":"51.491082","street":{"id":950711,"name":"On or near Glebe Street"},"longitude":"-0.257620"},"context":"","outcome_status":null,"persistent_id":"","id":74278681,"location_subtype":"","month":"2019-05"},{"category":"anti-social-behaviour","location_type":"Force","location":{"latitude":"51.492142","street":{"id":950742,"name":"On or near Police Station"},"longitude":"-0.258170"},"context":"","outcome_status":null,"persistent_id":"","id":74278682,"location_subtype":"","month":"2019-05"},{"category":"anti-social-behaviour","location_type":"Force","location":{"latitude":"51.492142","street":{"id":950742,"name":"On or near Police Station"},"longitude":"-0.258170"},"context":"","outcome_status":null,"persistent_id":"","id":74278683,"location_subtype":"","month":"2019-05"},{"category":"bicycle-theft","location_type":"Force","location":{"latitude":"51.496727","street":{"id":952423,"name":"On or near Invermead Close"},"longitude":"-0.243603"},"context":"","outcome_status":{"category":"Status update unavailable","date":"2019-09"},"persistent_id":"73a48ce8398fcd63a8a671b146297e20b5471fdfa7af60f08318c1149f86b873","id":74308738,"location_subtype":"","month":"2019-05"},{"category":"bicycle-theft","location_type":"Force","location":{"latitude":"51.502836","street":{"id":952242,"name":"On or near Brouncker Road"},"longitude":"-0.269851"},"context":"","outcome_status":{"category":"Status update unavailable","date":"2019-09"},"persistent_id":"b538d64e9db570793dca6116f5bdc5bcfe4174d5208318b0c10a15684e617a6f","id":74343942,"location_subtype":"","month":"2019-05"},{"category":"bicycle-theft","location_type":"Force","location":{"latitude":"51.500772","street":{"id":952358,"name":"On or near Binden Road"},"longitude":"-0.245306"},"context":"","outcome_status":{"category":"Status update unavailable","date":"2019-09"},"persistent_id":"4f66829e2185c82505dcf034a9e20d49b477eb387fa712bf17bfdd41b59db6f3","id":74307458,"location_subtype":"","month":"2019-05"},{"category":"bicycle-theft","location_type":"Force","location":{"latitude":"51.505998","street":{"id":952212,"name":"On or near Salisbury Street"},"longitude":"-0.267152"},"context":"","outcome_status":{"category":"Status update unavailable","date":"2019-09"},"persistent_id":"50c45c5dc2d8fa072e6531724d5b3c8f7c36a76851b3ca92a5d107add22863f0","id":74370305,"location_subtype":"","month":"2019-05"},{"category":"bicycle-theft","location_type":"Force","location":{"latitude":"51.495018","street":{"id":952261,"name":"On or near Hardwicke Road"},"longitude":"-0.265321"},"context":"","outcome_status":{"category":"Status update unavailable","date":"2019-09"},"persistent_id":"3d8cdafa15680ce222855cf7df967094f0dd60661b705b7758fc8f11352528dc","id":74328430,"location_subtype":"","month":"2019-05"},{"category":"bicycle-theft","location_type":"Force","location":{"latitude":"51.501695","street":{"id":952159,"name":"On or near Brookfield Road"},"longitude":"-0.258987"},"context":"","outcome_status":{"category":"Status update unavailable","date":"2019-09"},"persistent_id":"9cec6fb76a3285f6a648248820a8d0a6b4bbf90129086aac623a8e02f54c2d80","id":74336200,"location_subtype":"","month":"2019-05"},{"category":"bicycle-theft","location_type":"Force","location":{"latitude":"51.496327","street":{"id":952427,"name":"On or near Bath Road"},"longitude":"-0.252320"},"context":"","outcome_status":{"category":"Status update unavailable","date":"2019-09"},"persistent_id":"85b615b04b5b7b3d993d11209644adcdc3c723d3832dc96063a08b9250169a9f","id":74337698,"location_subtype":"","month":"2019-05"},{"category":"bicycle-theft","location_type":"Force","location":{"latitude":"51.497044","street":{"id":952294,"name":"On or near Furber Street"},"longitude":"-0.234198"},"context":"","outcome_status":{"category":"Status update unavailable","date":"2019-09"},"persistent_id":"60abd4bafd6d12025a28d07aaa93cba423cbb04df3fd23a7590bf2336bfd3b7c","id":74317775,"location_subtype":"","month":"2019-05"},{"category":"bicycle-theft","location_type":"Force","location":{"latitude":"51.492142","street":{"id":950742,"name":"On or near Police Station"},"longitude":"-0.258170"},"context":"","outcome_status":{"category":"Status update unavailable","date":"2019-09"},"persistent_id":"c2ed6a998df8922ce1a58ccae35c8eb7b2b8bd7e14149857c4d18a3db4dae72a","id":74345113,"location_subtype":"","month":"2019-05"},{"category":"bicycle-theft","location_type":"Force","location":{"latitude":"51.499817","street":{"id":952131,"name":"On or near Blandford Road"},"longitude":"-0.255399"},"context":"","outcome_status":{"category":"Status update unavailable","date":"2019-09"},"persistent_id":"79ea57696f2dcde259a365170a3c8d325d4a6840d4bfb54bc26f718aebcf862d","id":74345422,"location_subtype":"","month":"2019-05"},{"category":"bicycle-theft","location_type":"Force","location":{"latitude":"51.507387","street":{"id":957737,"name":"On or near Greenview Close"},"longitude":"-0.256508"},"context":"","outcome_status":{"category":"Status update unavailable","date":"2019-09"},"persistent_id":"8f7f737bcec3556be9cbcbbff2a718337bc3a3a1c1a41a6ceebc50c7d344e1ed","id":74308828,"location_subtype":"","month":"2019-05"},{"category":"bicycle-theft","location_type":"Force","location":{"latitude":"51.503683","street":{"id":952453,"name":"On or near Larden Road"},"longitude":"-0.252370"},"context":"","outcome_status":{"category":"Status update unavailable","date":"2019-09"},"persistent_id":"6a0c9952d7d799fac9caf54e2d3adc5bdc6941e3ba02a4a3a78732917160b51a","id":74322119,"location_subtype":"","month":"2019-05"},{"category":"bicycle-theft","location_type":"Force","location":{"latitude":"51.496327","street":{"id":952280,"name":"On or near Petrol Station"},"longitude":"-0.263269"},"context":"","outcome_status":{"category":"Status update unavailable","date":"2019-09"},"persistent_id":"a622194cd9816829a94a0b765db5a6a5ff0f5e30e0cbe9eff2601283e2a1df89","id":74366582,"location_subtype":"","month":"2019-05"},{"category":"bicycle-theft","location_type":"Force","location":{"latitude":"51.497982","street":{"id":952289,"name":"On or near Paddenswick Road"},"longitude":"-0.236755"},"context":"","outcome_status":{"category":"Status update unavailable","date":"2019-09"},"persistent_id":"7d3d6cda46772a44a82827094a369e1bf07d87df7ebde6e161a27154b0c16b29","id":74345434,"location_subtype":"","month":"2019-05"},{"category":"bicycle-theft","location_type":"Force","location":{"latitude":"51.492149","street":{"id":950730,"name":"On or near Bourne Place"},"longitude":"-0.260402"},"context":"","outcome_status":{"category":"Status update unavailable","date":"2019-09"},"persistent_id":"0b94d2566c236ce6af36b65d9c4ce52752457198b6159dd71d41e3d3abd49112","id":74371629,"location_subtype":"","month":"2019-05"},{"category":"bicycle-theft","location_type":"Force","location":{"latitude":"51.500203","street":{"id":952293,"name":"On or near Goldhawk Road"},"longitude":"-0.236726"},"context":"","outcome_status":{"category":"Status update unavailable","date":"2019-09"},"persistent_id":"534315d7f07d9679fb646b822823e09103de896b240f77302f67a7ee5189c09d","id":74306265,"location_subtype":"","month":"2019-05"},{"category":"bicycle-theft","location_type":"Force","location":{"latitude":"51.493013","street":{"id":950558,"name":"On or near Vencourt Place"},"longitude":"-0.238805"},"context":"","outcome_status":{"category":"Court result unavailable","date":"2020-04"},"persistent_id":"d5552ec0eaa6bad89b62b3d43498783d42bf7bd1d12702c9a29d008495e3d760","id":74351220,"location_subtype":"","month":"2019-05"},{"category":"bicycle-theft","location_type":"Force","location":{"latitude":"51.493198","street":{"id":950591,"name":"On or near Albion Place"},"longitude":"-0.232574"},"context":"","outcome_status":{"category":"Status update unavailable","date":"2019-09"},"persistent_id":"c0a409ba9d4520786722052e748b52398e2243b99793c63359c55b7860464fe5","id":74295616,"location_subtype":"","month":"2019-05"},{"category":"bicycle-theft","location_type":"Force","location":{"latitude":"51.500772","street":{"id":952358,"name":"On or near Binden Road"},"longitude":"-0.245306"},"context":"","outcome_status":{"category":"Status update unavailable","date":"2019-09"},"persistent_id":"8918b2e185e82445edcb1ca0072a704546d35f7ac671b6b938bcfefb4ff67e82","id":74305509,"location_subtype":"","month":"2019-05"},{"category":"bicycle-theft","location_type":"Force","location":{"latitude":"51.495860","street":{"id":952274,"name":"On or near The Avenue"},"longitude":"-0.255392"},"context":"","outcome_status":{"category":"Status update unavailable","date":"2019-09"},"persistent_id":"a3b857b06e334144e152aa12c5897f79c259425be964cb3377a0395e2849d3c2","id":74305243,"location_subtype":"","month":"2019-05"},{"category":"bicycle-theft","location_type":"Force","location":{"latitude":"51.490240","street":{"id":950723,"name":"On or near Dale Street"},"longitude":"-0.256039"},"context":"","outcome_status":{"category":"Status update unavailable","date":"2019-09"},"persistent_id":"ec6c68993f95049304fdfa3be2b7b7ce234ea2723d7115684706736b32743ba4","id":74349698,"location_subtype":"","month":"2019-05"},{"category":"bicycle-theft","location_type":"Force","location":{"latitude":"51.492655","street":{"id":950508,"name":"On or near St Peter's Villas"},"longitude":"-0.243082"},"context":"","outcome_status":{"category":"Status update unavailable","date":"2019-09"},"persistent_id":"1d3641dafcfb8629aa631fa90872bc3f57007e6506689348c5e8c310b996b9eb","id":74349912,"location_subtype":"","month":"2019-05"},{"category":"bicycle-theft","location_type":"Force","location":{"latitude":"51.495495","street":{"id":952252,"name":"On or near Park\/open Space"},"longitude":"-0.274508"},"context":"","outcome_status":{"category":"Status update unavailable","date":"2019-09"},"persistent_id":"a6d2ec7fd03ba51c4aed473da64896058156c82aae8a44d6d80d03ca3da7b379","id":74305535,"location_subtype":"","month":"2019-05"},{"category":"burglary","location_type":"Force","location":{"latitude":"51.496327","street":{"id":952427,"name":"On or near Bath Road"},"longitude":"-0.252320"},"context":"","outcome_status":{"category":"Status update unavailable","date":"2019-09"},"persistent_id":"aa33ab002e9209fb8bf1c9d3fd0540fc67d91fd75da6135b9dc9f4ad6d0ae7d5","id":74296344,"location_subtype":"","month":"2019-05"},{"category":"burglary","location_type":"Force","location":{"latitude":"51.497800","street":{"id":952188,"name":"On or near Gladstone Road"},"longitude":"-0.264942"},"context":"","outcome_status":{"category":"Status update unavailable","date":"2019-09"},"persistent_id":"89113253c4c450a2b9e409488ffeead58b62e6d168989cbc482bb8e4cf564c72","id":74328196,"location_subtype":"","month":"2019-05"},{"category":"burglary","location_type":"Force","location":{"latitude":"51.491237","street":{"id":950583,"name":"On or near Great West Road"},"longitude":"-0.240270"},"context":"","outcome_status":{"category":"Status update unavailable","date":"2019-09"},"persistent_id":"364a842045f0df44bd89862ecf75598ce05551d1f2a57cdcda7fe24b843710cf","id":74332001,"location_subtype":"","month":"2019-05"},{"category":"burglary","location_type":"Force","location":{"latitude":"51.489682","street":{"id":950656,"name":"On or near Grosvenor Road"},"longitude":"-0.272394"},"context":"","outcome_status":{"category":"Status update unavailable","date":"2019-09"},"persistent_id":"cc8838ce25c996c61d6688c06509b8c13bffb80a4e33dd52354e3ef0a8b73180","id":74332751,"location_subtype":"","month":"2019-05"},{"category":"burglary","location_type":"Force","location":{"latitude":"51.499636","street":{"id":952298,"name":"On or near Dalling Road"},"longitude":"-0.232556"},"context":"","outcome_status":{"category":"Court result unavailable","date":"2020-02"},"persistent_id":"58c1ef7fae9893b7db84d26e4181dfdaa84fe48cc8e1b193b9c34fc1e05b9fee","id":74320185,"location_subtype":"","month":"2019-05"},{"category":"burglary","location_type":"Force","location":{"latitude":"51.505659","street":{"id":952243,"name":"On or near Birkbeck Grove"},"longitude":"-0.263116"},"context":"","outcome_status":{"category":"Status update unavailable","date":"2019-09"},"persistent_id":"585d51600ab18a548c25971bb3bf19fd5c22764319309953b1a490bea7f53bee","id":74306578,"location_subtype":"","month":"2019-05"},{"category":"burglary","location_type":"Force","location":{"latitude":"51.492838","street":{"id":950740,"name":"On or near Shopping Area"},"longitude":"-0.256559"},"context":"","outcome_status":{"category":"Status update unavailable","date":"2019-09"},"persistent_id":"1137c4ea1024d21e9bbd1fab92dcb0d61fe9930d58e06fe5cbb10972a25b00fd","id":74310126,"location_subtype":"","month":"2019-05"},{"category":"burglary","location_type":"Force","location":{"latitude":"51.489352","street":{"id":950681,"name":"On or near Beaconsfield Close"},"longitude":"-0.271327"},"context":"","outcome_status":{"category":"Status update unavailable","date":"2019-09"},"persistent_id":"4878d5915bc41b2863e7f719f2f95bb8f4144c0306b2e29d7626b82c9f289bcc","id":74338974,"location_subtype":"","month":"2019-05"},{"category":"burglary","location_type":"Force","location":{"latitude":"51.493297","street":{"id":950599,"name":"On or near Supermarket"},"longitude":"-0.241560"},"context":"","outcome_status":{"category":"Status update unavailable","date":"2019-09"},"persistent_id":"8f31ea71b4956855d32dccb41ee957a0629b44b9e375834fcfef546d2f095f91","id":74355342,"location_subtype":"","month":"2019-05"},{"category":"burglary","location_type":"Force","location":{"latitude":"51.490556","street":{"id":950640,"name":"On or near Sutton Lane North"},"longitude":"-0.269452"},"context":"","outcome_status":{"category":"Status update unavailable","date":"2019-09"},"persistent_id":"2b06992bc35aa218ebca777cc1ccb97ef3aa19dd46e3d009cada0d27a807d193","id":74353487,"location_subtype":"","month":"2019-05"},{"category":"burglary","location_type":"Force","location":{"latitude":"51.488572","street":{"id":950529,"name":"On or near Cornwall Grove"},"longitude":"-0.251522"},"context":"","outcome_status":{"category":"Status update unavailable","date":"2019-09"},"persistent_id":"4770c0e2a020899ea7c1252d7be6643d3ab0200b78227159f69bca05f7b0ba21","id":74352798,"location_subtype":"","month":"2019-05"},{"category":"burglary","location_type":"Force","location":{"latitude":"51.491165","street":{"id":950650,"name":"On or near Horticultural Place"},"longitude":"-0.264459"},"context":"","outcome_status":{"category":"Status update unavailable","date":"2019-09"},"persistent_id":"06a94bd1aafd9694c5f90c0a517c14cc330a09f46a710ec45eea4e706f99bcda","id":74352746,"location_subtype":"","month":"2019-05"},{"category":"burglary","location_type":"Force","location":{"latitude":"51.502922","street":{"id":952145,"name":"On or near Rugby Road"},"longitude":"-0.257442"},"context":"","outcome_status":{"category":"Status update unavailable","date":"2019-09"},"persistent_id":"8ccca3d2426433f351147203b2ecd8bd4edfbb194acb2b8d66dac18ef30f8c50","id":74365789,"location_subtype":"","month":"2019-05"},{"category":"burglary","location_type":"Force","location":{"latitude":"51.502922","street":{"id":952145,"name":"On or near Rugby Road"},"longitude":"-0.257442"},"context":"","outcome_status":{"category":"Status update unavailable","date":"2019-09"},"persistent_id":"6253e1ee0079e4b1588b579ea07a5f1022f03ec201795a71319c62754366c067","id":74365027,"location_subtype":"","month":"2019-05"},{"category":"burglary","location_type":"Force","location":{"latitude":"51.498543","street":{"id":952125,"name":"On or near Marlborough Crescent"},"longitude":"-0.258056"},"context":"","outcome_status":{"category":"Status update unavailable","date":"2019-09"},"persistent_id":"6a79a5385ce5197680a4c3bcc7f978df64bb5d94bf82c1ad5952b8316240856e","id":74363473,"location_subtype":"","month":"2019-05"},{"category":"burglary","location_type":"Force","location":{"latitude":"51.489318","street":{"id":950517,"name":"On or near Miller's Court"},"longitude":"-0.244838"},"context":"","outcome_status":{"category":"Status update unavailable","date":"2019-09"},"persistent_id":"a10fcb980009b0704a7b1b6628b0e63d8dcf9ea4d2f053023c6562a9e3afe029","id":74308621,"location_subtype":"","month":"2019-05"},{"category":"burglary","location_type":"Force","location":{"latitude":"51.501615","street":{"id":952149,"name":"On or near Hawkshead Road"},"longitude":"-0.254812"},"context":"","outcome_status":{"category":"Status update unavailable","date":"2019-09"},"persistent_id":"034bc0ecc3098aa1c365f01c958487cb8d1f080892e5a50bd0e8a903d2b173bf","id":74291058,"location_subtype":"","month":"2019-05"},{"category":"burglary","location_type":"Force","location":{"latitude":"51.488555","street":{"id":950514,"name":"On or near Netheravon Road South"},"longitude":"-0.247374"},"context":"","outcome_status":{"category":"Status update unavailable","date":"2019-09"},"persistent_id":"29397a503713b6e53476e4bea156afe9848f3540cc77ce1627bbc47138e78a5e","id":74361785,"location_subtype":"","month":"2019-05"},{"category":"burglary","location_type":"Force","location":{"latitude":"51.487544","street":{"id":950690,"name":"On or near Pedestrian Subway"},"longitude":"-0.258576"},"context":"","outcome_status":{"category":"Status update unavailable","date":"2019-09"},"persistent_id":"9cfdac656cd03d9ed8e35c56077b118da68197deb04b43f1d133a946eb81a335","id":74296340,"location_subtype":"","month":"2019-05"},{"category":"burglary","location_type":"Force","location":{"latitude":"51.501118","street":{"id":952295,"name":"On or near Elgin Avenue"},"longitude":"-0.236590"},"context":"","outcome_status":{"category":"Status update unavailable","date":"2019-09"},"persistent_id":"4a7336283d8f61f8dfc41d71d4136b05258afa938b659e7aa0dad91483dca858","id":74297816,"location_subtype":"","month":"2019-05"},{"category":"burglary","location_type":"Force","location":{"latitude":"51.497044","street":{"id":952294,"name":"On or near Furber Street"},"longitude":"-0.234198"},"context":"","outcome_status":{"category":"Status update unavailable","date":"2019-09"},"persistent_id":"114a2e522c506e39ea8e274f850ecc0b54e88990f0625c4e6b63ff7e9977148c","id":74351444,"location_subtype":"","month":"2019-05"},{"category":"burglary","location_type":"Force","location":{"latitude":"51.487642","street":{"id":950534,"name":"On or near Chiswick Lane South"},"longitude":"-0.248835"},"context":"","outcome_status":{"category":"Investigation complete; no suspect identified","date":"2020-09"},"persistent_id":"b84bc96e7b3c1edd0ece29d10e74217c48e49f1faa87fe6cb9d0be4c59633361","id":74298149,"location_subtype":"","month":"2019-05"},{"category":"burglary","location_type":"Force","location":{"latitude":"51.504555","street":{"id":952396,"name":"On or near Becklow Road"},"longitude":"-0.243331"},"context":"","outcome_status":{"category":"Status update unavailable","date":"2019-09"},"persistent_id":"f49ba42bf03b42f34ae211ea31865622c6cdba2adceecb5054a00bf430693dcb","id":74350042,"location_subtype":"","month":"2019-05"},{"category":"burglary","location_type":"Force","location":{"latitude":"51.502421","street":{"id":952372,"name":"On or near Rylett Road"},"longitude":"-0.244955"},"context":"","outcome_status":{"category":"Status update unavailable","date":"2019-09"},"persistent_id":"84b20126eb4dcc4149a8d566e6474d225b20cb884e8a3449c71b4480844541f4","id":74299033,"location_subtype":"","month":"2019-05"},{"category":"burglary","location_type":"Force","location":{"latitude":"51.507474","street":{"id":957620,"name":"On or near Ollgar Close"},"longitude":"-0.243665"},"context":"","outcome_status":{"category":"Status update unavailable","date":"2019-09"},"persistent_id":"67aa370b6c4da06fee210f1411519a47d941dee15e50977aa4242b7ccb1cae74","id":74349634,"location_subtype":"","month":"2019-05"},{"category":"burglary","location_type":"Force","location":{"latitude":"51.492149","street":{"id":950730,"name":"On or near Bourne Place"},"longitude":"-0.260402"},"context":"","outcome_status":{"category":"Status update unavailable","date":"2019-09"},"persistent_id":"71116a78dad9f9e95d931fe3ff3629e53ef8bbd27e3bd8ba706f460d93c9a030","id":74299518,"location_subtype":"","month":"2019-05"},{"category":"burglary","location_type":"Force","location":{"latitude":"51.497917","street":{"id":952114,"name":"On or near Wadhurst Road"},"longitude":"-0.262546"},"context":"","outcome_status":{"category":"Status update unavailable","date":"2019-09"},"persistent_id":"00cf7b9a96d762543f94948198788e789fdf8495ba19ea6a4237207d161a3a59","id":74348976,"location_subtype":"","month":"2019-05"},{"category":"burglary","location_type":"Force","location":{"latitude":"51.491628","street":{"id":950515,"name":"On or near Netheravon Road"},"longitude":"-0.246608"},"context":"","outcome_status":{"category":"Status update unavailable","date":"2019-09"},"persistent_id":"d845e2d2b8c1012447d68b50f6fe43416aad75f0bf3312a997e2535e6cd06750","id":74343479,"location_subtype":"","month":"2019-05"},{"category":"burglary","location_type":"Force","location":{"latitude":"51.492943","street":{"id":950718,"name":"On or near Dolman Road"},"longitude":"-0.261842"},"context":"","outcome_status":{"category":"Status update unavailable","date":"2019-09"},"persistent_id":"05a9c6050971c46d99ac1dab6b71e8b4310444d74a1ffa4ff15e26cdbdf82ea9","id":74346354,"location_subtype":"","month":"2019-05"},{"category":"burglary","location_type":"Force","location":{"latitude":"51.489445","street":{"id":950694,"name":"On or near Wavendon Avenue"},"longitude":"-0.263069"},"context":"","outcome_status":{"category":"Status update unavailable","date":"2019-09"},"persistent_id":"57f0435aeaf3577b9b0f363c3c9db78fd5f92bd4b6df3952c1c7ae0d24628d65","id":74304165,"location_subtype":"","month":"2019-05"},{"category":"burglary","location_type":"Force","location":{"latitude":"51.498704","street":{"id":952112,"name":"On or near Woodstock Road"},"longitude":"-0.253770"},"context":"","outcome_status":{"category":"Status update unavailable","date":"2019-09"},"persistent_id":"02f9a2afd0101c3a0ae88513abd0403689cbbe02e71f3a82f3e20592625327ce","id":74338973,"location_subtype":"","month":"2019-05"},{"category":"burglary","location_type":"Force","location":{"latitude":"51.492999","street":{"id":950553,"name":"On or near Chambon Place"},"longitude":"-0.239684"},"context":"","outcome_status":{"category":"Status update unavailable","date":"2019-09"},"persistent_id":"337ceadda33c8b4d47b7c72bb6575ec692e89a5c23c2032f71556d3060ca30f9","id":74293986,"location_subtype":"","month":"2019-05"},{"category":"burglary","location_type":"Force","location":{"latitude":"51.487544","street":{"id":950690,"name":"On or near Pedestrian Subway"},"longitude":"-0.258576"},"context":"","outcome_status":{"category":"Status update unavailable","date":"2019-09"},"persistent_id":"c7c570e9bee78f03583d6c5fcf186bdbf61560ae444eaea0c2e6b073901c6895","id":74308599,"location_subtype":"","month":"2019-05"},{"category":"burglary","location_type":"Force","location":{"latitude":"51.503256","street":{"id":952228,"name":"On or near Leythe Road"},"longitude":"-0.267789"},"context":"","outcome_status":{"category":"Status update unavailable","date":"2019-09"},"persistent_id":"710349c560caeeb7b989c6ef8eaec9c05148c0d51757934c63d5dfb2804d494b","id":74342729,"location_subtype":"","month":"2019-05"},{"category":"burglary","location_type":"Force","location":{"latitude":"51.505785","street":{"id":952249,"name":"On or near Acton Lane"},"longitude":"-0.266166"},"context":"","outcome_status":{"category":"Status update unavailable","date":"2019-09"},"persistent_id":"8b76f91f92292f7cb61eab5fe13d8e463e12c651d9e27046035b928fc7838d01","id":74300204,"location_subtype":"","month":"2019-05"},{"category":"burglary","location_type":"Force","location":{"latitude":"51.488990","street":{"id":950654,"name":"On or near Harvard Road"},"longitude":"-0.273040"},"context":"","outcome_status":{"category":"Status update unavailable","date":"2019-09"},"persistent_id":"cd19b482816c487aedfdd4ee7ccfbf327aa7d90b325053adc3b3bb1e56a360d5","id":74342068,"location_subtype":"","month":"2019-05"},{"category":"burglary","location_type":"Force","location":{"latitude":"51.487115","street":{"id":950697,"name":"On or near Sutherland Road"},"longitude":"-0.256907"},"context":"","outcome_status":{"category":"Status update unavailable","date":"2019-09"},"persistent_id":"98007017268580ec2cb87ca510756bb232e0f08f78ac6c2dcd666ef146f9d0be","id":74342050,"location_subtype":"","month":"2019-05"},{"category":"burglary","location_type":"Force","location":{"latitude":"51.492149","street":{"id":950730,"name":"On or near Bourne Place"},"longitude":"-0.260402"},"context":"","outcome_status":{"category":"Status update unavailable","date":"2019-09"},"persistent_id":"7845c2db481b893acb2dd60de5eb5339afe7f9488c8b9bcb0207f2ee222ec888","id":74341184,"location_subtype":"","month":"2019-05"},{"category":"burglary","location_type":"Force","location":{"latitude":"51.501918","street":{"id":952151,"name":"On or near Hamilton Road"},"longitude":"-0.256443"},"context":"","outcome_status":{"category":"Status update unavailable","date":"2019-09"},"persistent_id":"cc549e23e75b96806260242f31daf749bfa4b4f0b4f32508df5020b1ed2be1cf","id":74298098,"location_subtype":"","month":"2019-05"},{"category":"burglary","location_type":"Force","location":{"latitude":"51.507912","street":{"id":957765,"name":"On or near Burlington Gardens"},"longitude":"-0.265235"},"context":"","outcome_status":{"category":"Status update unavailable","date":"2019-09"},"persistent_id":"cee31f8f5c2535167ddb3628e30c25b695f365d71e4af811b413e1f0a038a5f9","id":74323240,"location_subtype":"","month":"2019-05"},{"category":"burglary","location_type":"Force","location":{"latitude":"51.492796","street":{"id":950665,"name":"On or near Essex Place Square"},"longitude":"-0.264642"},"context":"","outcome_status":{"category":"Status update unavailable","date":"2019-09"},"persistent_id":"c7c98ce29eba21f009473a8a178e5c33c25e4e5a1fc1370334bbb4c6b82b7d12","id":74309965,"location_subtype":"","month":"2019-05"},{"category":"burglary","location_type":"Force","location":{"latitude":"51.492720","street":{"id":950741,"name":"On or near Supermarket"},"longitude":"-0.263147"},"context":"","outcome_status":{"category":"Status update unavailable","date":"2019-09"},"persistent_id":"75e5bc65ec67448c361c2c0ace6f06461b5aeb28fd81721e3cf1d4377a6667cf","id":74310261,"location_subtype":"","month":"2019-05"},{"category":"burglary","location_type":"Force","location":{"latitude":"51.495259","street":{"id":952437,"name":"On or near Ravenscourt Park"},"longitude":"-0.239827"},"context":"","outcome_status":{"category":"Investigation complete; no suspect identified","date":"2020-04"},"persistent_id":"42ff219886e058fa2b9aab7ee2ce27fe5511449834de9747bf8529879faf5f61","id":74310274,"location_subtype":"","month":"2019-05"},{"category":"burglary","location_type":"Force","location":{"latitude":"51.501205","street":{"id":952119,"name":"On or near Southfield Road"},"longitude":"-0.255015"},"context":"","outcome_status":{"category":"Status update unavailable","date":"2019-09"},"persistent_id":"1d5ee2ef3ae2a94ba19ad3af42feab6f452eee51ad23934089db5794b38bd58d","id":74309744,"location_subtype":"","month":"2019-05"},{"category":"burglary","location_type":"Force","location":{"latitude":"51.492149","street":{"id":950730,"name":"On or near Bourne Place"},"longitude":"-0.260402"},"context":"","outcome_status":{"category":"Investigation complete; no suspect identified","date":"2020-03"},"persistent_id":"40eaa35875b8327f50d338977cfc457cdbe6334ce6bb51380d0518b2a6cc6046","id":74298721,"location_subtype":"","month":"2019-05"},{"category":"burglary","location_type":"Force","location":{"latitude":"51.501731","street":{"id":952398,"name":"On or near Bassein Park Road"},"longitude":"-0.245096"},"context":"","outcome_status":{"category":"Status update unavailable","date":"2019-09"},"persistent_id":"61be596374f6a23887bad113fd49f60c602827ac7ee4add0f8ee14ff35866993","id":74313477,"location_subtype":"","month":"2019-05"},{"category":"burglary","location_type":"Force","location":{"latitude":"51.507510","street":{"id":957615,"name":"On or near Third Avenue"},"longitude":"-0.249111"},"context":"","outcome_status":{"category":"Status update unavailable","date":"2019-09"},"persistent_id":"18d476ec31c6352f9260c7625f143edea28f9c37128d25e2258817abbd1c0f8d","id":74330289,"location_subtype":"","month":"2019-05"},{"category":"burglary","location_type":"Force","location":{"latitude":"51.507510","street":{"id":957615,"name":"On or near Third Avenue"},"longitude":"-0.249111"},"context":"","outcome_status":{"category":"Status update unavailable","date":"2019-09"},"persistent_id":"18d476ec31c6352f9260c7625f143edea28f9c37128d25e2258817abbd1c0f8d","id":74330288,"location_subtype":"","month":"2019-05"},{"category":"burglary","location_type":"Force","location":{"latitude":"51.492960","street":{"id":950537,"name":"On or near Chiswick High Road"},"longitude":"-0.250273"},"context":"","outcome_status":{"category":"Status update unavailable","date":"2019-09"},"persistent_id":"78508ab8cb5d334256f57d532d00cf506a26486cd2ebf8239eb0abc5fe979f24","id":74336878,"location_subtype":"","month":"2019-05"},{"category":"burglary","location_type":"Force","location":{"latitude":"51.493302","street":{"id":950685,"name":"On or near Acton Lane"},"longitude":"-0.267273"},"context":"","outcome_status":{"category":"Status update unavailable","date":"2019-09"},"persistent_id":"f8c8ba5bb8a136bcb9b5e4881c4ac4301ef8c3e98ed4ee14c13772053c1d6fae","id":74306717,"location_subtype":"","month":"2019-05"},{"category":"burglary","location_type":"Force","location":{"latitude":"51.496007","street":{"id":952429,"name":"On or near Petrol Station"},"longitude":"-0.244769"},"context":"","outcome_status":{"category":"Status update unavailable","date":"2019-09"},"persistent_id":"bfce38fe14a7547f9be8b5216bc8b83a440d51da764c47a5e433d0e742999d48","id":74316495,"location_subtype":"","month":"2019-05"},{"category":"burglary","location_type":"Force","location":{"latitude":"51.491783","street":{"id":950736,"name":"On or near Annandale Road"},"longitude":"-0.255202"},"context":"","outcome_status":{"category":"Status update unavailable","date":"2019-09"},"persistent_id":"fee6bf62b4408be9f68905d7b82df839ed09831b851e5e47e2505ac4d8e1a8a1","id":74328630,"location_subtype":"","month":"2019-05"},{"category":"criminal-damage-arson","location_type":"Force","location":{"latitude":"51.491776","street":{"id":950573,"name":"On or near Nigel Playfair Avenue"},"longitude":"-0.233666"},"context":"","outcome_status":{"category":"Status update unavailable","date":"2019-09"},"persistent_id":"f69bb8549068a58a1340f571c129d5cc2d2bba985654f8b1a5efb94fa31851a6","id":74328074,"location_subtype":"","month":"2019-05"},{"category":"criminal-damage-arson","location_type":"Force","location":{"latitude":"51.497372","street":{"id":952270,"name":"On or near Antrobus Road"},"longitude":"-0.267594"},"context":"","outcome_status":{"category":"Status update unavailable","date":"2019-09"},"persistent_id":"609eeb94cf7f8bd94848c2dbdc76cbb94dee08c16db6aa55c782644e4a31a1a6","id":74349012,"location_subtype":"","month":"2019-05"},{"category":"criminal-damage-arson","location_type":"Force","location":{"latitude":"51.504555","street":{"id":952396,"name":"On or near Becklow Road"},"longitude":"-0.243331"},"context":"","outcome_status":{"category":"Status update unavailable","date":"2019-09"},"persistent_id":"b6a152a651d30f0e80a79c1648ce3b7fc94a0621a55f54cd1059db1ac219f3fa","id":74345646,"location_subtype":"","month":"2019-05"},{"category":"criminal-damage-arson","location_type":"Force","location":{"latitude":"51.488929","street":{"id":950547,"name":"On or near Airedale Avenue South"},"longitude":"-0.247115"},"context":"","outcome_status":{"category":"Status update unavailable","date":"2019-09"},"persistent_id":"09d38045aabafa4b5afddcc9101f52b01ef485370242767b0b0d4fa314634f53","id":74294015,"location_subtype":"","month":"2019-05"},{"category":"criminal-damage-arson","location_type":"Force","location":{"latitude":"51.504555","street":{"id":952396,"name":"On or near Becklow Road"},"longitude":"-0.243331"},"context":"","outcome_status":{"category":"Status update unavailable","date":"2019-09"},"persistent_id":"ce8d67a647ca5ed76d4c5564f1803b941ec6edd2fbe0b8a6c151f09d25e3f178","id":74299629,"location_subtype":"","month":"2019-05"},{"category":"criminal-damage-arson","location_type":"Force","location":{"latitude":"51.494032","street":{"id":952413,"name":"On or near Westcroft Square"},"longitude":"-0.243764"},"context":"","outcome_status":{"category":"Status update unavailable","date":"2019-09"},"persistent_id":"7188dff78cd468a93b0cee8146a23770d666656933f58f9f1dfa35be5703b10d","id":74293269,"location_subtype":"","month":"2019-05"},{"category":"criminal-damage-arson","location_type":"Force","location":{"latitude":"51.504719","street":{"id":952408,"name":"On or near Valetta Road"},"longitude":"-0.253108"},"context":"","outcome_status":{"category":"Status update unavailable","date":"2019-09"},"persistent_id":"1d7e14b70507e62357fc4890018b7b0b9225c545da5947aacd5d3da7e80dbb01","id":74327826,"location_subtype":"","month":"2019-05"},{"category":"criminal-damage-arson","location_type":"Force","location":{"latitude":"51.506274","street":{"id":952226,"name":"On or near Melville Villas Road"},"longitude":"-0.265124"},"context":"","outcome_status":{"category":"Status update unavailable","date":"2019-09"},"persistent_id":"4b59d1b070b5c67bed0881a9a3e2eefddf4a3e2aedf55f9b7238918cf45c4e39","id":74327362,"location_subtype":"","month":"2019-05"},{"category":"criminal-damage-arson","location_type":"Force","location":{"latitude":"51.500178","street":{"id":923904,"name":"On or near Ashchurch Park Villas"},"longitude":"-0.242274"},"context":"","outcome_status":{"category":"Status update unavailable","date":"2019-09"},"persistent_id":"030dc7378d6cb08751a68081eb3aa800140f0501008357c8fdc92d57d4ef5b92","id":74292654,"location_subtype":"","month":"2019-05"},{"category":"criminal-damage-arson","location_type":"Force","location":{"latitude":"51.493302","street":{"id":950685,"name":"On or near Acton Lane"},"longitude":"-0.267273"},"context":"","outcome_status":{"category":"Status update unavailable","date":"2019-09"},"persistent_id":"7ac1239e05c671b0f0f955a8d836e670234972ddeb46117d73506dc40225cff2","id":74336804,"location_subtype":"","month":"2019-05"},{"category":"criminal-damage-arson","location_type":"Force","location":{"latitude":"51.505368","street":{"id":952371,"name":"On or near St Elmo Road"},"longitude":"-0.245936"},"context":"","outcome_status":{"category":"Status update unavailable","date":"2019-09"},"persistent_id":"cc70fdf069890d36ceb9d302ee177f3e67f5a56bba0b15206117a800cd986810","id":74371033,"location_subtype":"","month":"2019-05"},{"category":"criminal-damage-arson","location_type":"Force","location":{"latitude":"51.494032","street":{"id":952413,"name":"On or near Westcroft Square"},"longitude":"-0.243764"},"context":"","outcome_status":{"category":"Status update unavailable","date":"2019-09"},"persistent_id":"a5fe4fadaf07a244edd23e22de6019318728bbb3279b91bbb4b47a944a11e6f9","id":74306758,"location_subtype":"","month":"2019-05"},{"category":"criminal-damage-arson","location_type":"Force","location":{"latitude":"51.494032","street":{"id":952413,"name":"On or near Westcroft Square"},"longitude":"-0.243764"},"context":"","outcome_status":{"category":"Status update unavailable","date":"2019-09"},"persistent_id":"e22d11ca8ff7da923011aea80ab08864b263b050af5e5be419f20784c0bc286d","id":74338996,"location_subtype":"","month":"2019-05"},{"category":"criminal-damage-arson","location_type":"Force","location":{"latitude":"51.494032","street":{"id":952413,"name":"On or near Westcroft Square"},"longitude":"-0.243764"},"context":"","outcome_status":{"category":"Investigation complete; no suspect identified","date":"2020-03"},"persistent_id":"c7501ed8d2d70000921f801a0a3fb5d03c65a6e39ac175207d3c310156b82048","id":74319304,"location_subtype":"","month":"2019-05"},{"category":"criminal-damage-arson","location_type":"Force","location":{"latitude":"51.494032","street":{"id":952413,"name":"On or near Westcroft Square"},"longitude":"-0.243764"},"context":"","outcome_status":{"category":"Investigation complete; no suspect identified","date":"2020-03"},"persistent_id":"37b84a2031dfb776ebd3cb4b4aafd66d2e1ed0b171aef4de27426c232cf2a1bc","id":74341983,"location_subtype":"","month":"2019-05"},{"category":"criminal-damage-arson","location_type":"Force","location":{"latitude":"51.507557","street":{"id":957619,"name":"On or near Second Avenue"},"longitude":"-0.248014"},"context":"","outcome_status":{"category":"Status update unavailable","date":"2019-09"},"persistent_id":"7708429e99df84b4c299d6ee3f61546ef20b9ccdaa216ece7956a803eaa0e9ba","id":74326587,"location_subtype":"","month":"2019-05"},{"category":"criminal-damage-arson","location_type":"Force","location":{"latitude":"51.490411","street":{"id":950593,"name":"On or near Ferry Terminal"},"longitude":"-0.234411"},"context":"","outcome_status":{"category":"Status update unavailable","date":"2019-09"},"persistent_id":"dcba5cb5029b0e9816aacb16f8a5a4fa0c3def7d0303a8138097f178f98f2647","id":74304636,"location_subtype":"","month":"2019-05"},{"category":"criminal-damage-arson","location_type":"Force","location":{"latitude":"51.505768","street":{"id":952402,"name":"On or near Agnes Road"},"longitude":"-0.250460"},"context":"","outcome_status":{"category":"Status update unavailable","date":"2019-09"},"persistent_id":"a343c3d6c931de1fef2b8872ac5b5d3b254c10aee68f3cb980b894478b3b0246","id":74321689,"location_subtype":"","month":"2019-05"},{"category":"criminal-damage-arson","location_type":"Force","location":{"latitude":"51.492032","street":{"id":950822,"name":"On or near Gunnersbury Mews"},"longitude":"-0.275676"},"context":"","outcome_status":{"category":"Status update unavailable","date":"2019-09"},"persistent_id":"5528a979f0e5213a3073ba66636f2e574c111d7dab1d482ac37c7a91a9a033a5","id":74322758,"location_subtype":"","month":"2019-05"},{"category":"criminal-damage-arson","location_type":"Force","location":{"latitude":"51.505768","street":{"id":952402,"name":"On or near Agnes Road"},"longitude":"-0.250460"},"context":"","outcome_status":{"category":"Status update unavailable","date":"2019-09"},"persistent_id":"ace8df82abf2873b0fa9a373b709a5062e124b6680c7f651e98965051474a399","id":74335373,"location_subtype":"","month":"2019-05"},{"category":"criminal-damage-arson","location_type":"Force","location":{"latitude":"51.502556","street":{"id":952333,"name":"On or near Davisville Road"},"longitude":"-0.240151"},"context":"","outcome_status":{"category":"Status update unavailable","date":"2019-09"},"persistent_id":"121ff78120db3dd5fe130d66cd0c9ca00d954cba6760776fb24ee38842ae329b","id":74298912,"location_subtype":"","month":"2019-05"},{"category":"criminal-damage-arson","location_type":"Force","location":{"latitude":"51.492303","street":{"id":950587,"name":"On or near Cromwell Avenue"},"longitude":"-0.235245"},"context":"","outcome_status":{"category":"Status update unavailable","date":"2019-09"},"persistent_id":"ad81c57011fd95bf4f25638f579dc21159f221ec8dac5e39ba1f27557ea88500","id":74297115,"location_subtype":"","month":"2019-05"},{"category":"criminal-damage-arson","location_type":"Force","location":{"latitude":"51.506744","street":{"id":952368,"name":"On or near The Vale Uxbridge Road"},"longitude":"-0.245956"},"context":"","outcome_status":{"category":"Status update unavailable","date":"2019-09"},"persistent_id":"7289bd3e79cece6739f49326a9c130f4956212280349a2606f159b4d1066e415","id":74364318,"location_subtype":"","month":"2019-05"},{"category":"criminal-damage-arson","location_type":"Force","location":{"latitude":"51.502556","street":{"id":952333,"name":"On or near Davisville Road"},"longitude":"-0.240151"},"context":"","outcome_status":{"category":"Investigation complete; no suspect identified","date":"2020-06"},"persistent_id":"5718464117982957946dcda89c675b7ed674eab8b79979b44d9bf464871528b4","id":74328019,"location_subtype":"","month":"2019-05"},{"category":"criminal-damage-arson","location_type":"Force","location":{"latitude":"51.495018","street":{"id":952261,"name":"On or near Hardwicke Road"},"longitude":"-0.265321"},"context":"","outcome_status":{"category":"Local resolution","date":"2020-05"},"persistent_id":"013edbaf9b1effb1ddf4e6d5f54b8b98565dcccb9e61b028954c29afd8b0daed","id":74324982,"location_subtype":"","month":"2019-05"},{"category":"criminal-damage-arson","location_type":"Force","location":{"latitude":"51.503996","street":{"id":952248,"name":"On or near Acton Lane"},"longitude":"-0.266796"},"context":"","outcome_status":{"category":"Status update unavailable","date":"2019-09"},"persistent_id":"1623264c3fbd2307024a20f0e91162bbf3126137ae21ffae82a22b5e63c02b2e","id":74362133,"location_subtype":"","month":"2019-05"},{"category":"criminal-damage-arson","location_type":"Force","location":{"latitude":"51.502216","street":{"id":952139,"name":"On or near Strauss Road"},"longitude":"-0.260711"},"context":"","outcome_status":{"category":"Investigation complete; no suspect identified","date":"2020-06"},"persistent_id":"da83a609c146d61e6016e3471495faabe79f0d384727eb9db5be0474b0fe3f49","id":74303634,"location_subtype":"","month":"2019-05"},{"category":"criminal-damage-arson","location_type":"Force","location":{"latitude":"51.505998","street":{"id":952212,"name":"On or near Salisbury Street"},"longitude":"-0.267152"},"context":"","outcome_status":{"category":"Status update unavailable","date":"2019-09"},"persistent_id":"e9610a1ec19e2572aaee28c025d8b40449509d94aa784675b910816a86575b19","id":74339302,"location_subtype":"","month":"2019-05"},{"category":"criminal-damage-arson","location_type":"Force","location":{"latitude":"51.491744","street":{"id":950519,"name":"On or near Homefield Road"},"longitude":"-0.250104"},"context":"","outcome_status":{"category":"Status update unavailable","date":"2019-09"},"persistent_id":"d16f01755139f1085cfb2842c8886c890870f5bb191aecc525e2104b2a273506","id":74352398,"location_subtype":"","month":"2019-05"},{"category":"criminal-damage-arson","location_type":"Force","location":{"latitude":"51.490506","street":{"id":950731,"name":"On or near Binns Road"},"longitude":"-0.257584"},"context":"","outcome_status":{"category":"Status update unavailable","date":"2019-09"},"persistent_id":"7e5ab0c5decfb54bbbd7127300ffbd326f7610c673848474ce6877d24bfbb39e","id":74367827,"location_subtype":"","month":"2019-05"},{"category":"criminal-damage-arson","location_type":"Force","location":{"latitude":"51.501863","street":{"id":952214,"name":"On or near Ramsay Road"},"longitude":"-0.267899"},"context":"","outcome_status":{"category":"Status update unavailable","date":"2019-09"},"persistent_id":"4860e547407dc3aab89ec914623a9a9562a615794149dd977150657a5f97471d","id":74368241,"location_subtype":"","month":"2019-05"},{"category":"criminal-damage-arson","location_type":"Force","location":{"latitude":"51.506683","street":{"id":952138,"name":"On or near The Vale"},"longitude":"-0.253350"},"context":"","outcome_status":{"category":"Status update unavailable","date":"2019-09"},"persistent_id":"36640480f95cc3ee645563ef392a04c5096ffac6937d3735607b3da1cad2b4d5","id":74368516,"location_subtype":"","month":"2019-05"},{"category":"drugs","location_type":"Force","location":{"latitude":"51.506407","street":{"id":952156,"name":"On or near Curricle Street"},"longitude":"-0.254744"},"context":"","outcome_status":{"category":"Local resolution","date":"2019-05"},"persistent_id":"eec2ab6a58d332a0cb886b974c174b7da98a926f286b40251fcedf012a23eecf","id":74330132,"location_subtype":"","month":"2019-05"},{"category":"drugs","location_type":"Force","location":{"latitude":"51.499326","street":{"id":952292,"name":"On or near Goldhawk Road"},"longitude":"-0.240622"},"context":"","outcome_status":{"category":"Court result unavailable","date":"2019-11"},"persistent_id":"d4d27e8fc7f3b2e5098bfbfc173bca7342ef38c7bf760f728ac6c4a773a60abd","id":74358926,"location_subtype":"","month":"2019-05"},{"category":"drugs","location_type":"Force","location":{"latitude":"51.495459","street":{"id":952416,"name":"On or near Vaughan Avenue"},"longitude":"-0.245985"},"context":"","outcome_status":{"category":"Status update unavailable","date":"2019-09"},"persistent_id":"b7ef9835ba7e3913c616becbb17b66ea87de634c9300fc01edc72fbe8c273b9c","id":74328150,"location_subtype":"","month":"2019-05"},{"category":"drugs","location_type":"Force","location":{"latitude":"51.504383","street":{"id":952217,"name":"On or near Park Road East"},"longitude":"-0.271694"},"context":"","outcome_status":{"category":"Offender given a caution","date":"2019-05"},"persistent_id":"42d9771f862b69671e525eb7c5b230e5f8adf9574381b2d0091a06979ff6541c","id":74295464,"location_subtype":"","month":"2019-05"},{"category":"drugs","location_type":"Force","location":{"latitude":"51.495672","street":{"id":952446,"name":"On or near Flora Gardens"},"longitude":"-0.235000"},"context":"","outcome_status":{"category":"Court result unavailable","date":"2019-12"},"persistent_id":"34bf417db1b08c486d76adf028eb57544dec70d9ca647f6e7da58f85cefec9c7","id":74330441,"location_subtype":"","month":"2019-05"},{"category":"drugs","location_type":"Force","location":{"latitude":"51.500612","street":{"id":952303,"name":"On or near Ashchurch Grove"},"longitude":"-0.241192"},"context":"","outcome_status":{"category":"Court result unavailable","date":"2019-12"},"persistent_id":"42a81738d2d4743433bb673763024f6c39e3c27ff399c5fd011b50d4bf8a942f","id":74322057,"location_subtype":"","month":"2019-05"},{"category":"drugs","location_type":"Force","location":{"latitude":"51.504555","street":{"id":952396,"name":"On or near Becklow Road"},"longitude":"-0.243331"},"context":"","outcome_status":{"category":"Local resolution","date":"2019-06"},"persistent_id":"8fbe55cb010e4cdd69cbc5920d14ce015a34ddd4d86bbca7de44a2c3474ff306","id":74303891,"location_subtype":"","month":"2019-05"},{"category":"drugs","location_type":"Force","location":{"latitude":"51.499677","street":{"id":952191,"name":"On or near Colville Road"},"longitude":"-0.272722"},"context":"","outcome_status":{"category":"Local resolution","date":"2019-05"},"persistent_id":"7b9d02be685e6e9b21b9bb4aacf43fc3e3406dfcc57437ceaaff5e7805b5cb9f","id":74365246,"location_subtype":"","month":"2019-05"},{"category":"drugs","location_type":"Force","location":{"latitude":"51.501641","street":{"id":952387,"name":"On or near Emlyn Road"},"longitude":"-0.251684"},"context":"","outcome_status":{"category":"Local resolution","date":"2019-05"},"persistent_id":"efe019d9869ab25904ffca05b55ab7269b4c4cc21cb07ae4eaa6179d85ef9c3d","id":74345706,"location_subtype":"","month":"2019-05"},{"category":"drugs","location_type":"Force","location":{"latitude":"51.503924","street":{"id":952225,"name":"On or near Meon Road"},"longitude":"-0.267980"},"context":"","outcome_status":{"category":"Court result unavailable","date":"2020-01"},"persistent_id":"112c0c4bb027e6cb8535440b7eb2629f6465b62c831733164fdb370bd1c84479","id":74367106,"location_subtype":"","month":"2019-05"},{"category":"other-theft","location_type":"Force","location":{"latitude":"51.489682","street":{"id":950656,"name":"On or near Grosvenor Road"},"longitude":"-0.272394"},"context":"","outcome_status":{"category":"Status update unavailable","date":"2019-09"},"persistent_id":"062f6a65c3f895615ff6c3c30bb8728a4a39106428764719e8a2f26516a9f946","id":74310996,"location_subtype":"","month":"2019-05"},{"category":"other-theft","location_type":"Force","location":{"latitude":"51.496313","street":{"id":952256,"name":"On or near South Parade"},"longitude":"-0.264696"},"context":"","outcome_status":{"category":"Status update unavailable","date":"2019-09"},"persistent_id":"0013ac15c9e1546f99fc03d66d58a19f7b7e1d056ed43c0bffca3fc06e07da5e","id":74345958,"location_subtype":"","month":"2019-05"},{"category":"other-theft","location_type":"Force","location":{"latitude":"51.503818","street":{"id":952394,"name":"On or near Cobbold Mews"},"longitude":"-0.243921"},"context":"","outcome_status":{"category":"Status update unavailable","date":"2019-09"},"persistent_id":"419c7ea7b456610c1b7ff1d97412d868caf84b8ab0595d23a1836f1bbf0a6f9a","id":74352171,"location_subtype":"","month":"2019-05"},{"category":"other-theft","location_type":"Force","location":{"latitude":"51.493406","street":{"id":950536,"name":"On or near Chiswick High Road"},"longitude":"-0.245186"},"context":"","outcome_status":{"category":"Status update unavailable","date":"2019-09"},"persistent_id":"72578f88c751d543bf04df897db5c3aecc332ee3dbd264f56d2e95387dcd22e2","id":74291715,"location_subtype":"","month":"2019-05"},{"category":"other-theft","location_type":"Force","location":{"latitude":"51.492778","street":{"id":950581,"name":"On or near Hampshire Hog Lane"},"longitude":"-0.235702"},"context":"","outcome_status":{"category":"Status update unavailable","date":"2019-09"},"persistent_id":"4a0146d04dd50369cd23abda174213b4330d6c9667e44afaa0dc3e261ec824e5","id":74291870,"location_subtype":"","month":"2019-05"},{"category":"other-theft","location_type":"Force","location":{"latitude":"51.491904","street":{"id":950729,"name":"On or near Brackley Road"},"longitude":"-0.254218"},"context":"","outcome_status":{"category":"Status update unavailable","date":"2019-09"},"persistent_id":"3be0fb040d5289bd9b3cb9337fa06d8215766fcbd76d9f8ef4bca4c91617e20d","id":74352125,"location_subtype":"","month":"2019-05"},{"category":"other-theft","location_type":"Force","location":{"latitude":"51.493542","street":{"id":950686,"name":"On or near Supermarket"},"longitude":"-0.265204"},"context":"","outcome_status":{"category":"Status update unavailable","date":"2019-09"},"persistent_id":"27da93078ff0a74286a97284e76a89d7686e802484d6ea5da985dbf183821e0d","id":74340480,"location_subtype":"","month":"2019-05"},{"category":"other-theft","location_type":"Force","location":{"latitude":"51.482099","street":{"id":950747,"name":"On or near Edensor Road"},"longitude":"-0.255845"},"context":"","outcome_status":{"category":"Status update unavailable","date":"2019-09"},"persistent_id":"034c460599a45eb500eec505801019adc67a76af097f4ba06c869e14f2b95944","id":74340411,"location_subtype":"","month":"2019-05"},