[{"category":"anti-social-behaviour","location_type":"Force","location":{"latitude":"51.502369","street":{"id":953718,"name":"On or near Surrey Row"},"longitude":"-0.102975"},"context":"","outcome_status":null,"persistent_id":"","id":74272658,"location_subtype":"","month":"2019-05"},{"category":"anti-social-behaviour","location_type":"Force","location":{"latitude":"51.502369","street":{"id":953718,"name":"On or near Surrey Row"},"longitude":"-0.102975"},"context":"","outcome_status":null,"persistent_id":"","id":74272659,"location_subtype":"","month":"2019-05"},{"category":"anti-social-behaviour","location_type":"Force","location":{"latitude":"51.502369","street":{"id":953718,"name":"On or near Surrey Row"},"longitude":"-0.102975"},"context":"","outcome_status":null,"persistent_id":"","id":74272660,"location_subtype":"","month":"2019-05"},{"category":"anti-social-behaviour","location_type":"Force","location":{"latitude":"51.502369","street":{"id":953718,"name":"On or near Surrey Row"},"longitude":"-0.102975"},"context":"","outcome_status":null,"persistent_id":"","id":74272661,"location_subtype":"","month":"2019-05"},{"category":"anti-social-behaviour","location_type":"Force","location":{"latitude":"51.502369","street":{"id":953718,"name":"On or near Surrey Row"},"longitude":"-0.102975"},"context":"","outcome_status":null,"persistent_id":"","id":74272662,"location_subtype":"","month":"2019-05"},{"category":"anti-social-behaviour","location_type":"Force","location":{"latitude":"51.502369","street":{"id":953718,"name":"On or near Surrey Row"},"longitude":"-0.102975"},"context":"","outcome_status":null,"persistent_id":"","id":74272663,"location_subtype":"","month":"2019-05"},{"category":"anti-social-behaviour","location_type":"Force","location":{"latitude":"51.499253","street":{"id":953732,"name":"On or near Milcote Street"},"longitude":"-0.103219"},"context":"","outcome_status":null,"persistent_id":"","id":74272664,"location_subtype":"","month":"2019-05"},{"category":"anti-social-behaviour","location_type":"Force","location":{"latitude":"51.498345","street":{"id":953695,"name":"On or near Rotary Street"},"longitude":"-0.103272"},"context":"","outcome_status":null,"persistent_id":"","id":74272667,"location_subtype":"","month":"2019-05"},{"category":"anti-social-behaviour","location_type":"Force","location":{"latitude":"51.498345","street":{"id":953695,"name":"On or near Rotary Street"},"longitude":"-0.103272"},"context":"","outcome_status":null,"persistent_id":"","id":74272668,"location_subtype":"","month":"2019-05"},{"category":"anti-social-behaviour","location_type":"Force","location":{"latitude":"51.496930","street":{"id":953705,"name":"On or near Garden Row"},"longitude":"-0.104151"},"context":"","outcome_status":null,"persistent_id":"","id":74272669,"location_subtype":"","month":"2019-05"},{"category":"anti-social-behaviour","location_type":"Force","location":{"latitude":"51.496930","street":{"id":953705,"name":"On or near Garden Row"},"longitude":"-0.104151"},"context":"","outcome_status":null,"persistent_id":"","id":74272670,"location_subtype":"","month":"2019-05"},{"category":"anti-social-behaviour","location_type":"Force","location":{"latitude":"51.503219","street":{"id":953731,"name":"On or near Nelson Square"},"longitude":"-0.103271"},"context":"","outcome_status":null,"persistent_id":"","id":74272673,"location_subtype":"","month":"2019-05"},{"category":"anti-social-behaviour","location_type":"Force","location":{"latitude":"51.503219","street":{"id":953731,"name":"On or near Nelson Square"},"longitude":"-0.103271"},"context":"","outcome_status":null,"persistent_id":"","id":74272674,"location_subtype":"","month":"2019-05"},{"category":"anti-social-behaviour","location_type":"Force","location":{"latitude":"51.503219","street":{"id":953731,"name":"On or near Nelson Square"},"longitude":"-0.103271"},"context":"","outcome_status":null,"persistent_id":"","id":74272675,"location_subtype":"","month":"2019-05"},{"category":"anti-social-behaviour","location_type":"Force","location":{"latitude":"51.502173","street":{"id":953506,"name":"On or near Boundary Row"},"longitude":"-0.105331"},"context":"","outcome_status":null,"persistent_id":"","id":74272679,"location_subtype":"","month":"2019-05"},{"category":"anti-social-behaviour","location_type":"Force","location":{"latitude":"51.502173","street":{"id":953506,"name":"On or near Boundary Row"},"longitude":"-0.105331"},"context":"","outcome_status":null,"persistent_id":"","id":74272680,"location_subtype":"","month":"2019-05"},{"category":"anti-social-behaviour","location_type":"Force","location":{"latitude":"51.499219","street":{"id":953755,"name":"On or near Further\/higher Educational Building"},"longitude":"-0.104474"},"context":"","outcome_status":null,"persistent_id":"","id":74272681,"location_subtype":"","month":"2019-05"},{"category":"anti-social-behaviour","location_type":"Force","location":{"latitude":"51.499219","street":{"id":953755,"name":"On or near Further\/higher Educational Building"},"longitude":"-0.104474"},"context":"","outcome_status":null,"persistent_id":"","id":74272682,"location_subtype":"","month":"2019-05"},{"category":"anti-social-behaviour","location_type":"Force","location":{"latitude":"51.503510","street":{"id":953749,"name":"On or near Blackfriars Road"},"longitude":"-0.104584"},"context":"","outcome_status":null,"persistent_id":"","id":74272683,"location_subtype":"","month":"2019-05"},{"category":"anti-social-behaviour","location_type":"Force","location":{"latitude":"51.495531","street":{"id":953433,"name":"On or near West Square"},"longitude":"-0.105521"},"context":"","outcome_status":null,"persistent_id":"","id":74272684,"location_subtype":"","month":"2019-05"},{"category":"anti-social-behaviour","location_type":"Force","location":{"latitude":"51.499219","street":{"id":953755,"name":"On or near Further\/higher Educational Building"},"longitude":"-0.104474"},"context":"","outcome_status":null,"persistent_id":"","id":74272689,"location_subtype":"","month":"2019-05"},{"category":"anti-social-behaviour","location_type":"Force","location":{"latitude":"51.506340","street":{"id":956280,"name":"On or near Paris Garden"},"longitude":"-0.106110"},"context":"","outcome_status":null,"persistent_id":"","id":74272692,"location_subtype":"","month":"2019-05"},{"category":"anti-social-behaviour","location_type":"Force","location":{"latitude":"51.506340","street":{"id":956280,"name":"On or near Paris Garden"},"longitude":"-0.106110"},"context":"","outcome_status":null,"persistent_id":"","id":74272693,"location_subtype":"","month":"2019-05"},{"category":"anti-social-behaviour","location_type":"Force","location":{"latitude":"51.506340","street":{"id":956280,"name":"On or near Paris Garden"},"longitude":"-0.106110"},"context":"","outcome_status":null,"persistent_id":"","id":74272694,"location_subtype":"","month":"2019-05"},{"category":"anti-social-behaviour","location_type":"Force","location":{"latitude":"51.506340","street":{"id":956280,"name":"On or near Paris Garden"},"longitude":"-0.106110"},"context":"","outcome_status":null,"persistent_id":"","id":74272695,"location_subtype":"","month":"2019-05"},{"category":"anti-social-behaviour","location_type":"Force","location":{"latitude":"51.506340","street":{"id":956280,"name":"On or near Paris Garden"},"longitude":"-0.106110"},"context":"","outcome_status":null,"persistent_id":"","id":74272696,"location_subtype":"","month":"2019-05"},{"category":"anti-social-behaviour","location_type":"Force","location":{"latitude":"51.494202","street":{"id":953559,"name":"On or near Walcot Square"},"longitude":"-0.108961"},"context":"","outcome_status":null,"persistent_id":"","id":74272704,"location_subtype":"","month":"2019-05"},{"category":"anti-social-behaviour","location_type":"Force","location":{"latitude":"51.506340","street":{"id":956280,"name":"On or near Paris Garden"},"longitude":"-0.106110"},"context":"","outcome_status":null,"persistent_id":"","id":74272697,"location_subtype":"","month":"2019-05"},{"category":"anti-social-behaviour","location_type":"Force","location":{"latitude":"51.506340","street":{"id":956280,"name":"On or near Paris Garden"},"longitude":"-0.106110"},"context":"","outcome_status":null,"persistent_id":"","id":74272698,"location_subtype":"","month":"2019-05"},{"category":"anti-social-behaviour","location_type":"Force","location":{"latitude":"51.500039","street":{"id":953471,"name":"On or near Webber Row"},"longitude":"-0.107365"},"context":"","outcome_status":null,"persistent_id":"","id":74272701,"location_subtype":"","month":"2019-05"},{"category":"anti-social-behaviour","location_type":"Force","location":{"latitude":"51.500039","street":{"id":953471,"name":"On or near Webber Row"},"longitude":"-0.107365"},"context":"","outcome_status":null,"persistent_id":"","id":74272702,"location_subtype":"","month":"2019-05"},{"category":"anti-social-behaviour","location_type":"Force","location":{"latitude":"51.500039","street":{"id":953471,"name":"On or near Webber Row"},"longitude":"-0.107365"},"context":"","outcome_status":null,"persistent_id":"","id":74272703,"location_subtype":"","month":"2019-05"},{"category":"anti-social-behaviour","location_type":"Force","location":{"latitude":"51.500039","street":{"id":953471,"name":"On or near Webber Row"},"longitude":"-0.107365"},"context":"","outcome_status":null,"persistent_id":"","id":74272705,"location_subtype":"","month":"2019-05"},{"category":"anti-social-behaviour","location_type":"Force","location":{"latitude":"51.500039","street":{"id":953471,"name":"On or near Webber Row"},"longitude":"-0.107365"},"context":"","outcome_status":null,"persistent_id":"","id":74272706,"location_subtype":"","month":"2019-05"},{"category":"anti-social-behaviour","location_type":"Force","location":{"latitude":"51.500039","street":{"id":953471,"name":"On or near Webber Row"},"longitude":"-0.107365"},"context":"","outcome_status":null,"persistent_id":"","id":74272707,"location_subtype":"","month":"2019-05"},{"category":"anti-social-behaviour","location_type":"Force","location":{"latitude":"51.498928","street":{"id":953448,"name":"On or near Gerridge Street"},"longitude":"-0.108160"},"context":"","outcome_status":null,"persistent_id":"","id":74272708,"location_subtype":"","month":"2019-05"},{"category":"anti-social-behaviour","location_type":"Force","location":{"latitude":"51.498928","street":{"id":953448,"name":"On or near Gerridge Street"},"longitude":"-0.108160"},"context":"","outcome_status":null,"persistent_id":"","id":74272709,"location_subtype":"","month":"2019-05"},{"category":"anti-social-behaviour","location_type":"Force","location":{"latitude":"51.495030","street":{"id":953455,"name":"On or near Brook Drive"},"longitude":"-0.109604"},"context":"","outcome_status":null,"persistent_id":"","id":74272710,"location_subtype":"","month":"2019-05"},{"category":"anti-social-behaviour","location_type":"Force","location":{"latitude":"51.499132","street":{"id":953438,"name":"On or near Morley Street"},"longitude":"-0.109103"},"context":"","outcome_status":null,"persistent_id":"","id":74272711,"location_subtype":"","month":"2019-05"},{"category":"anti-social-behaviour","location_type":"Force","location":{"latitude":"51.499132","street":{"id":953438,"name":"On or near Morley Street"},"longitude":"-0.109103"},"context":"","outcome_status":null,"persistent_id":"","id":74272712,"location_subtype":"","month":"2019-05"},{"category":"anti-social-behaviour","location_type":"Force","location":{"latitude":"51.498889","street":{"id":953452,"name":"On or near Cottesloe Mews"},"longitude":"-0.109632"},"context":"","outcome_status":null,"persistent_id":"","id":74272713,"location_subtype":"","month":"2019-05"},{"category":"anti-social-behaviour","location_type":"Force","location":{"latitude":"51.498436","street":{"id":953432,"name":"On or near Westminster Bridge Road"},"longitude":"-0.111105"},"context":"","outcome_status":null,"persistent_id":"","id":74272714,"location_subtype":"","month":"2019-05"},{"category":"anti-social-behaviour","location_type":"Force","location":{"latitude":"51.490107","street":{"id":949268,"name":"On or near Opal Street"},"longitude":"-0.105414"},"context":"","outcome_status":null,"persistent_id":"","id":74273236,"location_subtype":"","month":"2019-05"},{"category":"anti-social-behaviour","location_type":"Force","location":{"latitude":"51.491921","street":{"id":953565,"name":"On or near Renfrew Road"},"longitude":"-0.105814"},"context":"","outcome_status":null,"persistent_id":"","id":74273239,"location_subtype":"","month":"2019-05"},{"category":"anti-social-behaviour","location_type":"Force","location":{"latitude":"51.506340","street":{"id":956280,"name":"On or near Paris Garden"},"longitude":"-0.106110"},"context":"","outcome_status":null,"persistent_id":"","id":74273256,"location_subtype":"","month":"2019-05"},{"category":"anti-social-behaviour","location_type":"Force","location":{"latitude":"51.489768","street":{"id":949550,"name":"On or near Cottington Street"},"longitude":"-0.107301"},"context":"","outcome_status":null,"persistent_id":"","id":74273261,"location_subtype":"","month":"2019-05"},{"category":"anti-social-behaviour","location_type":"Force","location":{"latitude":"51.489768","street":{"id":949550,"name":"On or near Cottington Street"},"longitude":"-0.107301"},"context":"","outcome_status":null,"persistent_id":"","id":74273262,"location_subtype":"","month":"2019-05"},{"category":"anti-social-behaviour","location_type":"Force","location":{"latitude":"51.505179","street":{"id":956283,"name":"On or near Hatfields"},"longitude":"-0.106547"},"context":"","outcome_status":null,"persistent_id":"","id":74273267,"location_subtype":"","month":"2019-05"},{"category":"anti-social-behaviour","location_type":"Force","location":{"latitude":"51.501807","street":{"id":953503,"name":"On or near Chaplin Close"},"longitude":"-0.106571"},"context":"","outcome_status":null,"persistent_id":"","id":74273273,"location_subtype":"","month":"2019-05"},{"category":"anti-social-behaviour","location_type":"Force","location":{"latitude":"51.501807","street":{"id":953503,"name":"On or near Chaplin Close"},"longitude":"-0.106571"},"context":"","outcome_status":null,"persistent_id":"","id":74273274,"location_subtype":"","month":"2019-05"},{"category":"anti-social-behaviour","location_type":"Force","location":{"latitude":"51.501891","street":{"id":953475,"name":"On or near Ufford Street"},"longitude":"-0.107332"},"context":"","outcome_status":null,"persistent_id":"","id":74273275,"location_subtype":"","month":"2019-05"},{"category":"anti-social-behaviour","location_type":"Force","location":{"latitude":"51.498928","street":{"id":953448,"name":"On or near Gerridge Street"},"longitude":"-0.108160"},"context":"","outcome_status":null,"persistent_id":"","id":74273280,"location_subtype":"","month":"2019-05"},{"category":"anti-social-behaviour","location_type":"Force","location":{"latitude":"51.498928","street":{"id":953448,"name":"On or near Gerridge Street"},"longitude":"-0.108160"},"context":"","outcome_status":null,"persistent_id":"","id":74273281,"location_subtype":"","month":"2019-05"},{"category":"anti-social-behaviour","location_type":"Force","location":{"latitude":"51.498928","street":{"id":953448,"name":"On or near Gerridge Street"},"longitude":"-0.108160"},"context":"","outcome_status":null,"persistent_id":"","id":74273282,"location_subtype":"","month":"2019-05"},{"category":"anti-social-behaviour","location_type":"Force","location":{"latitude":"51.508055","street":{"id":956265,"name":"On or near Barge House Street"},"longitude":"-0.108143"},"context":"","outcome_status":null,"persistent_id":"","id":74273291,"location_subtype":"","month":"2019-05"},{"category":"anti-social-behaviour","location_type":"Force","location":{"latitude":"51.508055","street":{"id":956265,"name":"On or near Barge House Street"},"longitude":"-0.108143"},"context":"","outcome_status":null,"persistent_id":"","id":74273292,"location_subtype":"","month":"2019-05"},{"category":"anti-social-behaviour","location_type":"Force","location":{"latitude":"51.507339","street":{"id":956287,"name":"On or near Broadwall"},"longitude":"-0.108388"},"context":"","outcome_status":null,"persistent_id":"","id":74273297,"location_subtype":"","month":"2019-05"},{"category":"anti-social-behaviour","location_type":"Force","location":{"latitude":"51.507339","street":{"id":956287,"name":"On or near Broadwall"},"longitude":"-0.108388"},"context":"","outcome_status":null,"persistent_id":"","id":74273306,"location_subtype":"","month":"2019-05"},{"category":"anti-social-behaviour","location_type":"Force","location":{"latitude":"51.507339","street":{"id":956287,"name":"On or near Broadwall"},"longitude":"-0.108388"},"context":"","outcome_status":null,"persistent_id":"","id":74273307,"location_subtype":"","month":"2019-05"},{"category":"anti-social-behaviour","location_type":"Force","location":{"latitude":"51.507339","street":{"id":956287,"name":"On or near Broadwall"},"longitude":"-0.108388"},"context":"","outcome_status":null,"persistent_id":"","id":74273308,"location_subtype":"","month":"2019-05"},{"category":"anti-social-behaviour","location_type":"Force","location":{"latitude":"51.506344","street":{"id":956286,"name":"On or near Coin Street"},"longitude":"-0.110216"},"context":"","outcome_status":null,"persistent_id":"","id":74273330,"location_subtype":"","month":"2019-05"},{"category":"anti-social-behaviour","location_type":"Force","location":{"latitude":"51.506344","street":{"id":956286,"name":"On or near Coin Street"},"longitude":"-0.110216"},"context":"","outcome_status":null,"persistent_id":"","id":74273331,"location_subtype":"","month":"2019-05"},{"category":"anti-social-behaviour","location_type":"Force","location":{"latitude":"51.502410","street":{"id":953486,"name":"On or near Pear Place"},"longitude":"-0.110538"},"context":"","outcome_status":null,"persistent_id":"","id":74273332,"location_subtype":"","month":"2019-05"},{"category":"anti-social-behaviour","location_type":"Force","location":{"latitude":"51.498436","street":{"id":953432,"name":"On or near Westminster Bridge Road"},"longitude":"-0.111105"},"context":"","outcome_status":null,"persistent_id":"","id":74273333,"location_subtype":"","month":"2019-05"},{"category":"anti-social-behaviour","location_type":"Force","location":{"latitude":"51.498436","street":{"id":953432,"name":"On or near Westminster Bridge Road"},"longitude":"-0.111105"},"context":"","outcome_status":null,"persistent_id":"","id":74273334,"location_subtype":"","month":"2019-05"},{"category":"anti-social-behaviour","location_type":"Force","location":{"latitude":"51.504570","street":{"id":953499,"name":"On or near Cornwall Road"},"longitude":"-0.110650"},"context":"","outcome_status":null,"persistent_id":"","id":74273336,"location_subtype":"","month":"2019-05"},{"category":"anti-social-behaviour","location_type":"Force","location":{"latitude":"51.500969","street":{"id":953533,"name":"On or near Bridge Street"},"longitude":"-0.124933"},"context":"","outcome_status":null,"persistent_id":"","id":74278423,"location_subtype":"","month":"2019-05"},{"category":"anti-social-behaviour","location_type":"Force","location":{"latitude":"51.500969","street":{"id":953533,"name":"On or near Bridge Street"},"longitude":"-0.124933"},"context":"","outcome_status":null,"persistent_id":"","id":74278424,"location_subtype":"","month":"2019-05"},{"category":"anti-social-behaviour","location_type":"Force","location":{"latitude":"51.498266","street":{"id":953524,"name":"On or near Abingdon Street"},"longitude":"-0.125750"},"context":"","outcome_status":null,"persistent_id":"","id":74278425,"location_subtype":"","month":"2019-05"},{"category":"anti-social-behaviour","location_type":"Force","location":{"latitude":"51.507473","street":{"id":956299,"name":"On or near Northumberland Street"},"longitude":"-0.125675"},"context":"","outcome_status":null,"persistent_id":"","id":74280479,"location_subtype":"","month":"2019-05"},{"category":"anti-social-behaviour","location_type":"Force","location":{"latitude":"51.514639","street":{"id":956146,"name":"On or near Wild Street"},"longitude":"-0.120567"},"context":"","outcome_status":null,"persistent_id":"","id":74280382,"location_subtype":"","month":"2019-05"},{"category":"anti-social-behaviour","location_type":"Force","location":{"latitude":"51.494437","street":{"id":953551,"name":"On or near A3203"},"longitude":"-0.121960"},"context":"","outcome_status":null,"persistent_id":"","id":74275076,"location_subtype":"","month":"2019-05"},{"category":"anti-social-behaviour","location_type":"Force","location":{"latitude":"51.497910","street":{"id":953709,"name":"On or near Avonmouth Street"},"longitude":"-0.097512"},"context":"","outcome_status":null,"persistent_id":"","id":74272135,"location_subtype":"","month":"2019-05"},{"category":"anti-social-behaviour","location_type":"Force","location":{"latitude":"51.500769","street":{"id":953527,"name":"On or near Pedestrian Subway"},"longitude":"-0.119222"},"context":"","outcome_status":null,"persistent_id":"","id":74274422,"location_subtype":"","month":"2019-05"},{"category":"anti-social-behaviour","location_type":"Force","location":{"latitude":"51.503194","street":{"id":953465,"name":"On or near York Road"},"longitude":"-0.115635"},"context":"","outcome_status":null,"persistent_id":"","id":74274292,"location_subtype":"","month":"2019-05"},{"category":"anti-social-behaviour","location_type":"Force","location":{"latitude":"51.504735","street":{"id":953459,"name":"On or near Pedestrian Subway"},"longitude":"-0.114188"},"context":"","outcome_status":null,"persistent_id":"","id":74274288,"location_subtype":"","month":"2019-05"},{"category":"anti-social-behaviour","location_type":"Force","location":{"latitude":"51.498685","street":{"id":923901,"name":"On or near Royal Street"},"longitude":"-0.115994"},"context":"","outcome_status":null,"persistent_id":"","id":74274286,"location_subtype":"","month":"2019-05"},{"category":"anti-social-behaviour","location_type":"Force","location":{"latitude":"51.504735","street":{"id":953459,"name":"On or near Pedestrian Subway"},"longitude":"-0.114188"},"context":"","outcome_status":null,"persistent_id":"","id":74273774,"location_subtype":"","month":"2019-05"},{"category":"anti-social-behaviour","location_type":"Force","location":{"latitude":"51.504735","street":{"id":953459,"name":"On or near Pedestrian Subway"},"longitude":"-0.114188"},"context":"","outcome_status":null,"persistent_id":"","id":74273773,"location_subtype":"","month":"2019-05"},{"category":"anti-social-behaviour","location_type":"Force","location":{"latitude":"51.496199","street":{"id":953435,"name":"On or near Sidford Place"},"longitude":"-0.114598"},"context":"","outcome_status":null,"persistent_id":"","id":74273748,"location_subtype":"","month":"2019-05"},{"category":"anti-social-behaviour","location_type":"Force","location":{"latitude":"51.500769","street":{"id":953527,"name":"On or near Pedestrian Subway"},"longitude":"-0.119222"},"context":"","outcome_status":null,"persistent_id":"","id":74274421,"location_subtype":"","month":"2019-05"},{"category":"anti-social-behaviour","location_type":"Force","location":{"latitude":"51.500483","street":{"id":953469,"name":"On or near Westminster Bridge Road"},"longitude":"-0.115372"},"context":"","outcome_status":null,"persistent_id":"","id":74273747,"location_subtype":"","month":"2019-05"},{"category":"anti-social-behaviour","location_type":"Force","location":{"latitude":"51.496199","street":{"id":953435,"name":"On or near Sidford Place"},"longitude":"-0.114598"},"context":"","outcome_status":null,"persistent_id":"","id":74273744,"location_subtype":"","month":"2019-05"},{"category":"anti-social-behaviour","location_type":"Force","location":{"latitude":"51.506837","street":{"id":956277,"name":"On or near Upper Ground"},"longitude":"-0.111824"},"context":"","outcome_status":null,"persistent_id":"","id":74273737,"location_subtype":"","month":"2019-05"},{"category":"anti-social-behaviour","location_type":"Force","location":{"latitude":"51.497305","street":{"id":953447,"name":"On or near Hercules Road"},"longitude":"-0.114019"},"context":"","outcome_status":null,"persistent_id":"","id":74273736,"location_subtype":"","month":"2019-05"},{"category":"anti-social-behaviour","location_type":"Force","location":{"latitude":"51.504031","street":{"id":953461,"name":"On or near Pedestrian Subway"},"longitude":"-0.114001"},"context":"","outcome_status":null,"persistent_id":"","id":74273693,"location_subtype":"","month":"2019-05"},{"category":"anti-social-behaviour","location_type":"Force","location":{"latitude":"51.504031","street":{"id":953461,"name":"On or near Pedestrian Subway"},"longitude":"-0.114001"},"context":"","outcome_status":null,"persistent_id":"","id":74273692,"location_subtype":"","month":"2019-05"},{"category":"anti-social-behaviour","location_type":"Force","location":{"latitude":"51.500019","street":{"id":953487,"name":"On or near Murphy Street"},"longitude":"-0.112265"},"context":"","outcome_status":null,"persistent_id":"","id":74273689,"location_subtype":"","month":"2019-05"},{"category":"anti-social-behaviour","location_type":"Force","location":{"latitude":"51.501997","street":{"id":953479,"name":"On or near Spur Road"},"longitude":"-0.111693"},"context":"","outcome_status":null,"persistent_id":"","id":74273656,"location_subtype":"","month":"2019-05"},{"category":"anti-social-behaviour","location_type":"Force","location":{"latitude":"51.514887","street":{"id":587564,"name":"On or near Fetter Lane"},"longitude":"-0.109647"},"context":"","outcome_status":null,"persistent_id":"","id":74597607,"location_subtype":"","month":"2019-05"},{"category":"anti-social-behaviour","location_type":"Force","location":{"latitude":"51.513447","street":{"id":587517,"name":"On or near Bow Lane"},"longitude":"-0.093493"},"context":"","outcome_status":null,"persistent_id":"","id":74597640,"location_subtype":"","month":"2019-05"},{"category":"anti-social-behaviour","location_type":"Force","location":{"latitude":"51.493746","street":{"id":953555,"name":"On or near Conference\/exhibition Centre"},"longitude":"-0.120908"},"context":"","outcome_status":null,"persistent_id":"","id":74274413,"location_subtype":"","month":"2019-05"},{"category":"anti-social-behaviour","location_type":"Force","location":{"latitude":"51.501997","street":{"id":953479,"name":"On or near Spur Road"},"longitude":"-0.111693"},"context":"","outcome_status":null,"persistent_id":"","id":74273654,"location_subtype":"","month":"2019-05"},{"category":"anti-social-behaviour","location_type":"Force","location":{"latitude":"51.507133","street":{"id":956297,"name":"On or near Victoria Embankment"},"longitude":"-0.121813"},"context":"","outcome_status":null,"persistent_id":"","id":74274399,"location_subtype":"","month":"2019-05"},{"category":"anti-social-behaviour","location_type":"Force","location":{"latitude":"51.501997","street":{"id":953479,"name":"On or near Spur Road"},"longitude":"-0.111693"},"context":"","outcome_status":null,"persistent_id":"","id":74273653,"location_subtype":"","month":"2019-05"},{"category":"anti-social-behaviour","location_type":"Force","location":{"latitude":"51.490190","street":{"id":949540,"name":"On or near Hotspur Street"},"longitude":"-0.112800"},"context":"","outcome_status":null,"persistent_id":"","id":74273649,"location_subtype":"","month":"2019-05"},{"category":"anti-social-behaviour","location_type":"Force","location":{"latitude":"51.507097","street":{"id":956648,"name":"On or near Parking Area"},"longitude":"-0.130864"},"context":"","outcome_status":null,"persistent_id":"","id":74283394,"location_subtype":"","month":"2019-05"},{"category":"anti-social-behaviour","location_type":"Force","location":{"latitude":"51.510855","street":{"id":587500,"name":"On or near Gophir Lane"},"longitude":"-0.089465"},"context":"","outcome_status":null,"persistent_id":"","id":74597642,"location_subtype":"","month":"2019-05"},{"category":"anti-social-behaviour","location_type":"Force","location":{"latitude":"51.509037","street":{"id":956591,"name":"On or near Conference\/exhibition Centre"},"longitude":"-0.130698"},"context":"","outcome_status":null,"persistent_id":"","id":74283393,"location_subtype":"","month":"2019-05"},{"category":"anti-social-behaviour","location_type":"Force","location":{"latitude":"51.494293","street":{"id":953548,"name":"On or near Lambeth High Street"},"longitude":"-0.119661"},"context":"","outcome_status":null,"persistent_id":"","id":74274372,"location_subtype":"","month":"2019-05"},{"category":"anti-social-behaviour","location_type":"Force","location":{"latitude":"51.509037","street":{"id":956591,"name":"On or near Conference\/exhibition Centre"},"longitude":"-0.130698"},"context":"","outcome_status":null,"persistent_id":"","id":74283392,"location_subtype":"","month":"2019-05"},{"category":"anti-social-behaviour","location_type":"Force","location":{"latitude":"51.503248","street":{"id":953727,"name":"On or near Risborough Street"},"longitude":"-0.100042"},"context":"","outcome_status":null,"persistent_id":"","id":74272182,"location_subtype":"","month":"2019-05"},{"category":"anti-social-behaviour","location_type":"Force","location":{"latitude":"51.509037","street":{"id":956591,"name":"On or near Conference\/exhibition Centre"},"longitude":"-0.130698"},"context":"","outcome_status":null,"persistent_id":"","id":74283391,"location_subtype":"","month":"2019-05"},{"category":"anti-social-behaviour","location_type":"Force","location":{"latitude":"51.509037","street":{"id":956591,"name":"On or near Conference\/exhibition Centre"},"longitude":"-0.130698"},"context":"","outcome_status":null,"persistent_id":"","id":74283390,"location_subtype":"","month":"2019-05"},{"category":"anti-social-behaviour","location_type":"Force","location":{"latitude":"51.509037","street":{"id":956591,"name":"On or near Conference\/exhibition Centre"},"longitude":"-0.130698"},"context":"","outcome_status":null,"persistent_id":"","id":74283389,"location_subtype":"","month":"2019-05"},{"category":"anti-social-behaviour","location_type":"Force","location":{"latitude":"51.509037","street":{"id":956591,"name":"On or near Conference\/exhibition Centre"},"longitude":"-0.130698"},"context":"","outcome_status":null,"persistent_id":"","id":74283388,"location_subtype":"","month":"2019-05"},{"category":"anti-social-behaviour","location_type":"Force","location":{"latitude":"51.509428","street":{"id":956477,"name":"On or near Orange Street"},"longitude":"-0.130379"},"context":"","outcome_status":null,"persistent_id":"","id":74283368,"location_subtype":"","month":"2019-05"},{"category":"anti-social-behaviour","location_type":"Force","location":{"latitude":"51.509428","street":{"id":956477,"name":"On or near Orange Street"},"longitude":"-0.130379"},"context":"","outcome_status":null,"persistent_id":"","id":74283358,"location_subtype":"","month":"2019-05"},{"category":"anti-social-behaviour","location_type":"Force","location":{"latitude":"51.511435","street":{"id":587316,"name":"On or near White Lion Hill"},"longitude":"-0.099716"},"context":"","outcome_status":null,"persistent_id":"","id":74597617,"location_subtype":"","month":"2019-05"},{"category":"anti-social-behaviour","location_type":"Force","location":{"latitude":"51.513377","street":{"id":587339,"name":"On or near New Change"},"longitude":"-0.096363"},"context":"","outcome_status":null,"persistent_id":"","id":74597625,"location_subtype":"","month":"2019-05"},{"category":"anti-social-behaviour","location_type":"Force","location":{"latitude":"51.509428","street":{"id":956477,"name":"On or near Orange Street"},"longitude":"-0.130379"},"context":"","outcome_status":null,"persistent_id":"","id":74283357,"location_subtype":"","month":"2019-05"},{"category":"anti-social-behaviour","location_type":"Force","location":{"latitude":"51.497899","street":{"id":953525,"name":"On or near Further\/higher Educational Building"},"longitude":"-0.119685"},"context":"","outcome_status":null,"persistent_id":"","id":74274371,"location_subtype":"","month":"2019-05"},{"category":"anti-social-behaviour","location_type":"Force","location":{"latitude":"51.509428","street":{"id":956477,"name":"On or near Orange Street"},"longitude":"-0.130379"},"context":"","outcome_status":null,"persistent_id":"","id":74283356,"location_subtype":"","month":"2019-05"},{"category":"anti-social-behaviour","location_type":"Force","location":{"latitude":"51.509428","street":{"id":956477,"name":"On or near Orange Street"},"longitude":"-0.130379"},"context":"","outcome_status":null,"persistent_id":"","id":74283355,"location_subtype":"","month":"2019-05"},{"category":"anti-social-behaviour","location_type":"Force","location":{"latitude":"51.498524","street":{"id":953431,"name":"On or near Westminster Bridge Road"},"longitude":"-0.107125"},"context":"","outcome_status":null,"persistent_id":"","id":74272691,"location_subtype":"","month":"2019-05"},{"category":"anti-social-behaviour","location_type":"Force","location":{"latitude":"51.497899","street":{"id":953525,"name":"On or near Further\/higher Educational Building"},"longitude":"-0.119685"},"context":"","outcome_status":null,"persistent_id":"","id":74274370,"location_subtype":"","month":"2019-05"},{"category":"anti-social-behaviour","location_type":"Force","location":{"latitude":"51.507657","street":{"id":956660,"name":"On or near Cockspur Street"},"longitude":"-0.129890"},"context":"","outcome_status":null,"persistent_id":"","id":74283346,"location_subtype":"","month":"2019-05"},{"category":"anti-social-behaviour","location_type":"Force","location":{"latitude":"51.507657","street":{"id":956660,"name":"On or near Cockspur Street"},"longitude":"-0.129890"},"context":"","outcome_status":null,"persistent_id":"","id":74283345,"location_subtype":"","month":"2019-05"},{"category":"anti-social-behaviour","location_type":"Force","location":{"latitude":"51.507657","street":{"id":956660,"name":"On or near Cockspur Street"},"longitude":"-0.129890"},"context":"","outcome_status":null,"persistent_id":"","id":74283344,"location_subtype":"","month":"2019-05"},{"category":"anti-social-behaviour","location_type":"Force","location":{"latitude":"51.497928","street":{"id":953295,"name":"On or near Conference\/exhibition Centre"},"longitude":"-0.129366"},"context":"","outcome_status":null,"persistent_id":"","id":74283332,"location_subtype":"","month":"2019-05"},{"category":"anti-social-behaviour","location_type":"Force","location":{"latitude":"51.511715","street":{"id":956493,"name":"On or near Little Newport Street"},"longitude":"-0.128902"},"context":"","outcome_status":null,"persistent_id":"","id":74283329,"location_subtype":"","month":"2019-05"},{"category":"anti-social-behaviour","location_type":"Force","location":{"latitude":"51.510835","street":{"id":956562,"name":"On or near Nightclub"},"longitude":"-0.128996"},"context":"","outcome_status":null,"persistent_id":"","id":74283327,"location_subtype":"","month":"2019-05"},{"category":"anti-social-behaviour","location_type":"Force","location":{"latitude":"51.510835","street":{"id":956562,"name":"On or near Nightclub"},"longitude":"-0.128996"},"context":"","outcome_status":null,"persistent_id":"","id":74283326,"location_subtype":"","month":"2019-05"},{"category":"anti-social-behaviour","location_type":"Force","location":{"latitude":"51.503637","street":{"id":953483,"name":"On or near Sandell Street"},"longitude":"-0.110804"},"context":"","outcome_status":null,"persistent_id":"","id":74273637,"location_subtype":"","month":"2019-05"},{"category":"anti-social-behaviour","location_type":"Force","location":{"latitude":"51.513094","street":{"id":956587,"name":"On or near Theatre\/concert Hall"},"longitude":"-0.127376"},"context":"","outcome_status":null,"persistent_id":"","id":74286628,"location_subtype":"","month":"2019-05"},{"category":"anti-social-behaviour","location_type":"Force","location":{"latitude":"51.503637","street":{"id":953483,"name":"On or near Sandell Street"},"longitude":"-0.110804"},"context":"","outcome_status":null,"persistent_id":"","id":74273636,"location_subtype":"","month":"2019-05"},{"category":"anti-social-behaviour","location_type":"Force","location":{"latitude":"51.500076","street":{"id":953512,"name":"On or near Sports\/recreation Area"},"longitude":"-0.111902"},"context":"","outcome_status":null,"persistent_id":"","id":74273627,"location_subtype":"","month":"2019-05"},{"category":"anti-social-behaviour","location_type":"Force","location":{"latitude":"51.500076","street":{"id":953512,"name":"On or near Sports\/recreation Area"},"longitude":"-0.111902"},"context":"","outcome_status":null,"persistent_id":"","id":74273625,"location_subtype":"","month":"2019-05"},{"category":"anti-social-behaviour","location_type":"Force","location":{"latitude":"51.500769","street":{"id":953527,"name":"On or near Pedestrian Subway"},"longitude":"-0.119222"},"context":"","outcome_status":null,"persistent_id":"","id":74274431,"location_subtype":"","month":"2019-05"},{"category":"anti-social-behaviour","location_type":"Force","location":{"latitude":"51.500769","street":{"id":953527,"name":"On or near Pedestrian Subway"},"longitude":"-0.119222"},"context":"","outcome_status":null,"persistent_id":"","id":74274419,"location_subtype":"","month":"2019-05"},{"category":"anti-social-behaviour","location_type":"Force","location":{"latitude":"51.495451","street":{"id":953446,"name":"On or near Kennington Road"},"longitude":"-0.111186"},"context":"","outcome_status":null,"persistent_id":"","id":74273622,"location_subtype":"","month":"2019-05"},{"category":"anti-social-behaviour","location_type":"Force","location":{"latitude":"51.500769","street":{"id":953527,"name":"On or near Pedestrian Subway"},"longitude":"-0.119222"},"context":"","outcome_status":null,"persistent_id":"","id":74274418,"location_subtype":"","month":"2019-05"},{"category":"anti-social-behaviour","location_type":"Force","location":{"latitude":"51.515882","street":{"id":587547,"name":"On or near Parking Area"},"longitude":"-0.106680"},"context":"","outcome_status":null,"persistent_id":"","id":74597636,"location_subtype":"","month":"2019-05"},{"category":"anti-social-behaviour","location_type":"Force","location":{"latitude":"51.491377","street":{"id":949475,"name":"On or near Lilac Place"},"longitude":"-0.118412"},"context":"","outcome_status":null,"persistent_id":"","id":74274337,"location_subtype":"","month":"2019-05"},{"category":"anti-social-behaviour","location_type":"Force","location":{"latitude":"51.502791","street":{"id":953521,"name":"On or near Chicheley Street"},"longitude":"-0.116905"},"context":"","outcome_status":null,"persistent_id":"","id":74274320,"location_subtype":"","month":"2019-05"},{"category":"anti-social-behaviour","location_type":"Force","location":{"latitude":"51.507339","street":{"id":956287,"name":"On or near Broadwall"},"longitude":"-0.108388"},"context":"","outcome_status":null,"persistent_id":"","id":74273325,"location_subtype":"","month":"2019-05"},{"category":"anti-social-behaviour","location_type":"Force","location":{"latitude":"51.503194","street":{"id":953465,"name":"On or near York Road"},"longitude":"-0.115635"},"context":"","outcome_status":null,"persistent_id":"","id":74274291,"location_subtype":"","month":"2019-05"},{"category":"anti-social-behaviour","location_type":"Force","location":{"latitude":"51.498685","street":{"id":923901,"name":"On or near Royal Street"},"longitude":"-0.115994"},"context":"","outcome_status":null,"persistent_id":"","id":74274285,"location_subtype":"","month":"2019-05"},{"category":"anti-social-behaviour","location_type":"Force","location":{"latitude":"51.497899","street":{"id":953525,"name":"On or near Further\/higher Educational Building"},"longitude":"-0.119685"},"context":"","outcome_status":null,"persistent_id":"","id":74274369,"location_subtype":"","month":"2019-05"},{"category":"anti-social-behaviour","location_type":"Force","location":{"latitude":"51.511449","street":{"id":587321,"name":"On or near Victoria Embankment"},"longitude":"-0.104500"},"context":"","outcome_status":null,"persistent_id":"","id":74597644,"location_subtype":"","month":"2019-05"},{"category":"anti-social-behaviour","location_type":"Force","location":{"latitude":"51.503194","street":{"id":953465,"name":"On or near York Road"},"longitude":"-0.115635"},"context":"","outcome_status":null,"persistent_id":"","id":74274290,"location_subtype":"","month":"2019-05"},{"category":"anti-social-behaviour","location_type":"Force","location":{"latitude":"51.503194","street":{"id":953465,"name":"On or near York Road"},"longitude":"-0.115635"},"context":"","outcome_status":null,"persistent_id":"","id":74274289,"location_subtype":"","month":"2019-05"},{"category":"anti-social-behaviour","location_type":"Force","location":{"latitude":"51.501997","street":{"id":953479,"name":"On or near Spur Road"},"longitude":"-0.111693"},"context":"","outcome_status":null,"persistent_id":"","id":74273655,"location_subtype":"","month":"2019-05"},{"category":"anti-social-behaviour","location_type":"Force","location":{"latitude":"51.506623","street":{"id":956671,"name":"On or near Theatre\/concert Hall"},"longitude":"-0.127655"},"context":"","outcome_status":null,"persistent_id":"","id":74280537,"location_subtype":"","month":"2019-05"},{"category":"anti-social-behaviour","location_type":"Force","location":{"latitude":"51.490842","street":{"id":949562,"name":"On or near Petrol Station"},"longitude":"-0.111448"},"context":"","outcome_status":null,"persistent_id":"","id":74273335,"location_subtype":"","month":"2019-05"},{"category":"anti-social-behaviour","location_type":"Force","location":{"latitude":"51.508592","street":{"id":956519,"name":"On or near Duncannon Street"},"longitude":"-0.126479"},"context":"","outcome_status":null,"persistent_id":"","id":74280536,"location_subtype":"","month":"2019-05"},{"category":"anti-social-behaviour","location_type":"Force","location":{"latitude":"51.511322","street":{"id":587357,"name":"On or near Castle Baynard Street"},"longitude":"-0.097213"},"context":"","outcome_status":null,"persistent_id":"","id":74597646,"location_subtype":"","month":"2019-05"},{"category":"anti-social-behaviour","location_type":"Force","location":{"latitude":"51.511581","street":{"id":956526,"name":"On or near Cranbourn Street"},"longitude":"-0.127798"},"context":"","outcome_status":null,"persistent_id":"","id":74280535,"location_subtype":"","month":"2019-05"},{"category":"anti-social-behaviour","location_type":"Force","location":{"latitude":"51.511581","street":{"id":956526,"name":"On or near Cranbourn Street"},"longitude":"-0.127798"},"context":"","outcome_status":null,"persistent_id":"","id":74280534,"location_subtype":"","month":"2019-05"},{"category":"anti-social-behaviour","location_type":"Force","location":{"latitude":"51.511581","street":{"id":956526,"name":"On or near Cranbourn Street"},"longitude":"-0.127798"},"context":"","outcome_status":null,"persistent_id":"","id":74280533,"location_subtype":"","month":"2019-05"},{"category":"anti-social-behaviour","location_type":"Force","location":{"latitude":"51.511581","street":{"id":956526,"name":"On or near Cranbourn Street"},"longitude":"-0.127798"},"context":"","outcome_status":null,"persistent_id":"","id":74280532,"location_subtype":"","month":"2019-05"},{"category":"anti-social-behaviour","location_type":"Force","location":{"latitude":"51.511581","street":{"id":956526,"name":"On or near Cranbourn Street"},"longitude":"-0.127798"},"context":"","outcome_status":null,"persistent_id":"","id":74280531,"location_subtype":"","month":"2019-05"},{"category":"anti-social-behaviour","location_type":"Force","location":{"latitude":"51.491714","street":{"id":949459,"name":"On or near Parking Area"},"longitude":"-0.119220"},"context":"","outcome_status":null,"persistent_id":"","id":74274368,"location_subtype":"","month":"2019-05"},{"category":"anti-social-behaviour","location_type":"Force","location":{"latitude":"51.502820","street":{"id":953537,"name":"On or near Theme\/adventure Park"},"longitude":"-0.119267"},"context":"","outcome_status":null,"persistent_id":"","id":74274361,"location_subtype":"","month":"2019-05"},{"category":"anti-social-behaviour","location_type":"Force","location":{"latitude":"51.511581","street":{"id":956526,"name":"On or near Cranbourn Street"},"longitude":"-0.127798"},"context":"","outcome_status":null,"persistent_id":"","id":74280530,"location_subtype":"","month":"2019-05"},{"category":"anti-social-behaviour","location_type":"Force","location":{"latitude":"51.491714","street":{"id":949459,"name":"On or near Parking Area"},"longitude":"-0.119220"},"context":"","outcome_status":null,"persistent_id":"","id":74274353,"location_subtype":"","month":"2019-05"},{"category":"anti-social-behaviour","location_type":"Force","location":{"latitude":"51.503637","street":{"id":953483,"name":"On or near Sandell Street"},"longitude":"-0.110804"},"context":"","outcome_status":null,"persistent_id":"","id":74273640,"location_subtype":"","month":"2019-05"},{"category":"anti-social-behaviour","location_type":"Force","location":{"latitude":"51.500769","street":{"id":953527,"name":"On or near Pedestrian Subway"},"longitude":"-0.119222"},"context":"","outcome_status":null,"persistent_id":"","id":74274433,"location_subtype":"","month":"2019-05"},{"category":"anti-social-behaviour","location_type":"Force","location":{"latitude":"51.506623","street":{"id":956671,"name":"On or near Theatre\/concert Hall"},"longitude":"-0.127655"},"context":"","outcome_status":null,"persistent_id":"","id":74280529,"location_subtype":"","month":"2019-05"},{"category":"anti-social-behaviour","location_type":"Force","location":{"latitude":"51.501136","street":{"id":953530,"name":"On or near Westminster Bridge Road"},"longitude":"-0.117391"},"context":"","outcome_status":null,"persistent_id":"","id":74274348,"location_subtype":"","month":"2019-05"},{"category":"anti-social-behaviour","location_type":"Force","location":{"latitude":"51.511143","street":{"id":956577,"name":"On or near Theatre\/concert Hall"},"longitude":"-0.127427"},"context":"","outcome_status":null,"persistent_id":"","id":74280528,"location_subtype":"","month":"2019-05"},{"category":"anti-social-behaviour","location_type":"Force","location":{"latitude":"51.511143","street":{"id":956577,"name":"On or near Theatre\/concert Hall"},"longitude":"-0.127427"},"context":"","outcome_status":null,"persistent_id":"","id":74280527,"location_subtype":"","month":"2019-05"},{"category":"anti-social-behaviour","location_type":"Force","location":{"latitude":"51.506712","street":{"id":956659,"name":"On or near Craig's Court"},"longitude":"-0.126974"},"context":"","outcome_status":null,"persistent_id":"","id":74280525,"location_subtype":"","month":"2019-05"},{"category":"anti-social-behaviour","location_type":"Force","location":{"latitude":"51.501136","street":{"id":953530,"name":"On or near Westminster Bridge Road"},"longitude":"-0.117391"},"context":"","outcome_status":null,"persistent_id":"","id":74274346,"location_subtype":"","month":"2019-05"},{"category":"anti-social-behaviour","location_type":"Force","location":{"latitude":"51.510678","street":{"id":956451,"name":"On or near St Martin's Lane"},"longitude":"-0.126999"},"context":"","outcome_status":null,"persistent_id":"","id":74280524,"location_subtype":"","month":"2019-05"},{"category":"anti-social-behaviour","location_type":"Force","location":{"latitude":"51.510678","street":{"id":956451,"name":"On or near St Martin's Lane"},"longitude":"-0.126999"},"context":"","outcome_status":null,"persistent_id":"","id":74280523,"location_subtype":"","month":"2019-05"},{"category":"anti-social-behaviour","location_type":"Force","location":{"latitude":"51.510678","street":{"id":956451,"name":"On or near St Martin's Lane"},"longitude":"-0.126999"},"context":"","outcome_status":null,"persistent_id":"","id":74280522,"location_subtype":"","month":"2019-05"},{"category":"anti-social-behaviour","location_type":"Force","location":{"latitude":"51.511495","street":{"id":587513,"name":"On or near Cannon Street"},"longitude":"-0.089582"},"context":"","outcome_status":null,"persistent_id":"","id":74597654,"location_subtype":"","month":"2019-05"},{"category":"anti-social-behaviour","location_type":"Force","location":{"latitude":"51.510678","street":{"id":956451,"name":"On or near St Martin's Lane"},"longitude":"-0.126999"},"context":"","outcome_status":null,"persistent_id":"","id":74280521,"location_subtype":"","month":"2019-05"},{"category":"anti-social-behaviour","location_type":"Force","location":{"latitude":"51.500769","street":{"id":953527,"name":"On or near Pedestrian Subway"},"longitude":"-0.119222"},"context":"","outcome_status":null,"persistent_id":"","id":74274432,"location_subtype":"","month":"2019-05"},{"category":"anti-social-behaviour","location_type":"Force","location":{"latitude":"51.514109","street":{"id":587342,"name":"On or near Ludgate Hill"},"longitude":"-0.103280"},"context":"","outcome_status":null,"persistent_id":"","id":74597659,"location_subtype":"","month":"2019-05"},{"category":"anti-social-behaviour","location_type":"Force","location":{"latitude":"51.501136","street":{"id":953530,"name":"On or near Westminster Bridge Road"},"longitude":"-0.117391"},"context":"","outcome_status":null,"persistent_id":"","id":74274345,"location_subtype":"","month":"2019-05"},{"category":"anti-social-behaviour","location_type":"Force","location":{"latitude":"51.510678","street":{"id":956451,"name":"On or near St Martin's Lane"},"longitude":"-0.126999"},"context":"","outcome_status":null,"persistent_id":"","id":74280520,"location_subtype":"","month":"2019-05"},{"category":"anti-social-behaviour","location_type":"Force","location":{"latitude":"51.491377","street":{"id":949475,"name":"On or near Lilac Place"},"longitude":"-0.118412"},"context":"","outcome_status":null,"persistent_id":"","id":74274338,"location_subtype":"","month":"2019-05"},{"category":"anti-social-behaviour","location_type":"Force","location":{"latitude":"51.500769","street":{"id":953527,"name":"On or near Pedestrian Subway"},"longitude":"-0.119222"},"context":"","outcome_status":null,"persistent_id":"","id":74274430,"location_subtype":"","month":"2019-05"},{"category":"anti-social-behaviour","location_type":"Force","location":{"latitude":"51.510678","street":{"id":956451,"name":"On or near St Martin's Lane"},"longitude":"-0.126999"},"context":"","outcome_status":null,"persistent_id":"","id":74280519,"location_subtype":"","month":"2019-05"},{"category":"anti-social-behaviour","location_type":"Force","location":{"latitude":"51.495273","street":{"id":953421,"name":"On or near Dean Bradley Street"},"longitude":"-0.126954"},"context":"","outcome_status":null,"persistent_id":"","id":74280515,"location_subtype":"","month":"2019-05"},{"category":"anti-social-behaviour","location_type":"Force","location":{"latitude":"51.495273","street":{"id":953421,"name":"On or near Dean Bradley Street"},"longitude":"-0.126954"},"context":"","outcome_status":null,"persistent_id":"","id":74280514,"location_subtype":"","month":"2019-05"},{"category":"anti-social-behaviour","location_type":"Force","location":{"latitude":"51.508592","street":{"id":956519,"name":"On or near Duncannon Street"},"longitude":"-0.126479"},"context":"","outcome_status":null,"persistent_id":"","id":74280511,"location_subtype":"","month":"2019-05"},{"category":"anti-social-behaviour","location_type":"Force","location":{"latitude":"51.496706","street":{"id":953276,"name":"On or near Lord North Street"},"longitude":"-0.127154"},"context":"","outcome_status":null,"persistent_id":"","id":74280510,"location_subtype":"","month":"2019-05"},{"category":"anti-social-behaviour","location_type":"Force","location":{"latitude":"51.496706","street":{"id":953276,"name":"On or near Lord North Street"},"longitude":"-0.127154"},"context":"","outcome_status":null,"persistent_id":"","id":74280509,"location_subtype":"","month":"2019-05"},{"category":"anti-social-behaviour","location_type":"Force","location":{"latitude":"51.503637","street":{"id":953483,"name":"On or near Sandell Street"},"longitude":"-0.110804"},"context":"","outcome_status":null,"persistent_id":"","id":74273641,"location_subtype":"","month":"2019-05"},{"category":"anti-social-behaviour","location_type":"Force","location":{"latitude":"51.496706","street":{"id":953276,"name":"On or near Lord North Street"},"longitude":"-0.127154"},"context":"","outcome_status":null,"persistent_id":"","id":74280508,"location_subtype":"","month":"2019-05"},{"category":"anti-social-behaviour","location_type":"Force","location":{"latitude":"51.496706","street":{"id":953276,"name":"On or near Lord North Street"},"longitude":"-0.127154"},"context":"","outcome_status":null,"persistent_id":"","id":74280507,"location_subtype":"","month":"2019-05"},{"category":"anti-social-behaviour","location_type":"Force","location":{"latitude":"51.496706","street":{"id":953276,"name":"On or near Lord North Street"},"longitude":"-0.127154"},"context":"","outcome_status":null,"persistent_id":"","id":74280506,"location_subtype":"","month":"2019-05"},{"category":"anti-social-behaviour","location_type":"Force","location":{"latitude":"51.500769","street":{"id":953527,"name":"On or near Pedestrian Subway"},"longitude":"-0.119222"},"context":"","outcome_status":null,"persistent_id":"","id":74274429,"location_subtype":"","month":"2019-05"},{"category":"anti-social-behaviour","location_type":"Force","location":{"latitude":"51.491377","street":{"id":949475,"name":"On or near Lilac Place"},"longitude":"-0.118412"},"context":"","outcome_status":null,"persistent_id":"","id":74274336,"location_subtype":"","month":"2019-05"},{"category":"anti-social-behaviour","location_type":"Force","location":{"latitude":"51.498685","street":{"id":923901,"name":"On or near Royal Street"},"longitude":"-0.115994"},"context":"","outcome_status":null,"persistent_id":"","id":74274321,"location_subtype":"","month":"2019-05"},{"category":"anti-social-behaviour","location_type":"Force","location":{"latitude":"51.496706","street":{"id":953276,"name":"On or near Lord North Street"},"longitude":"-0.127154"},"context":"","outcome_status":null,"persistent_id":"","id":74280505,"location_subtype":"","month":"2019-05"},{"category":"anti-social-behaviour","location_type":"Force","location":{"latitude":"51.511449","street":{"id":587321,"name":"On or near Victoria Embankment"},"longitude":"-0.104500"},"context":"","outcome_status":null,"persistent_id":"","id":74597663,"location_subtype":"","month":"2019-05"},{"category":"anti-social-behaviour","location_type":"Force","location":{"latitude":"51.496706","street":{"id":953276,"name":"On or near Lord North Street"},"longitude":"-0.127154"},"context":"","outcome_status":null,"persistent_id":"","id":74280504,"location_subtype":"","month":"2019-05"},{"category":"anti-social-behaviour","location_type":"Force","location":{"latitude":"51.496706","street":{"id":953276,"name":"On or near Lord North Street"},"longitude":"-0.127154"},"context":"","outcome_status":null,"persistent_id":"","id":74280503,"location_subtype":"","month":"2019-05"},{"category":"anti-social-behaviour","location_type":"Force","location":{"latitude":"51.497482","street":{"id":953257,"name":"On or near Parking Area"},"longitude":"-0.127310"},"context":"","outcome_status":null,"persistent_id":"","id":74280502,"location_subtype":"","month":"2019-05"},{"category":"anti-social-behaviour","location_type":"Force","location":{"latitude":"51.503637","street":{"id":953483,"name":"On or near Sandell Street"},"longitude":"-0.110804"},"context":"","outcome_status":null,"persistent_id":"","id":74273643,"location_subtype":"","month":"2019-05"},{"category":"anti-social-behaviour","location_type":"Force","location":{"latitude":"51.513683","street":{"id":956260,"name":"On or near Fleet Street"},"longitude":"-0.111974"},"context":"","outcome_status":null,"persistent_id":"","id":74597681,"location_subtype":"","month":"2019-05"},{"category":"anti-social-behaviour","location_type":"Force","location":{"latitude":"51.513447","street":{"id":587517,"name":"On or near Bow Lane"},"longitude":"-0.093493"},"context":"","outcome_status":null,"persistent_id":"","id":74597695,"location_subtype":"","month":"2019-05"},{"category":"anti-social-behaviour","location_type":"Force","location":{"latitude":"51.501490","street":{"id":953532,"name":"On or near Canon Row"},"longitude":"-0.125503"},"context":"","outcome_status":null,"persistent_id":"","id":74280501,"location_subtype":"","month":"2019-05"},{"category":"anti-social-behaviour","location_type":"Force","location":{"latitude":"51.498266","street":{"id":953524,"name":"On or near Abingdon Street"},"longitude":"-0.125750"},"context":"","outcome_status":null,"persistent_id":"","id":74280499,"location_subtype":"","month":"2019-05"},{"category":"anti-social-behaviour","location_type":"Force","location":{"latitude":"51.507473","street":{"id":956299,"name":"On or near Northumberland Street"},"longitude":"-0.125675"},"context":"","outcome_status":null,"persistent_id":"","id":74280498,"location_subtype":"","month":"2019-05"},{"category":"anti-social-behaviour","location_type":"Force","location":{"latitude":"51.507473","street":{"id":956299,"name":"On or near Northumberland Street"},"longitude":"-0.125675"},"context":"","outcome_status":null,"persistent_id":"","id":74280497,"location_subtype":"","month":"2019-05"},{"category":"anti-social-behaviour","location_type":"Force","location":{"latitude":"51.505458","street":{"id":956276,"name":"On or near Waterloo Road"},"longitude":"-0.114389"},"context":"","outcome_status":null,"persistent_id":"","id":74274319,"location_subtype":"","month":"2019-05"},{"category":"anti-social-behaviour","location_type":"Force","location":{"latitude":"51.509902","street":{"id":956586,"name":"On or near Theatre\/concert Hall"},"longitude":"-0.126310"},"context":"","outcome_status":null,"persistent_id":"","id":74280496,"location_subtype":"","month":"2019-05"},{"category":"anti-social-behaviour","location_type":"Force","location":{"latitude":"51.509902","street":{"id":956586,"name":"On or near Theatre\/concert Hall"},"longitude":"-0.126310"},"context":"","outcome_status":null,"persistent_id":"","id":74280495,"location_subtype":"","month":"2019-05"},{"category":"anti-social-behaviour","location_type":"Force","location":{"latitude":"51.509902","street":{"id":956586,"name":"On or near Theatre\/concert Hall"},"longitude":"-0.126310"},"context":"","outcome_status":null,"persistent_id":"","id":74280494,"location_subtype":"","month":"2019-05"},{"category":"anti-social-behaviour","location_type":"Force","location":{"latitude":"51.509902","street":{"id":956586,"name":"On or near Theatre\/concert Hall"},"longitude":"-0.126310"},"context":"","outcome_status":null,"persistent_id":"","id":74280493,"location_subtype":"","month":"2019-05"},{"category":"anti-social-behaviour","location_type":"Force","location":{"latitude":"51.509902","street":{"id":956586,"name":"On or near Theatre\/concert Hall"},"longitude":"-0.126310"},"context":"","outcome_status":null,"persistent_id":"","id":74280492,"location_subtype":"","month":"2019-05"},{"category":"anti-social-behaviour","location_type":"Force","location":{"latitude":"51.509902","street":{"id":956586,"name":"On or near Theatre\/concert Hall"},"longitude":"-0.126310"},"context":"","outcome_status":null,"persistent_id":"","id":74280491,"location_subtype":"","month":"2019-05"},{"category":"anti-social-behaviour","location_type":"Force","location":{"latitude":"51.500769","street":{"id":953527,"name":"On or near Pedestrian Subway"},"longitude":"-0.119222"},"context":"","outcome_status":null,"persistent_id":"","id":74274428,"location_subtype":"","month":"2019-05"},{"category":"anti-social-behaviour","location_type":"Force","location":{"latitude":"51.509902","street":{"id":956586,"name":"On or near Theatre\/concert Hall"},"longitude":"-0.126310"},"context":"","outcome_status":null,"persistent_id":"","id":74280490,"location_subtype":"","month":"2019-05"},{"category":"anti-social-behaviour","location_type":"Force","location":{"latitude":"51.511748","street":{"id":956551,"name":"On or near Theatre\/concert Hall"},"longitude":"-0.125874"},"context":"","outcome_status":null,"persistent_id":"","id":74280489,"location_subtype":"","month":"2019-05"},{"category":"anti-social-behaviour","location_type":"Force","location":{"latitude":"51.516966","street":{"id":587577,"name":"On or near Plumtree Court"},"longitude":"-0.105900"},"context":"","outcome_status":null,"persistent_id":"","id":74597710,"location_subtype":"","month":"2019-05"},{"category":"anti-social-behaviour","location_type":"Force","location":{"latitude":"51.511748","street":{"id":956551,"name":"On or near Theatre\/concert Hall"},"longitude":"-0.125874"},"context":"","outcome_status":null,"persistent_id":"","id":74280488,"location_subtype":"","month":"2019-05"},{"category":"anti-social-behaviour","location_type":"Force","location":{"latitude":"51.511748","street":{"id":956551,"name":"On or near Theatre\/concert Hall"},"longitude":"-0.125874"},"context":"","outcome_status":null,"persistent_id":"","id":74280487,"location_subtype":"","month":"2019-05"},{"category":"anti-social-behaviour","location_type":"Force","location":{"latitude":"51.511114","street":{"id":956482,"name":"On or near New Row"},"longitude":"-0.126160"},"context":"","outcome_status":null,"persistent_id":"","id":74280474,"location_subtype":"","month":"2019-05"},{"category":"anti-social-behaviour","location_type":"Force","location":{"latitude":"51.503196","street":{"id":953311,"name":"On or near Downing Street"},"longitude":"-0.127032"},"context":"","outcome_status":null,"persistent_id":"","id":74280459,"location_subtype":"","month":"2019-05"},{"category":"anti-social-behaviour","location_type":"Force","location":{"latitude":"51.507473","street":{"id":956299,"name":"On or near Northumberland Street"},"longitude":"-0.125675"},"context":"","outcome_status":null,"persistent_id":"","id":74280454,"location_subtype":"","month":"2019-05"},{"category":"anti-social-behaviour","location_type":"Force","location":{"latitude":"51.502791","street":{"id":953521,"name":"On or near Chicheley Street"},"longitude":"-0.116905"},"context":"","outcome_status":null,"persistent_id":"","id":74274315,"location_subtype":"","month":"2019-05"},{"category":"anti-social-behaviour","location_type":"Force","location":{"latitude":"51.514639","street":{"id":956146,"name":"On or near Wild Street"},"longitude":"-0.120567"},"context":"","outcome_status":null,"persistent_id":"","id":74280377,"location_subtype":"","month":"2019-05"},{"category":"anti-social-behaviour","location_type":"Force","location":{"latitude":"51.516032","street":{"id":587364,"name":"On or near Bear Alley"},"longitude":"-0.104281"},"context":"","outcome_status":null,"persistent_id":"","id":74597721,"location_subtype":"","month":"2019-05"},{"category":"anti-social-behaviour","location_type":"Force","location":{"latitude":"51.494437","street":{"id":953551,"name":"On or near A3203"},"longitude":"-0.121960"},"context":"","outcome_status":null,"persistent_id":"","id":74275075,"location_subtype":"","month":"2019-05"},{"category":"anti-social-behaviour","location_type":"Force","location":{"latitude":"51.500769","street":{"id":953527,"name":"On or near Pedestrian Subway"},"longitude":"-0.119222"},"context":"","outcome_status":null,"persistent_id":"","id":74274427,"location_subtype":"","month":"2019-05"},{"category":"anti-social-behaviour","location_type":"Force","location":{"latitude":"51.514639","street":{"id":956146,"name":"On or near Wild Street"},"longitude":"-0.120567"},"context":"","outcome_status":null,"persistent_id":"","id":74280376,"location_subtype":"","month":"2019-05"},{"category":"anti-social-behaviour","location_type":"Force","location":{"latitude":"51.510893","street":{"id":956150,"name":"On or near Strand"},"longitude":"-0.120231"},"context":"","outcome_status":null,"persistent_id":"","id":74280373,"location_subtype":"","month":"2019-05"},{"category":"anti-social-behaviour","location_type":"Force","location":{"latitude":"51.512427","street":{"id":956193,"name":"On or near Catherine Street"},"longitude":"-0.119966"},"context":"","outcome_status":null,"persistent_id":"","id":74280372,"location_subtype":"","month":"2019-05"},{"category":"anti-social-behaviour","location_type":"Force","location":{"latitude":"51.509848","street":{"id":587368,"name":"On or near A201"},"longitude":"-0.104494"},"context":"","outcome_status":null,"persistent_id":"","id":74597754,"location_subtype":"","month":"2019-05"},{"category":"anti-social-behaviour","location_type":"Force","location":{"latitude":"51.511477","street":{"id":587476,"name":"On or near Queen Street"},"longitude":"-0.092926"},"context":"","outcome_status":null,"persistent_id":"","id":74597758,"location_subtype":"","month":"2019-05"},{"category":"anti-social-behaviour","location_type":"Force","location":{"latitude":"51.509428","street":{"id":956477,"name":"On or near Orange Street"},"longitude":"-0.130379"},"context":"","outcome_status":null,"persistent_id":"","id":74286690,"location_subtype":"","month":"2019-05"},{"category":"anti-social-behaviour","location_type":"Force","location":{"latitude":"51.509428","street":{"id":956477,"name":"On or near Orange Street"},"longitude":"-0.130379"},"context":"","outcome_status":null,"persistent_id":"","id":74286689,"location_subtype":"","month":"2019-05"},{"category":"anti-social-behaviour","location_type":"Force","location":{"latitude":"51.513734","street":{"id":956189,"name":"On or near Drury Lane"},"longitude":"-0.120158"},"context":"","outcome_status":null,"persistent_id":"","id":74280371,"location_subtype":"","month":"2019-05"},{"category":"anti-social-behaviour","location_type":"Force","location":{"latitude":"51.506151","street":{"id":956298,"name":"On or near Scotland Place"},"longitude":"-0.125657"},"context":"","outcome_status":null,"persistent_id":"","id":74280451,"location_subtype":"","month":"2019-05"},{"category":"anti-social-behaviour","location_type":"Force","location":{"latitude":"51.513195","street":{"id":956170,"name":"On or near Langley Street"},"longitude":"-0.125282"},"context":"","outcome_status":null,"persistent_id":"","id":74280449,"location_subtype":"","month":"2019-05"},{"category":"anti-social-behaviour","location_type":"Force","location":{"latitude":"51.507377","street":{"id":956289,"name":"On or near A301"},"longitude":"-0.115750"},"context":"","outcome_status":null,"persistent_id":"","id":74274314,"location_subtype":"","month":"2019-05"},{"category":"anti-social-behaviour","location_type":"Force","location":{"latitude":"51.510761","street":{"id":956157,"name":"On or near Savoy Row"},"longitude":"-0.119833"},"context":"","outcome_status":null,"persistent_id":"","id":74280369,"location_subtype":"","month":"2019-05"},{"category":"anti-social-behaviour","location_type":"Force","location":{"latitude":"51.511315","street":{"id":956213,"name":"On or near Conference\/exhibition Centre"},"longitude":"-0.118528"},"context":"","outcome_status":null,"persistent_id":"","id":74280367,"location_subtype":"","month":"2019-05"},{"category":"anti-social-behaviour","location_type":"Force","location":{"latitude":"51.514518","street":{"id":956166,"name":"On or near Nottingham Court"},"longitude":"-0.125343"},"context":"","outcome_status":null,"persistent_id":"","id":74286608,"location_subtype":"","month":"2019-05"},{"category":"anti-social-behaviour","location_type":"Force","location":{"latitude":"51.513745","street":{"id":956153,"name":"On or near Shelton Street"},"longitude":"-0.125360"},"context":"","outcome_status":null,"persistent_id":"","id":74286589,"location_subtype":"","month":"2019-05"},{"category":"anti-social-behaviour","location_type":"Force","location":{"latitude":"51.513745","street":{"id":956153,"name":"On or near Shelton Street"},"longitude":"-0.125360"},"context":"","outcome_status":null,"persistent_id":"","id":74286588,"location_subtype":"","month":"2019-05"},{"category":"anti-social-behaviour","location_type":"Force","location":{"latitude":"51.513745","street":{"id":956153,"name":"On or near Shelton Street"},"longitude":"-0.125360"},"context":"","outcome_status":null,"persistent_id":"","id":74286587,"location_subtype":"","month":"2019-05"},{"category":"anti-social-behaviour","location_type":"Force","location":{"latitude":"51.513745","street":{"id":956153,"name":"On or near Shelton Street"},"longitude":"-0.125360"},"context":"","outcome_status":null,"persistent_id":"","id":74286586,"location_subtype":"","month":"2019-05"},{"category":"anti-social-behaviour","location_type":"Force","location":{"latitude":"51.514017","street":{"id":956186,"name":"On or near Endell Street"},"longitude":"-0.123850"},"context":"","outcome_status":null,"persistent_id":"","id":74286579,"location_subtype":"","month":"2019-05"},{"category":"anti-social-behaviour","location_type":"Force","location":{"latitude":"51.515412","street":{"id":956190,"name":"On or near Drury Lane"},"longitude":"-0.123317"},"context":"","outcome_status":null,"persistent_id":"","id":74286566,"location_subtype":"","month":"2019-05"},{"category":"anti-social-behaviour","location_type":"Force","location":{"latitude":"51.511315","street":{"id":956213,"name":"On or near Conference\/exhibition Centre"},"longitude":"-0.118528"},"context":"","outcome_status":null,"persistent_id":"","id":74280366,"location_subtype":"","month":"2019-05"},{"category":"anti-social-behaviour","location_type":"Force","location":{"latitude":"51.515412","street":{"id":956190,"name":"On or near Drury Lane"},"longitude":"-0.123317"},"context":"","outcome_status":null,"persistent_id":"","id":74286565,"location_subtype":"","month":"2019-05"},{"category":"anti-social-behaviour","location_type":"Force","location":{"latitude":"51.515412","street":{"id":956190,"name":"On or near Drury Lane"},"longitude":"-0.123317"},"context":"","outcome_status":null,"persistent_id":"","id":74286561,"location_subtype":"","month":"2019-05"},{"category":"anti-social-behaviour","location_type":"Force","location":{"latitude":"51.515431","street":{"id":956220,"name":"On or near Theatre\/concert Hall"},"longitude":"-0.122812"},"context":"","outcome_status":null,"persistent_id":"","id":74286552,"location_subtype":"","month":"2019-05"},{"category":"anti-social-behaviour","location_type":"Force","location":{"latitude":"51.515957","street":{"id":956164,"name":"On or near Parker Street"},"longitude":"-0.121421"},"context":"","outcome_status":null,"persistent_id":"","id":74286518,"location_subtype":"","month":"2019-05"},{"category":"anti-social-behaviour","location_type":"Force","location":{"latitude":"51.515678","street":{"id":956181,"name":"On or near Great Queen Street"},"longitude":"-0.120841"},"context":"","outcome_status":null,"persistent_id":"","id":74286517,"location_subtype":"","month":"2019-05"},{"category":"anti-social-behaviour","location_type":"Force","location":{"latitude":"51.511315","street":{"id":956213,"name":"On or near Conference\/exhibition Centre"},"longitude":"-0.118528"},"context":"","outcome_status":null,"persistent_id":"","id":74280365,"location_subtype":"","month":"2019-05"},{"category":"anti-social-behaviour","location_type":"Force","location":{"latitude":"51.515678","street":{"id":956181,"name":"On or near Great Queen Street"},"longitude":"-0.120841"},"context":"","outcome_status":null,"persistent_id":"","id":74286516,"location_subtype":"","month":"2019-05"},{"category":"anti-social-behaviour","location_type":"Force","location":{"latitude":"51.515678","street":{"id":956181,"name":"On or near Great Queen Street"},"longitude":"-0.120841"},"context":"","outcome_status":null,"persistent_id":"","id":74286515,"location_subtype":"","month":"2019-05"},{"category":"anti-social-behaviour","location_type":"Force","location":{"latitude":"51.515678","street":{"id":956181,"name":"On or near Great Queen Street"},"longitude":"-0.120841"},"context":"","outcome_status":null,"persistent_id":"","id":74286514,"location_subtype":"","month":"2019-05"},{"category":"anti-social-behaviour","location_type":"Force","location":{"latitude":"51.515678","street":{"id":956181,"name":"On or near Great Queen Street"},"longitude":"-0.120841"},"context":"","outcome_status":null,"persistent_id":"","id":74286513,"location_subtype":"","month":"2019-05"},{"category":"anti-social-behaviour","location_type":"Force","location":{"latitude":"51.516213","street":{"id":956172,"name":"On or near Kingsway"},"longitude":"-0.119450"},"context":"","outcome_status":null,"persistent_id":"","id":74286506,"location_subtype":"","month":"2019-05"},{"category":"anti-social-behaviour","location_type":"Force","location":{"latitude":"51.516213","street":{"id":956172,"name":"On or near Kingsway"},"longitude":"-0.119450"},"context":"","outcome_status":null,"persistent_id":"","id":74286505,"location_subtype":"","month":"2019-05"},{"category":"anti-social-behaviour","location_type":"Force","location":{"latitude":"51.516213","street":{"id":956172,"name":"On or near Kingsway"},"longitude":"-0.119450"},"context":"","outcome_status":null,"persistent_id":"","id":74286504,"location_subtype":"","month":"2019-05"},{"category":"anti-social-behaviour","location_type":"Force","location":{"latitude":"51.516213","street":{"id":956172,"name":"On or near Kingsway"},"longitude":"-0.119450"},"context":"","outcome_status":null,"persistent_id":"","id":74286503,"location_subtype":"","month":"2019-05"},{"category":"anti-social-behaviour","location_type":"Force","location":{"latitude":"51.516213","street":{"id":956172,"name":"On or near Kingsway"},"longitude":"-0.119450"},"context":"","outcome_status":null,"persistent_id":"","id":74286502,"location_subtype":"","month":"2019-05"},{"category":"anti-social-behaviour","location_type":"Force","location":{"latitude":"51.516523","street":{"id":956236,"name":"On or near Remnant Street"},"longitude":"-0.119135"},"context":"","outcome_status":null,"persistent_id":"","id":74286495,"location_subtype":"","month":"2019-05"},{"category":"anti-social-behaviour","location_type":"Force","location":{"latitude":"51.516523","street":{"id":956236,"name":"On or near Remnant Street"},"longitude":"-0.119135"},"context":"","outcome_status":null,"persistent_id":"","id":74286494,"location_subtype":"","month":"2019-05"},{"category":"anti-social-behaviour","location_type":"Force","location":{"latitude":"51.516523","street":{"id":956236,"name":"On or near Remnant Street"},"longitude":"-0.119135"},"context":"","outcome_status":null,"persistent_id":"","id":74286493,"location_subtype":"","month":"2019-05"},{"category":"anti-social-behaviour","location_type":"Force","location":{"latitude":"51.516523","street":{"id":956236,"name":"On or near Remnant Street"},"longitude":"-0.119135"},"context":"","outcome_status":null,"persistent_id":"","id":74286492,"location_subtype":"","month":"2019-05"},{"category":"anti-social-behaviour","location_type":"Force","location":{"latitude":"51.516523","street":{"id":956236,"name":"On or near Remnant Street"},"longitude":"-0.119135"},"context":"","outcome_status":null,"persistent_id":"","id":74286491,"location_subtype":"","month":"2019-05"},{"category":"anti-social-behaviour","location_type":"Force","location":{"latitude":"51.511315","street":{"id":956213,"name":"On or near Conference\/exhibition Centre"},"longitude":"-0.118528"},"context":"","outcome_status":null,"persistent_id":"","id":74280364,"location_subtype":"","month":"2019-05"},{"category":"anti-social-behaviour","location_type":"Force","location":{"latitude":"51.511914","street":{"id":956211,"name":"On or near Theatre\/concert Hall"},"longitude":"-0.119425"},"context":"","outcome_status":null,"persistent_id":"","id":74280363,"location_subtype":"","month":"2019-05"},{"category":"anti-social-behaviour","location_type":"Force","location":{"latitude":"51.513195","street":{"id":956170,"name":"On or near Langley Street"},"longitude":"-0.125282"},"context":"","outcome_status":null,"persistent_id":"","id":74280448,"location_subtype":"","month":"2019-05"},{"category":"anti-social-behaviour","location_type":"Force","location":{"latitude":"51.510490","street":{"id":956199,"name":"On or near Bedford Court"},"longitude":"-0.125407"},"context":"","outcome_status":null,"persistent_id":"","id":74280447,"location_subtype":"","month":"2019-05"},{"category":"anti-social-behaviour","location_type":"Force","location":{"latitude":"51.500483","street":{"id":953469,"name":"On or near Westminster Bridge Road"},"longitude":"-0.115372"},"context":"","outcome_status":null,"persistent_id":"","id":74274294,"location_subtype":"","month":"2019-05"},{"category":"anti-social-behaviour","location_type":"Force","location":{"latitude":"51.510490","street":{"id":956199,"name":"On or near Bedford Court"},"longitude":"-0.125407"},"context":"","outcome_status":null,"persistent_id":"","id":74280446,"location_subtype":"","month":"2019-05"},{"category":"anti-social-behaviour","location_type":"Force","location":{"latitude":"51.511914","street":{"id":956211,"name":"On or near Theatre\/concert Hall"},"longitude":"-0.119425"},"context":"","outcome_status":null,"persistent_id":"","id":74280362,"location_subtype":"","month":"2019-05"},{"category":"anti-social-behaviour","location_type":"Force","location":{"latitude":"51.509777","street":{"id":956227,"name":"On or near Police Station"},"longitude":"-0.124673"},"context":"","outcome_status":null,"persistent_id":"","id":74280444,"location_subtype":"","month":"2019-05"},{"category":"anti-social-behaviour","location_type":"Force","location":{"latitude":"51.516523","street":{"id":956236,"name":"On or near Remnant Street"},"longitude":"-0.119135"},"context":"","outcome_status":null,"persistent_id":"","id":74286490,"location_subtype":"","month":"2019-05"},{"category":"anti-social-behaviour","location_type":"Force","location":{"latitude":"51.500769","street":{"id":953527,"name":"On or near Pedestrian Subway"},"longitude":"-0.119222"},"context":"","outcome_status":null,"persistent_id":"","id":74274426,"location_subtype":"","month":"2019-05"},{"category":"anti-social-behaviour","location_type":"Force","location":{"latitude":"51.516523","street":{"id":956236,"name":"On or near Remnant Street"},"longitude":"-0.119135"},"context":"","outcome_status":null,"persistent_id":"","id":74286489,"location_subtype":"","month":"2019-05"},{"category":"anti-social-behaviour","location_type":"Force","location":{"latitude":"51.511914","street":{"id":956211,"name":"On or near Theatre\/concert Hall"},"longitude":"-0.119425"},"context":"","outcome_status":null,"persistent_id":"","id":74280360,"location_subtype":"","month":"2019-05"},{"category":"anti-social-behaviour","location_type":"Force","location":{"latitude":"51.508577","street":{"id":956212,"name":"On or near Nightclub"},"longitude":"-0.124419"},"context":"","outcome_status":null,"persistent_id":"","id":74280442,"location_subtype":"","month":"2019-05"},{"category":"anti-social-behaviour","location_type":"Force","location":{"latitude":"51.514017","street":{"id":956186,"name":"On or near Endell Street"},"longitude":"-0.123850"},"context":"","outcome_status":null,"persistent_id":"","id":74280441,"location_subtype":"","month":"2019-05"},{"category":"anti-social-behaviour","location_type":"Force","location":{"latitude":"51.518226","street":{"id":956268,"name":"On or near Pedestrian Subway"},"longitude":"-0.111497"},"context":"","outcome_status":null,"persistent_id":"","id":74285829,"location_subtype":"","month":"2019-05"},{"category":"anti-social-behaviour","location_type":"Force","location":{"latitude":"51.518226","street":{"id":956268,"name":"On or near Pedestrian Subway"},"longitude":"-0.111497"},"context":"","outcome_status":null,"persistent_id":"","id":74285828,"location_subtype":"","month":"2019-05"},{"category":"anti-social-behaviour","location_type":"Force","location":{"latitude":"51.517909","street":{"id":587581,"name":"On or near High Holborn"},"longitude":"-0.109709"},"context":"","outcome_status":null,"persistent_id":"","id":74285817,"location_subtype":"","month":"2019-05"},{"category":"anti-social-behaviour","location_type":"Force","location":{"latitude":"51.507321","street":{"id":956301,"name":"On or near Craven Street"},"longitude":"-0.124601"},"context":"","outcome_status":null,"persistent_id":"","id":74280440,"location_subtype":"","month":"2019-05"},{"category":"anti-social-behaviour","location_type":"Force","location":{"latitude":"51.493923","street":{"id":953777,"name":"On or near Elephant Road"},"longitude":"-0.098384"},"context":"","outcome_status":null,"persistent_id":"","id":74272136,"location_subtype":"","month":"2019-05"},{"category":"anti-social-behaviour","location_type":"Force","location":{"latitude":"51.493923","street":{"id":953777,"name":"On or near Elephant Road"},"longitude":"-0.098384"},"context":"","outcome_status":null,"persistent_id":"","id":74272137,"location_subtype":"","month":"2019-05"},{"category":"anti-social-behaviour","location_type":"Force","location":{"latitude":"51.493923","street":{"id":953777,"name":"On or near Elephant Road"},"longitude":"-0.098384"},"context":"","outcome_status":null,"persistent_id":"","id":74272138,"location_subtype":"","month":"2019-05"},{"category":"anti-social-behaviour","location_type":"Force","location":{"latitude":"51.494817","street":{"id":953706,"name":"On or near Elephant Road"},"longitude":"-0.098088"},"context":"","outcome_status":null,"persistent_id":"","id":74272139,"location_subtype":"","month":"2019-05"},{"category":"anti-social-behaviour","location_type":"Force","location":{"latitude":"51.494817","street":{"id":953706,"name":"On or near Elephant Road"},"longitude":"-0.098088"},"context":"","outcome_status":null,"persistent_id":"","id":74272141,"location_subtype":"","month":"2019-05"},{"category":"anti-social-behaviour","location_type":"Force","location":{"latitude":"51.512505","street":{"id":956183,"name":"On or near Floral Street"},"longitude":"-0.124316"},"context":"","outcome_status":null,"persistent_id":"","id":74280439,"location_subtype":"","month":"2019-05"},{"category":"anti-social-behaviour","location_type":"Force","location":{"latitude":"51.497606","street":{"id":953711,"name":"On or near Conference\/exhibition Centre"},"longitude":"-0.097611"},"context":"","outcome_status":null,"persistent_id":"","id":74272149,"location_subtype":"","month":"2019-05"},{"category":"anti-social-behaviour","location_type":"Force","location":{"latitude":"51.503637","street":{"id":953483,"name":"On or near Sandell Street"},"longitude":"-0.110804"},"context":"","outcome_status":null,"persistent_id":"","id":74273642,"location_subtype":"","month":"2019-05"},{"category":"anti-social-behaviour","location_type":"Force","location":{"latitude":"51.505203","street":{"id":956126,"name":"On or near Southwark Street"},"longitude":"-0.097511"},"context":"","outcome_status":null,"persistent_id":"","id":74272147,"location_subtype":"","month":"2019-05"},{"category":"anti-social-behaviour","location_type":"Force","location":{"latitude":"51.503784","street":{"id":953715,"name":"On or near Union Street"},"longitude":"-0.098147"},"context":"","outcome_status":null,"persistent_id":"","id":74272148,"location_subtype":"","month":"2019-05"},{"category":"anti-social-behaviour","location_type":"Force","location":{"latitude":"51.493923","street":{"id":953777,"name":"On or near Elephant Road"},"longitude":"-0.098384"},"context":"","outcome_status":null,"persistent_id":"","id":74272150,"location_subtype":"","month":"2019-05"},{"category":"anti-social-behaviour","location_type":"Force","location":{"latitude":"51.493923","street":{"id":953777,"name":"On or near Elephant Road"},"longitude":"-0.098384"},"context":"","outcome_status":null,"persistent_id":"","id":74272161,"location_subtype":"","month":"2019-05"},{"category":"anti-social-behaviour","location_type":"Force","location":{"latitude":"51.498281","street":{"id":953690,"name":"On or near Parking Area"},"longitude":"-0.098750"},"context":"","outcome_status":null,"persistent_id":"","id":74272162,"location_subtype":"","month":"2019-05"},{"category":"anti-social-behaviour","location_type":"Force","location":{"latitude":"51.498281","street":{"id":953690,"name":"On or near Parking Area"},"longitude":"-0.098750"},"context":"","outcome_status":null,"persistent_id":"","id":74272163,"location_subtype":"","month":"2019-05"},{"category":"anti-social-behaviour","location_type":"Force","location":{"latitude":"51.495812","street":{"id":953696,"name":"On or near Rockingham Street"},"longitude":"-0.097312"},"context":"","outcome_status":null,"persistent_id":"","id":74272115,"location_subtype":"","month":"2019-05"},{"category":"anti-social-behaviour","location_type":"Force","location":{"latitude":"51.508577","street":{"id":956212,"name":"On or near Nightclub"},"longitude":"-0.124419"},"context":"","outcome_status":null,"persistent_id":"","id":74280438,"location_subtype":"","month":"2019-05"},{"category":"anti-social-behaviour","location_type":"Force","location":{"latitude":"51.512505","street":{"id":956183,"name":"On or near Floral Street"},"longitude":"-0.124316"},"context":"","outcome_status":null,"persistent_id":"","id":74280436,"location_subtype":"","month":"2019-05"},{"category":"anti-social-behaviour","location_type":"Force","location":{"latitude":"51.504401","street":{"id":953752,"name":"On or near America Street"},"longitude":"-0.096277"},"context":"","outcome_status":null,"persistent_id":"","id":74272118,"location_subtype":"","month":"2019-05"},{"category":"anti-social-behaviour","location_type":"Force","location":{"latitude":"51.512505","street":{"id":956183,"name":"On or near Floral Street"},"longitude":"-0.124316"},"context":"","outcome_status":null,"persistent_id":"","id":74280435,"location_subtype":"","month":"2019-05"},{"category":"anti-social-behaviour","location_type":"Force","location":{"latitude":"51.507734","street":{"id":956293,"name":"On or near Pedestrian Subway"},"longitude":"-0.124526"},"context":"","outcome_status":null,"persistent_id":"","id":74280434,"location_subtype":"","month":"2019-05"},{"category":"anti-social-behaviour","location_type":"Force","location":{"latitude":"51.500969","street":{"id":953533,"name":"On or near Bridge Street"},"longitude":"-0.124933"},"context":"","outcome_status":null,"persistent_id":"","id":74280433,"location_subtype":"","month":"2019-05"},{"category":"anti-social-behaviour","location_type":"Force","location":{"latitude":"51.500769","street":{"id":953527,"name":"On or near Pedestrian Subway"},"longitude":"-0.119222"},"context":"","outcome_status":null,"persistent_id":"","id":74274425,"location_subtype":"","month":"2019-05"},{"category":"anti-social-behaviour","location_type":"Force","location":{"latitude":"51.500969","street":{"id":953533,"name":"On or near Bridge Street"},"longitude":"-0.124933"},"context":"","outcome_status":null,"persistent_id":"","id":74280432,"location_subtype":"","month":"2019-05"},{"category":"anti-social-behaviour","location_type":"Force","location":{"latitude":"51.496767","street":{"id":953596,"name":"On or near Bath Terrace"},"longitude":"-0.096321"},"context":"","outcome_status":null,"persistent_id":"","id":74272119,"location_subtype":"","month":"2019-05"},{"category":"anti-social-behaviour","location_type":"Force","location":{"latitude":"51.503194","street":{"id":953465,"name":"On or near York Road"},"longitude":"-0.115635"},"context":"","outcome_status":null,"persistent_id":"","id":74274293,"location_subtype":"","month":"2019-05"},{"category":"anti-social-behaviour","location_type":"Force","location":{"latitude":"51.500769","street":{"id":953527,"name":"On or near Pedestrian Subway"},"longitude":"-0.119222"},"context":"","outcome_status":null,"persistent_id":"","id":74274424,"location_subtype":"","month":"2019-05"},{"category":"anti-social-behaviour","location_type":"Force","location":{"latitude":"51.500769","street":{"id":953527,"name":"On or near Pedestrian Subway"},"longitude":"-0.119222"},"context":"","outcome_status":null,"persistent_id":"","id":74274423,"location_subtype":"","month":"2019-05"},{"category":"anti-social-behaviour","location_type":"Force","location":{"latitude":"51.493106","street":{"id":953547,"name":"On or near Lambeth High Street"},"longitude":"-0.120257"},"context":"","outcome_status":null,"persistent_id":"","id":74274435,"location_subtype":"","month":"2019-05"},{"category":"anti-social-behaviour","location_type":"Force","location":{"latitude":"51.501776","street":{"id":953716,"name":"On or near Trundle Street"},"longitude":"-0.096876"},"context":"","outcome_status":null,"persistent_id":"","id":74272121,"location_subtype":"","month":"2019-05"},{"category":"anti-social-behaviour","location_type":"Force","location":{"latitude":"51.500969","street":{"id":953533,"name":"On or near Bridge Street"},"longitude":"-0.124933"},"context":"","outcome_status":null,"persistent_id":"","id":74280431,"location_subtype":"","month":"2019-05"},{"category":"anti-social-behaviour","location_type":"Force","location":{"latitude":"51.500969","street":{"id":953533,"name":"On or near Bridge Street"},"longitude":"-0.124933"},"context":"","outcome_status":null,"persistent_id":"","id":74280430,"location_subtype":"","month":"2019-05"},{"category":"anti-social-behaviour","location_type":"Force","location":{"latitude":"51.497475","street":{"id":953699,"name":"On or near Newington Causeway"},"longitude":"-0.098957"},"context":"","outcome_status":null,"persistent_id":"","id":74272168,"location_subtype":"","month":"2019-05"},{"category":"anti-social-behaviour","location_type":"Force","location":{"latitude":"51.493819","street":{"id":953785,"name":"On or near Supermarket"},"longitude":"-0.099728"},"context":"","outcome_status":null,"persistent_id":"","id":74272174,"location_subtype":"","month":"2019-05"},{"category":"anti-social-behaviour","location_type":"Force","location":{"latitude":"51.501816","street":{"id":953753,"name":"On or near Sports\/recreation Area"},"longitude":"-0.099943"},"context":"","outcome_status":null,"persistent_id":"","id":74272185,"location_subtype":"","month":"2019-05"},{"category":"anti-social-behaviour","location_type":"Force","location":{"latitude":"51.507473","street":{"id":956299,"name":"On or near Northumberland Street"},"longitude":"-0.125675"},"context":"","outcome_status":null,"persistent_id":"","id":74280477,"location_subtype":"","month":"2019-05"},{"category":"anti-social-behaviour","location_type":"Force","location":{"latitude":"51.507473","street":{"id":956299,"name":"On or near Northumberland Street"},"longitude":"-0.125675"},"context":"","outcome_status":null,"persistent_id":"","id":74280478,"location_subtype":"","month":"2019-05"},{"category":"anti-social-behaviour","location_type":"Force","location":{"latitude":"51.507473","street":{"id":956299,"name":"On or near Northumberland Street"},"longitude":"-0.125675"},"context":"","outcome_status":null,"persistent_id":"","id":74280480,"location_subtype":"","month":"2019-05"},{"category":"anti-social-behaviour","location_type":"Force","location":{"latitude":"51.511114","street":{"id":956482,"name":"On or near New Row"},"longitude":"-0.126160"},"context":"","outcome_status":null,"persistent_id":"","id":74280481,"location_subtype":"","month":"2019-05"},{"category":"anti-social-behaviour","location_type":"Force","location":{"latitude":"51.511555","street":{"id":956512,"name":"On or near Garrick Street"},"longitude":"-0.126199"},"context":"","outcome_status":null,"persistent_id":"","id":74280482,"location_subtype":"","month":"2019-05"},{"category":"anti-social-behaviour","location_type":"Force","location":{"latitude":"51.511555","street":{"id":956512,"name":"On or near Garrick Street"},"longitude":"-0.126199"},"context":"","outcome_status":null,"persistent_id":"","id":74280484,"location_subtype":"","month":"2019-05"},{"category":"anti-social-behaviour","location_type":"Force","location":{"latitude":"51.511555","street":{"id":956512,"name":"On or near Garrick Street"},"longitude":"-0.126199"},"context":"","outcome_status":null,"persistent_id":"","id":74280483,"location_subtype":"","month":"2019-05"},{"category":"anti-social-behaviour","location_type":"Force","location":{"latitude":"51.514639","street":{"id":956146,"name":"On or near Wild Street"},"longitude":"-0.120567"},"context":"","outcome_status":null,"persistent_id":"","id":74280381,"location_subtype":"","month":"2019-05"},{"category":"anti-social-behaviour","location_type":"Force","location":{"latitude":"51.511748","street":{"id":956551,"name":"On or near Theatre\/concert Hall"},"longitude":"-0.125874"},"context":"","outcome_status":null,"persistent_id":"","id":74280485,"location_subtype":"","month":"2019-05"},{"category":"anti-social-behaviour","location_type":"Force","location":{"latitude":"51.511748","street":{"id":956551,"name":"On or near Theatre\/concert Hall"},"longitude":"-0.125874"},"context":"","outcome_status":null,"persistent_id":"","id":74280486,"location_subtype":"","month":"2019-05"},{"category":"anti-social-behaviour","location_type":"Force","location":{"latitude":"51.500844","street":{"id":953528,"name":"On or near Westminster Bridge Road"},"longitude":"-0.122777"},"context":"","outcome_status":null,"persistent_id":"","id":74280398,"location_subtype":"","month":"2019-05"},{"category":"anti-social-behaviour","location_type":"Force","location":{"latitude":"51.500844","street":{"id":953528,"name":"On or near Westminster Bridge Road"},"longitude":"-0.122777"},"context":"","outcome_status":null,"persistent_id":"","id":74280404,"location_subtype":"","month":"2019-05"},{"category":"anti-social-behaviour","location_type":"Force","location":{"latitude":"51.507980","street":{"id":956296,"name":"On or near Villiers Street"},"longitude":"-0.123651"},"context":"","outcome_status":null,"persistent_id":"","id":74280414,"location_subtype":"","month":"2019-05"},{"category":"anti-social-behaviour","location_type":"Force","location":{"latitude":"51.505576","street":{"id":956295,"name":"On or near Whitehall Court"},"longitude":"-0.124571"},"context":"","outcome_status":null,"persistent_id":"","id":74280429,"location_subtype":"","month":"2019-05"},{"category":"anti-social-behaviour","location_type":"Force","location":{"latitude":"51.508577","street":{"id":956212,"name":"On or near Nightclub"},"longitude":"-0.124419"},"context":"","outcome_status":null,"persistent_id":"","id":74280443,"location_subtype":"","month":"2019-05"},{"category":"anti-social-behaviour","location_type":"Force","location":{"latitude":"51.511914","street":{"id":956211,"name":"On or near Theatre\/concert Hall"},"longitude":"-0.119425"},"context":"","outcome_status":null,"persistent_id":"","id":74280361,"location_subtype":"","month":"2019-05"},{"category":"anti-social-behaviour","location_type":"Force","location":{"latitude":"51.508577","street":{"id":956212,"name":"On or near Nightclub"},"longitude":"-0.124419"},"context":"","outcome_status":null,"persistent_id":"","id":74280445,"location_subtype":"","month":"2019-05"},{"category":"anti-social-behaviour","location_type":"Force","location":{"latitude":"51.510761","street":{"id":956157,"name":"On or near Savoy Row"},"longitude":"-0.119833"},"context":"","outcome_status":null,"persistent_id":"","id":74280368,"location_subtype":"","month":"2019-05"},{"category":"anti-social-behaviour","location_type":"Force","location":{"latitude":"51.512998","street":{"id":956208,"name":"On or near Theatre\/concert Hall"},"longitude":"-0.120260"},"context":"","outcome_status":null,"persistent_id":"","id":74280370,"location_subtype":"","month":"2019-05"},{"category":"anti-social-behaviour","location_type":"Force","location":{"latitude":"51.510893","street":{"id":956150,"name":"On or near Strand"},"longitude":"-0.120231"},"context":"","outcome_status":null,"persistent_id":"","id":74280374,"location_subtype":"","month":"2019-05"},{"category":"anti-social-behaviour","location_type":"Force","location":{"latitude":"51.510893","street":{"id":956150,"name":"On or near Strand"},"longitude":"-0.120231"},"context":"","outcome_status":null,"persistent_id":"","id":74280375,"location_subtype":"","month":"2019-05"},{"category":"anti-social-behaviour","location_type":"Force","location":{"latitude":"51.506151","street":{"id":956298,"name":"On or near Scotland Place"},"longitude":"-0.125657"},"context":"","outcome_status":null,"persistent_id":"","id":74280452,"location_subtype":"","month":"2019-05"},{"category":"anti-social-behaviour","location_type":"Force","location":{"latitude":"51.507473","street":{"id":956299,"name":"On or near Northumberland Street"},"longitude":"-0.125675"},"context":"","outcome_status":null,"persistent_id":"","id":74280453,"location_subtype":"","month":"2019-05"},{"category":"anti-social-behaviour","location_type":"Force","location":{"latitude":"51.514639","street":{"id":956146,"name":"On or near Wild Street"},"longitude":"-0.120567"},"context":"","outcome_status":null,"persistent_id":"","id":74280378,"location_subtype":"","month":"2019-05"},{"category":"anti-social-behaviour","location_type":"Force","location":{"latitude":"51.514639","street":{"id":956146,"name":"On or near Wild Street"},"longitude":"-0.120567"},"context":"","outcome_status":null,"persistent_id":"","id":74280379,"location_subtype":"","month":"2019-05"},{"category":"anti-social-behaviour","location_type":"Force","location":{"latitude":"51.514639","street":{"id":956146,"name":"On or near Wild Street"},"longitude":"-0.120567"},"context":"","outcome_status":null,"persistent_id":"","id":74280380,"location_subtype":"","month":"2019-05"},{"category":"anti-social-behaviour","location_type":"Force","location":{"latitude":"51.511018","street":{"id":956225,"name":"On or near Supermarket"},"longitude":"-0.125227"},"context":"","outcome_status":null,"persistent_id":"","id":74280455,"location_subtype":"","month":"2019-05"},{"category":"anti-social-behaviour","location_type":"Force","location":{"latitude":"51.510715","street":{"id":956500,"name":"On or near Hop Gardens"},"longitude":"-0.125960"},"context":"","outcome_status":null,"persistent_id":"","id":74280456,"location_subtype":"","month":"2019-05"},{"category":"anti-social-behaviour","location_type":"Force","location":{"latitude":"51.511631","street":{"id":956465,"name":"On or near Rose Street"},"longitude":"-0.125865"},"context":"","outcome_status":null,"persistent_id":"","id":74280457,"location_subtype":"","month":"2019-05"},{"category":"anti-social-behaviour","location_type":"Force","location":{"latitude":"51.511631","street":{"id":956465,"name":"On or near Rose Street"},"longitude":"-0.125865"},"context":"","outcome_status":null,"persistent_id":"","id":74280458,"location_subtype":"","month":"2019-05"},{"category":"anti-social-behaviour","location_type":"Force","location":{"latitude":"51.503196","street":{"id":953311,"name":"On or near Downing Street"},"longitude":"-0.127032"},"context":"","outcome_status":null,"persistent_id":"","id":74280460,"location_subtype":"","month":"2019-05"},{"category":"anti-social-behaviour","location_type":"Force","location":{"latitude":"51.503196","street":{"id":953311,"name":"On or near Downing Street"},"longitude":"-0.127032"},"context":"","outcome_status":null,"persistent_id":"","id":74280462,"location_subtype":"","month":"2019-05"},{"category":"anti-social-behaviour","location_type":"Force","location":{"latitude":"51.509312","street":{"id":956203,"name":"On or near Adelaide Street"},"longitude":"-0.125931"},