[{"category":"anti-social-behaviour","location_type":"Force","location":{"latitude":"51.369805","street":{"id":926786,"name":"On or near Vellum Drive"},"longitude":"-0.159117"},"context":"","outcome_status":null,"persistent_id":"","id":74269169,"location_subtype":"","month":"2019-05"},{"category":"anti-social-behaviour","location_type":"Force","location":{"latitude":"51.369805","street":{"id":926786,"name":"On or near Vellum Drive"},"longitude":"-0.159117"},"context":"","outcome_status":null,"persistent_id":"","id":74269171,"location_subtype":"","month":"2019-05"},{"category":"anti-social-behaviour","location_type":"Force","location":{"latitude":"51.370768","street":{"id":926820,"name":"On or near Butter Hill"},"longitude":"-0.159768"},"context":"","outcome_status":null,"persistent_id":"","id":74269172,"location_subtype":"","month":"2019-05"},{"category":"anti-social-behaviour","location_type":"Force","location":{"latitude":"51.369000","street":{"id":926798,"name":"On or near Papermill Close"},"longitude":"-0.160543"},"context":"","outcome_status":null,"persistent_id":"","id":74269173,"location_subtype":"","month":"2019-05"},{"category":"anti-social-behaviour","location_type":"Force","location":{"latitude":"51.365423","street":{"id":926904,"name":"On or near Parking Area"},"longitude":"-0.161246"},"context":"","outcome_status":null,"persistent_id":"","id":74269176,"location_subtype":"","month":"2019-05"},{"category":"anti-social-behaviour","location_type":"Force","location":{"latitude":"51.365310","street":{"id":926911,"name":"On or near High Street"},"longitude":"-0.160935"},"context":"","outcome_status":null,"persistent_id":"","id":74269177,"location_subtype":"","month":"2019-05"},{"category":"anti-social-behaviour","location_type":"Force","location":{"latitude":"51.360470","street":{"id":926903,"name":"On or near Ashcombe Road"},"longitude":"-0.160252"},"context":"","outcome_status":null,"persistent_id":"","id":74269178,"location_subtype":"","month":"2019-05"},{"category":"anti-social-behaviour","location_type":"Force","location":{"latitude":"51.370504","street":{"id":926942,"name":"On or near Gisbourne Close"},"longitude":"-0.136259"},"context":"","outcome_status":null,"persistent_id":"","id":74269093,"location_subtype":"","month":"2019-05"},{"category":"anti-social-behaviour","location_type":"Force","location":{"latitude":"51.365015","street":{"id":926907,"name":"On or near Park Lane"},"longitude":"-0.157053"},"context":"","outcome_status":null,"persistent_id":"","id":74269163,"location_subtype":"","month":"2019-05"},{"category":"anti-social-behaviour","location_type":"Force","location":{"latitude":"51.366083","street":{"id":926809,"name":"On or near High Street"},"longitude":"-0.158605"},"context":"","outcome_status":null,"persistent_id":"","id":74269166,"location_subtype":"","month":"2019-05"},{"category":"anti-social-behaviour","location_type":"Force","location":{"latitude":"51.369805","street":{"id":926786,"name":"On or near Vellum Drive"},"longitude":"-0.159117"},"context":"","outcome_status":null,"persistent_id":"","id":74269170,"location_subtype":"","month":"2019-05"},{"category":"anti-social-behaviour","location_type":"Force","location":{"latitude":"51.368534","street":{"id":926795,"name":"On or near Quinton Close"},"longitude":"-0.153220"},"context":"","outcome_status":null,"persistent_id":"","id":74269153,"location_subtype":"","month":"2019-05"},{"category":"anti-social-behaviour","location_type":"Force","location":{"latitude":"51.358155","street":{"id":925825,"name":"On or near Hill Road"},"longitude":"-0.171462"},"context":"","outcome_status":null,"persistent_id":"","id":74269220,"location_subtype":"","month":"2019-05"},{"category":"anti-social-behaviour","location_type":"Force","location":{"latitude":"51.363560","street":{"id":926872,"name":"On or near Rosefield Close"},"longitude":"-0.172109"},"context":"","outcome_status":null,"persistent_id":"","id":74269216,"location_subtype":"","month":"2019-05"},{"category":"anti-social-behaviour","location_type":"Force","location":{"latitude":"51.369356","street":{"id":926835,"name":"On or near West Street"},"longitude":"-0.167755"},"context":"","outcome_status":null,"persistent_id":"","id":74269213,"location_subtype":"","month":"2019-05"},{"category":"anti-social-behaviour","location_type":"Force","location":{"latitude":"51.361936","street":{"id":926868,"name":"On or near Walnut Close"},"longitude":"-0.168884"},"context":"","outcome_status":null,"persistent_id":"","id":74269209,"location_subtype":"","month":"2019-05"},{"category":"anti-social-behaviour","location_type":"Force","location":{"latitude":"51.364171","street":{"id":926873,"name":"On or near Pound Street"},"longitude":"-0.166310"},"context":"","outcome_status":null,"persistent_id":"","id":74269205,"location_subtype":"","month":"2019-05"},{"category":"anti-social-behaviour","location_type":"Force","location":{"latitude":"51.368387","street":{"id":926839,"name":"On or near Station Approach"},"longitude":"-0.166213"},"context":"","outcome_status":null,"persistent_id":"","id":74269204,"location_subtype":"","month":"2019-05"},{"category":"anti-social-behaviour","location_type":"Force","location":{"latitude":"51.368387","street":{"id":926839,"name":"On or near Station Approach"},"longitude":"-0.166213"},"context":"","outcome_status":null,"persistent_id":"","id":74269203,"location_subtype":"","month":"2019-05"},{"category":"anti-social-behaviour","location_type":"Force","location":{"latitude":"51.363579","street":{"id":926996,"name":"On or near Hospital"},"longitude":"-0.150403"},"context":"","outcome_status":null,"persistent_id":"","id":74269138,"location_subtype":"","month":"2019-05"},{"category":"anti-social-behaviour","location_type":"Force","location":{"latitude":"51.368387","street":{"id":926839,"name":"On or near Station Approach"},"longitude":"-0.166213"},"context":"","outcome_status":null,"persistent_id":"","id":74269202,"location_subtype":"","month":"2019-05"},{"category":"anti-social-behaviour","location_type":"Force","location":{"latitude":"51.351512","street":{"id":925906,"name":"On or near Courtney Crescent"},"longitude":"-0.167031"},"context":"","outcome_status":null,"persistent_id":"","id":74269196,"location_subtype":"","month":"2019-05"},{"category":"anti-social-behaviour","location_type":"Force","location":{"latitude":"51.356032","street":{"id":925656,"name":"On or near Douglas Close"},"longitude":"-0.129306"},"context":"","outcome_status":null,"persistent_id":"","id":74269078,"location_subtype":"","month":"2019-05"},{"category":"anti-social-behaviour","location_type":"Force","location":{"latitude":"51.360431","street":{"id":925820,"name":"On or near Salisbury Road"},"longitude":"-0.165755"},"context":"","outcome_status":null,"persistent_id":"","id":74269194,"location_subtype":"","month":"2019-05"},{"category":"anti-social-behaviour","location_type":"Force","location":{"latitude":"51.368178","street":{"id":926792,"name":"On or near Rochester Road"},"longitude":"-0.163765"},"context":"","outcome_status":null,"persistent_id":"","id":74269190,"location_subtype":"","month":"2019-05"},{"category":"anti-social-behaviour","location_type":"Force","location":{"latitude":"51.368178","street":{"id":926792,"name":"On or near Rochester Road"},"longitude":"-0.163765"},"context":"","outcome_status":null,"persistent_id":"","id":74269189,"location_subtype":"","month":"2019-05"},{"category":"anti-social-behaviour","location_type":"Force","location":{"latitude":"51.368178","street":{"id":926792,"name":"On or near Rochester Road"},"longitude":"-0.163765"},"context":"","outcome_status":null,"persistent_id":"","id":74269188,"location_subtype":"","month":"2019-05"},{"category":"anti-social-behaviour","location_type":"Force","location":{"latitude":"51.355111","street":{"id":925853,"name":"On or near Park View Close"},"longitude":"-0.162593"},"context":"","outcome_status":null,"persistent_id":"","id":74269186,"location_subtype":"","month":"2019-05"},{"category":"anti-social-behaviour","location_type":"Force","location":{"latitude":"51.371565","street":{"id":926816,"name":"On or near Denmark Gardens"},"longitude":"-0.163012"},"context":"","outcome_status":null,"persistent_id":"","id":74269184,"location_subtype":"","month":"2019-05"},{"category":"anti-social-behaviour","location_type":"Force","location":{"latitude":"51.352242","street":{"id":925876,"name":"On or near Stanley Road"},"longitude":"-0.161961"},"context":"","outcome_status":null,"persistent_id":"","id":74269182,"location_subtype":"","month":"2019-05"},{"category":"anti-social-behaviour","location_type":"Force","location":{"latitude":"51.356373","street":{"id":925847,"name":"On or near Woodfield Avenue"},"longitude":"-0.162212"},"context":"","outcome_status":null,"persistent_id":"","id":74269181,"location_subtype":"","month":"2019-05"},{"category":"anti-social-behaviour","location_type":"Force","location":{"latitude":"51.356373","street":{"id":925847,"name":"On or near Woodfield Avenue"},"longitude":"-0.162212"},"context":"","outcome_status":null,"persistent_id":"","id":74269180,"location_subtype":"","month":"2019-05"},{"category":"anti-social-behaviour","location_type":"Force","location":{"latitude":"51.353718","street":{"id":925719,"name":"On or near Woodbourne Gardens"},"longitude":"-0.149507"},"context":"","outcome_status":null,"persistent_id":"","id":74269122,"location_subtype":"","month":"2019-05"},{"category":"anti-social-behaviour","location_type":"Force","location":{"latitude":"51.368651","street":{"id":926797,"name":"On or near Papermill Close"},"longitude":"-0.160126"},"context":"","outcome_status":null,"persistent_id":"","id":74269179,"location_subtype":"","month":"2019-05"},{"category":"anti-social-behaviour","location_type":"Force","location":{"latitude":"51.356032","street":{"id":925656,"name":"On or near Douglas Close"},"longitude":"-0.129306"},"context":"","outcome_status":null,"persistent_id":"","id":74269079,"location_subtype":"","month":"2019-05"},{"category":"anti-social-behaviour","location_type":"Force","location":{"latitude":"51.356032","street":{"id":925656,"name":"On or near Douglas Close"},"longitude":"-0.129306"},"context":"","outcome_status":null,"persistent_id":"","id":74269080,"location_subtype":"","month":"2019-05"},{"category":"anti-social-behaviour","location_type":"Force","location":{"latitude":"51.355534","street":{"id":925645,"name":"On or near Mcintosh Close"},"longitude":"-0.130763"},"context":"","outcome_status":null,"persistent_id":"","id":74269081,"location_subtype":"","month":"2019-05"},{"category":"anti-social-behaviour","location_type":"Force","location":{"latitude":"51.355534","street":{"id":925645,"name":"On or near Mcintosh Close"},"longitude":"-0.130763"},"context":"","outcome_status":null,"persistent_id":"","id":74269082,"location_subtype":"","month":"2019-05"},{"category":"anti-social-behaviour","location_type":"Force","location":{"latitude":"51.355534","street":{"id":925645,"name":"On or near Mcintosh Close"},"longitude":"-0.130763"},"context":"","outcome_status":null,"persistent_id":"","id":74269083,"location_subtype":"","month":"2019-05"},{"category":"anti-social-behaviour","location_type":"Force","location":{"latitude":"51.355534","street":{"id":925645,"name":"On or near Mcintosh Close"},"longitude":"-0.130763"},"context":"","outcome_status":null,"persistent_id":"","id":74269084,"location_subtype":"","month":"2019-05"},{"category":"anti-social-behaviour","location_type":"Force","location":{"latitude":"51.360496","street":{"id":927112,"name":"On or near Haslemere Close"},"longitude":"-0.130072"},"context":"","outcome_status":null,"persistent_id":"","id":74269085,"location_subtype":"","month":"2019-05"},{"category":"anti-social-behaviour","location_type":"Force","location":{"latitude":"51.364660","street":{"id":927027,"name":"On or near Plough Lane Close"},"longitude":"-0.132905"},"context":"","outcome_status":null,"persistent_id":"","id":74269088,"location_subtype":"","month":"2019-05"},{"category":"anti-social-behaviour","location_type":"Force","location":{"latitude":"51.354230","street":{"id":925753,"name":"On or near Mosquito Close"},"longitude":"-0.134134"},"context":"","outcome_status":null,"persistent_id":"","id":74269089,"location_subtype":"","month":"2019-05"},{"category":"anti-social-behaviour","location_type":"Force","location":{"latitude":"51.357417","street":{"id":925750,"name":"On or near Redford Avenue"},"longitude":"-0.133832"},"context":"","outcome_status":null,"persistent_id":"","id":74269090,"location_subtype":"","month":"2019-05"},{"category":"anti-social-behaviour","location_type":"Force","location":{"latitude":"51.353428","street":{"id":925779,"name":"On or near Supermarket"},"longitude":"-0.134066"},"context":"","outcome_status":null,"persistent_id":"","id":74269091,"location_subtype":"","month":"2019-05"},{"category":"anti-social-behaviour","location_type":"Force","location":{"latitude":"51.349826","street":{"id":925795,"name":"On or near Carleton Avenue"},"longitude":"-0.138247"},"context":"","outcome_status":null,"persistent_id":"","id":74269092,"location_subtype":"","month":"2019-05"},{"category":"anti-social-behaviour","location_type":"Force","location":{"latitude":"51.366726","street":{"id":926928,"name":"On or near Raleigh Avenue"},"longitude":"-0.138999"},"context":"","outcome_status":null,"persistent_id":"","id":74269094,"location_subtype":"","month":"2019-05"},{"category":"anti-social-behaviour","location_type":"Force","location":{"latitude":"51.359132","street":{"id":925771,"name":"On or near Chalice Close"},"longitude":"-0.139306"},"context":"","outcome_status":null,"persistent_id":"","id":74269095,"location_subtype":"","month":"2019-05"},{"category":"anti-social-behaviour","location_type":"Force","location":{"latitude":"51.367869","street":{"id":926943,"name":"On or near Ferrers Avenue"},"longitude":"-0.139053"},"context":"","outcome_status":null,"persistent_id":"","id":74269099,"location_subtype":"","month":"2019-05"},{"category":"anti-social-behaviour","location_type":"Force","location":{"latitude":"51.359558","street":{"id":925739,"name":"On or near Parking Area"},"longitude":"-0.141214"},"context":"","outcome_status":null,"persistent_id":"","id":74269100,"location_subtype":"","month":"2019-05"},{"category":"anti-social-behaviour","location_type":"Force","location":{"latitude":"51.361742","street":{"id":927016,"name":"On or near Tharp Road"},"longitude":"-0.139991"},"context":"","outcome_status":null,"persistent_id":"","id":74269101,"location_subtype":"","month":"2019-05"},{"category":"anti-social-behaviour","location_type":"Force","location":{"latitude":"51.357990","street":{"id":925733,"name":"On or near Charlotte Road"},"longitude":"-0.144423"},"context":"","outcome_status":null,"persistent_id":"","id":74269103,"location_subtype":"","month":"2019-05"},{"category":"anti-social-behaviour","location_type":"Force","location":{"latitude":"51.369606","street":{"id":926966,"name":"On or near Croydon Road"},"longitude":"-0.144212"},"context":"","outcome_status":null,"persistent_id":"","id":74269104,"location_subtype":"","month":"2019-05"},{"category":"anti-social-behaviour","location_type":"Force","location":{"latitude":"51.369606","street":{"id":926966,"name":"On or near Croydon Road"},"longitude":"-0.144212"},"context":"","outcome_status":null,"persistent_id":"","id":74269105,"location_subtype":"","month":"2019-05"},{"category":"anti-social-behaviour","location_type":"Force","location":{"latitude":"51.357990","street":{"id":925733,"name":"On or near Charlotte Road"},"longitude":"-0.144423"},"context":"","outcome_status":null,"persistent_id":"","id":74269106,"location_subtype":"","month":"2019-05"},{"category":"anti-social-behaviour","location_type":"Force","location":{"latitude":"51.359695","street":{"id":925731,"name":"On or near Clyde Road"},"longitude":"-0.144756"},"context":"","outcome_status":null,"persistent_id":"","id":74269107,"location_subtype":"","month":"2019-05"},{"category":"anti-social-behaviour","location_type":"Force","location":{"latitude":"51.359695","street":{"id":925731,"name":"On or near Clyde Road"},"longitude":"-0.144756"},"context":"","outcome_status":null,"persistent_id":"","id":74269108,"location_subtype":"","month":"2019-05"},{"category":"anti-social-behaviour","location_type":"Force","location":{"latitude":"51.352266","street":{"id":925806,"name":"On or near Marchmont Road"},"longitude":"-0.145257"},"context":"","outcome_status":null,"persistent_id":"","id":74269109,"location_subtype":"","month":"2019-05"},{"category":"anti-social-behaviour","location_type":"Force","location":{"latitude":"51.355815","street":{"id":925734,"name":"On or near Blenheim Gardens"},"longitude":"-0.145057"},"context":"","outcome_status":null,"persistent_id":"","id":74269110,"location_subtype":"","month":"2019-05"},{"category":"anti-social-behaviour","location_type":"Force","location":{"latitude":"51.359031","street":{"id":925729,"name":"On or near Elgin Road"},"longitude":"-0.146535"},"context":"","outcome_status":null,"persistent_id":"","id":74269111,"location_subtype":"","month":"2019-05"},{"category":"anti-social-behaviour","location_type":"Force","location":{"latitude":"51.361483","street":{"id":927005,"name":"On or near Melbourne Close"},"longitude":"-0.146350"},"context":"","outcome_status":null,"persistent_id":"","id":74269112,"location_subtype":"","month":"2019-05"},{"category":"anti-social-behaviour","location_type":"Force","location":{"latitude":"51.361483","street":{"id":927005,"name":"On or near Melbourne Close"},"longitude":"-0.146350"},"context":"","outcome_status":null,"persistent_id":"","id":74269113,"location_subtype":"","month":"2019-05"},{"category":"anti-social-behaviour","location_type":"Force","location":{"latitude":"51.355394","street":{"id":925730,"name":"On or near Cranley Gardens"},"longitude":"-0.146883"},"context":"","outcome_status":null,"persistent_id":"","id":74269114,"location_subtype":"","month":"2019-05"},{"category":"anti-social-behaviour","location_type":"Force","location":{"latitude":"51.353763","street":{"id":925717,"name":"On or near Woodcote Road"},"longitude":"-0.148371"},"context":"","outcome_status":null,"persistent_id":"","id":74269115,"location_subtype":"","month":"2019-05"},{"category":"anti-social-behaviour","location_type":"Force","location":{"latitude":"51.353763","street":{"id":925717,"name":"On or near Woodcote Road"},"longitude":"-0.148371"},"context":"","outcome_status":null,"persistent_id":"","id":74269116,"location_subtype":"","month":"2019-05"},{"category":"anti-social-behaviour","location_type":"Force","location":{"latitude":"51.356655","street":{"id":925715,"name":"On or near Parking Area"},"longitude":"-0.148139"},"context":"","outcome_status":null,"persistent_id":"","id":74269117,"location_subtype":"","month":"2019-05"},{"category":"anti-social-behaviour","location_type":"Force","location":{"latitude":"51.358384","street":{"id":925713,"name":"On or near Parking Area"},"longitude":"-0.148831"},"context":"","outcome_status":null,"persistent_id":"","id":74269118,"location_subtype":"","month":"2019-05"},{"category":"anti-social-behaviour","location_type":"Force","location":{"latitude":"51.361528","street":{"id":927004,"name":"On or near Melbourne Road"},"longitude":"-0.148029"},"context":"","outcome_status":null,"persistent_id":"","id":74269119,"location_subtype":"","month":"2019-05"},{"category":"anti-social-behaviour","location_type":"Force","location":{"latitude":"51.360219","street":{"id":925726,"name":"On or near Ross Parade"},"longitude":"-0.148886"},"context":"","outcome_status":null,"persistent_id":"","id":74269120,"location_subtype":"","month":"2019-05"},{"category":"anti-social-behaviour","location_type":"Force","location":{"latitude":"51.358622","street":{"id":925711,"name":"On or near Supermarket"},"longitude":"-0.150229"},"context":"","outcome_status":null,"persistent_id":"","id":74269121,"location_subtype":"","month":"2019-05"},{"category":"anti-social-behaviour","location_type":"Force","location":{"latitude":"51.357427","street":{"id":925712,"name":"On or near Hospital"},"longitude":"-0.150320"},"context":"","outcome_status":null,"persistent_id":"","id":74269123,"location_subtype":"","month":"2019-05"},{"category":"anti-social-behaviour","location_type":"Force","location":{"latitude":"51.357427","street":{"id":925712,"name":"On or near Hospital"},"longitude":"-0.150320"},"context":"","outcome_status":null,"persistent_id":"","id":74269124,"location_subtype":"","month":"2019-05"},{"category":"anti-social-behaviour","location_type":"Force","location":{"latitude":"51.357427","street":{"id":925712,"name":"On or near Hospital"},"longitude":"-0.150320"},"context":"","outcome_status":null,"persistent_id":"","id":74269125,"location_subtype":"","month":"2019-05"},{"category":"anti-social-behaviour","location_type":"Force","location":{"latitude":"51.360833","street":{"id":926989,"name":"On or near Railway Approach"},"longitude":"-0.150729"},"context":"","outcome_status":null,"persistent_id":"","id":74269126,"location_subtype":"","month":"2019-05"},{"category":"anti-social-behaviour","location_type":"Force","location":{"latitude":"51.361610","street":{"id":926986,"name":"On or near Parking Area"},"longitude":"-0.149836"},"context":"","outcome_status":null,"persistent_id":"","id":74269127,"location_subtype":"","month":"2019-05"},{"category":"anti-social-behaviour","location_type":"Force","location":{"latitude":"51.361610","street":{"id":926986,"name":"On or near Parking Area"},"longitude":"-0.149836"},"context":"","outcome_status":null,"persistent_id":"","id":74269128,"location_subtype":"","month":"2019-05"},{"category":"anti-social-behaviour","location_type":"Force","location":{"latitude":"51.357427","street":{"id":925712,"name":"On or near Hospital"},"longitude":"-0.150320"},"context":"","outcome_status":null,"persistent_id":"","id":74269129,"location_subtype":"","month":"2019-05"},{"category":"anti-social-behaviour","location_type":"Force","location":{"latitude":"51.357427","street":{"id":925712,"name":"On or near Hospital"},"longitude":"-0.150320"},"context":"","outcome_status":null,"persistent_id":"","id":74269130,"location_subtype":"","month":"2019-05"},{"category":"anti-social-behaviour","location_type":"Force","location":{"latitude":"51.357427","street":{"id":925712,"name":"On or near Hospital"},"longitude":"-0.150320"},"context":"","outcome_status":null,"persistent_id":"","id":74269131,"location_subtype":"","month":"2019-05"},{"category":"anti-social-behaviour","location_type":"Force","location":{"latitude":"51.357427","street":{"id":925712,"name":"On or near Hospital"},"longitude":"-0.150320"},"context":"","outcome_status":null,"persistent_id":"","id":74269132,"location_subtype":"","month":"2019-05"},{"category":"anti-social-behaviour","location_type":"Force","location":{"latitude":"51.363579","street":{"id":926996,"name":"On or near Hospital"},"longitude":"-0.150403"},"context":"","outcome_status":null,"persistent_id":"","id":74269133,"location_subtype":"","month":"2019-05"},{"category":"anti-social-behaviour","location_type":"Force","location":{"latitude":"51.363579","street":{"id":926996,"name":"On or near Hospital"},"longitude":"-0.150403"},"context":"","outcome_status":null,"persistent_id":"","id":74269134,"location_subtype":"","month":"2019-05"},{"category":"anti-social-behaviour","location_type":"Force","location":{"latitude":"51.363579","street":{"id":926996,"name":"On or near Hospital"},"longitude":"-0.150403"},"context":"","outcome_status":null,"persistent_id":"","id":74269135,"location_subtype":"","month":"2019-05"},{"category":"anti-social-behaviour","location_type":"Force","location":{"latitude":"51.363579","street":{"id":926996,"name":"On or near Hospital"},"longitude":"-0.150403"},"context":"","outcome_status":null,"persistent_id":"","id":74269136,"location_subtype":"","month":"2019-05"},{"category":"anti-social-behaviour","location_type":"Force","location":{"latitude":"51.363579","street":{"id":926996,"name":"On or near Hospital"},"longitude":"-0.150403"},"context":"","outcome_status":null,"persistent_id":"","id":74269137,"location_subtype":"","month":"2019-05"},{"category":"anti-social-behaviour","location_type":"Force","location":{"latitude":"51.363579","street":{"id":926996,"name":"On or near Hospital"},"longitude":"-0.150403"},"context":"","outcome_status":null,"persistent_id":"","id":74269139,"location_subtype":"","month":"2019-05"},{"category":"anti-social-behaviour","location_type":"Force","location":{"latitude":"51.363579","street":{"id":926996,"name":"On or near Hospital"},"longitude":"-0.150403"},"context":"","outcome_status":null,"persistent_id":"","id":74269140,"location_subtype":"","month":"2019-05"},{"category":"anti-social-behaviour","location_type":"Force","location":{"latitude":"51.360098","street":{"id":925703,"name":"On or near Parking Area"},"longitude":"-0.152037"},"context":"","outcome_status":null,"persistent_id":"","id":74269141,"location_subtype":"","month":"2019-05"},{"category":"anti-social-behaviour","location_type":"Force","location":{"latitude":"51.358254","street":{"id":925701,"name":"On or near Parking Area"},"longitude":"-0.150861"},"context":"","outcome_status":null,"persistent_id":"","id":74269142,"location_subtype":"","month":"2019-05"},{"category":"anti-social-behaviour","location_type":"Force","location":{"latitude":"51.358254","street":{"id":925701,"name":"On or near Parking Area"},"longitude":"-0.150861"},"context":"","outcome_status":null,"persistent_id":"","id":74269143,"location_subtype":"","month":"2019-05"},{"category":"anti-social-behaviour","location_type":"Force","location":{"latitude":"51.363965","street":{"id":926992,"name":"On or near Manor Road"},"longitude":"-0.151464"},"context":"","outcome_status":null,"persistent_id":"","id":74269144,"location_subtype":"","month":"2019-05"},{"category":"anti-social-behaviour","location_type":"Force","location":{"latitude":"51.363965","street":{"id":926992,"name":"On or near Manor Road"},"longitude":"-0.151464"},"context":"","outcome_status":null,"persistent_id":"","id":74269145,"location_subtype":"","month":"2019-05"},{"category":"anti-social-behaviour","location_type":"Force","location":{"latitude":"51.368938","street":{"id":926982,"name":"On or near Derek Avenue"},"longitude":"-0.152054"},"context":"","outcome_status":null,"persistent_id":"","id":74269146,"location_subtype":"","month":"2019-05"},{"category":"anti-social-behaviour","location_type":"Force","location":{"latitude":"51.368938","street":{"id":926982,"name":"On or near Derek Avenue"},"longitude":"-0.152054"},"context":"","outcome_status":null,"persistent_id":"","id":74269147,"location_subtype":"","month":"2019-05"},{"category":"anti-social-behaviour","location_type":"Force","location":{"latitude":"51.365744","street":{"id":926985,"name":"On or near Alcester Road"},"longitude":"-0.151407"},"context":"","outcome_status":null,"persistent_id":"","id":74269148,"location_subtype":"","month":"2019-05"},{"category":"anti-social-behaviour","location_type":"Force","location":{"latitude":"51.352759","street":{"id":925865,"name":"On or near Brambledown Road"},"longitude":"-0.153696"},"context":"","outcome_status":null,"persistent_id":"","id":74269149,"location_subtype":"","month":"2019-05"},{"category":"anti-social-behaviour","location_type":"Force","location":{"latitude":"51.358594","street":{"id":925908,"name":"On or near Beddington Gardens"},"longitude":"-0.154166"},"context":"","outcome_status":null,"persistent_id":"","id":74269150,"location_subtype":"","month":"2019-05"},{"category":"anti-social-behaviour","location_type":"Force","location":{"latitude":"51.370399","street":{"id":926793,"name":"On or near Riverside Close"},"longitude":"-0.153475"},"context":"","outcome_status":null,"persistent_id":"","id":74269152,"location_subtype":"","month":"2019-05"},{"category":"anti-social-behaviour","location_type":"Force","location":{"latitude":"51.368534","street":{"id":926795,"name":"On or near Quinton Close"},"longitude":"-0.153220"},"context":"","outcome_status":null,"persistent_id":"","id":74269154,"location_subtype":"","month":"2019-05"},{"category":"anti-social-behaviour","location_type":"Force","location":{"latitude":"51.374403","street":{"id":929091,"name":"On or near Elmwood Close"},"longitude":"-0.153602"},"context":"","outcome_status":null,"persistent_id":"","id":74269156,"location_subtype":"","month":"2019-05"},{"category":"anti-social-behaviour","location_type":"Force","location":{"latitude":"51.367877","street":{"id":926803,"name":"On or near Manor Road North"},"longitude":"-0.154324"},"context":"","outcome_status":null,"persistent_id":"","id":74269157,"location_subtype":"","month":"2019-05"},{"category":"anti-social-behaviour","location_type":"Force","location":{"latitude":"51.371304","street":{"id":926817,"name":"On or near Curran Avenue"},"longitude":"-0.156111"},"context":"","outcome_status":null,"persistent_id":"","id":74269159,"location_subtype":"","month":"2019-05"},{"category":"anti-social-behaviour","location_type":"Force","location":{"latitude":"51.371304","street":{"id":926817,"name":"On or near Curran Avenue"},"longitude":"-0.156111"},"context":"","outcome_status":null,"persistent_id":"","id":74269160,"location_subtype":"","month":"2019-05"},{"category":"anti-social-behaviour","location_type":"Force","location":{"latitude":"51.371304","street":{"id":926817,"name":"On or near Curran Avenue"},"longitude":"-0.156111"},"context":"","outcome_status":null,"persistent_id":"","id":74269161,"location_subtype":"","month":"2019-05"},{"category":"anti-social-behaviour","location_type":"Force","location":{"latitude":"51.361430","street":{"id":926899,"name":"On or near Park Lane"},"longitude":"-0.156120"},"context":"","outcome_status":null,"persistent_id":"","id":74269162,"location_subtype":"","month":"2019-05"},{"category":"bicycle-theft","location_type":"Force","location":{"latitude":"51.359102","street":{"id":925840,"name":"On or near Banstead Road"},"longitude":"-0.172243"},"context":"","outcome_status":{"category":"Status update unavailable","date":"2019-09"},"persistent_id":"1d3011140348cc917b7e3938d081c7887231d7cd35c83a2ab01c85c1d20b6bd4","id":74296504,"location_subtype":"","month":"2019-05"},{"category":"bicycle-theft","location_type":"BTP","location":{"latitude":"51.360363","street":{"id":1490015,"name":"Wallington (station)"},"longitude":"-0.150618"},"context":"","outcome_status":{"category":"Status update unavailable","date":"2019-09"},"persistent_id":"","id":88717412,"location_subtype":"STATION","month":"2019-05"},{"category":"bicycle-theft","location_type":"Force","location":{"latitude":"51.365601","street":{"id":927092,"name":"On or near Bristow Road"},"longitude":"-0.130439"},"context":"","outcome_status":{"category":"Investigation complete; no suspect identified","date":"2020-04"},"persistent_id":"1a485e55bb9d470e1bbede84ee9c3f43bdec767df143ed1c94bd97882bbd2d5e","id":74305528,"location_subtype":"","month":"2019-05"},{"category":"burglary","location_type":"Force","location":{"latitude":"51.365171","street":{"id":927010,"name":"On or near Montagu Gardens"},"longitude":"-0.144118"},"context":"","outcome_status":{"category":"Status update unavailable","date":"2019-09"},"persistent_id":"d3610a67acbde428d0e344802685bf49b19dd90357a66df1f0e452427184f855","id":74307345,"location_subtype":"","month":"2019-05"},{"category":"burglary","location_type":"Force","location":{"latitude":"51.364204","street":{"id":927003,"name":"On or near Morton Gardens"},"longitude":"-0.143870"},"context":"","outcome_status":{"category":"Status update unavailable","date":"2019-09"},"persistent_id":"5f27657b14fe42f26e393a324b0be2ee46c779e3b000d0fdcc33b99a76e38acc","id":74310813,"location_subtype":"","month":"2019-05"},{"category":"burglary","location_type":"Force","location":{"latitude":"51.365760","street":{"id":926968,"name":"On or near Bute Road"},"longitude":"-0.146709"},"context":"","outcome_status":{"category":"Status update unavailable","date":"2019-09"},"persistent_id":"84c5937edf7bd82c8e10ca9ec87439541a8097b5adf3832e8ac0aa9243ef525b","id":74325425,"location_subtype":"","month":"2019-05"},{"category":"burglary","location_type":"Force","location":{"latitude":"51.357737","street":{"id":925754,"name":"On or near Milton Road"},"longitude":"-0.141489"},"context":"","outcome_status":{"category":"Status update unavailable","date":"2019-09"},"persistent_id":"0f949d205b43774a914903f01ed5ef7440092d738c358f274a9028d623d6ae15","id":74300599,"location_subtype":"","month":"2019-05"},{"category":"burglary","location_type":"Force","location":{"latitude":"51.354252","street":{"id":925819,"name":"On or near Stanley Park Road"},"longitude":"-0.165126"},"context":"","outcome_status":{"category":"Status update unavailable","date":"2019-09"},"persistent_id":"5a4389ebda734bb31abb9a9915d197ec6d9643bc4060a74b9cda6d9241ad5fb2","id":74306056,"location_subtype":"","month":"2019-05"},{"category":"burglary","location_type":"Force","location":{"latitude":"51.370504","street":{"id":926942,"name":"On or near Gisbourne Close"},"longitude":"-0.136259"},"context":"","outcome_status":{"category":"Status update unavailable","date":"2019-09"},"persistent_id":"1bd7f28e259bf60c79bf7a1b123a307c1f4c52158493e8f41630042ffc32ebdb","id":74361265,"location_subtype":"","month":"2019-05"},{"category":"burglary","location_type":"Force","location":{"latitude":"51.353967","street":{"id":925864,"name":"On or near Dalmeny Road"},"longitude":"-0.158459"},"context":"","outcome_status":{"category":"Status update unavailable","date":"2019-09"},"persistent_id":"3706c97f7c774ff0f320863a714daf556fccf0d4d3c7fb325b56ba18df51fcd6","id":74290855,"location_subtype":"","month":"2019-05"},{"category":"burglary","location_type":"Force","location":{"latitude":"51.348468","street":{"id":925803,"name":"On or near Woodcote Green"},"longitude":"-0.146746"},"context":"","outcome_status":{"category":"Status update unavailable","date":"2019-09"},"persistent_id":"a391622f71c74a20685e1c309ea28a5f484b2561c00c4131bf2b4de162f4553e","id":74350200,"location_subtype":"","month":"2019-05"},{"category":"burglary","location_type":"Force","location":{"latitude":"51.365947","street":{"id":926946,"name":"On or near Demesne Road"},"longitude":"-0.140366"},"context":"","outcome_status":{"category":"Status update unavailable","date":"2019-09"},"persistent_id":"92bd960281662cbf925bf29cb86244acc602f0cf4b97cd62d803d9f8c19e3a27","id":74290196,"location_subtype":"","month":"2019-05"},{"category":"burglary","location_type":"Force","location":{"latitude":"51.362415","street":{"id":927024,"name":"On or near Bute Gardens"},"longitude":"-0.142190"},"context":"","outcome_status":{"category":"Status update unavailable","date":"2019-09"},"persistent_id":"ed10b1a76ce9eadb05a82506ffc6af81991ee39a0891ca02dbead029ae47c6cf","id":74349559,"location_subtype":"","month":"2019-05"},{"category":"burglary","location_type":"Force","location":{"latitude":"51.359102","street":{"id":925840,"name":"On or near Banstead Road"},"longitude":"-0.172243"},"context":"","outcome_status":{"category":"Status update unavailable","date":"2019-09"},"persistent_id":"a31cdf5b269fbe914a0727aad0b4036cf593b41c25cb69874a801d0adf1a5266","id":74347671,"location_subtype":"","month":"2019-05"},{"category":"burglary","location_type":"Force","location":{"latitude":"51.362706","street":{"id":927122,"name":"On or near Amberwood Close"},"longitude":"-0.130485"},"context":"","outcome_status":{"category":"Status update unavailable","date":"2019-09"},"persistent_id":"7321a6882d000050d071e2e31eb29639cb6f6a0071804d0baa10f049c7307bf7","id":74346774,"location_subtype":"","month":"2019-05"},{"category":"burglary","location_type":"Force","location":{"latitude":"51.366444","street":{"id":926782,"name":"On or near Wright's Row"},"longitude":"-0.154166"},"context":"","outcome_status":{"category":"Status update unavailable","date":"2019-09"},"persistent_id":"d9ddbde24a9807352b17391538a709dc000a8f8201bbe4220a6b5d2bcbb7ad52","id":74346189,"location_subtype":"","month":"2019-05"},{"category":"burglary","location_type":"Force","location":{"latitude":"51.358866","street":{"id":925854,"name":"On or near Park Lane"},"longitude":"-0.155447"},"context":"","outcome_status":{"category":"Status update unavailable","date":"2019-09"},"persistent_id":"f5f2536ca75308e6aba33b303fb4ba722af4de4dfcf3f3314397cb2d6ed6fe06","id":74353511,"location_subtype":"","month":"2019-05"},{"category":"burglary","location_type":"Force","location":{"latitude":"51.360098","street":{"id":925703,"name":"On or near Parking Area"},"longitude":"-0.152037"},"context":"","outcome_status":{"category":"Status update unavailable","date":"2019-09"},"persistent_id":"323d9a113c759d43576378667a4d3857b4f206fa0e74221f3e7ca95abb225e7e","id":74334499,"location_subtype":"","month":"2019-05"},{"category":"burglary","location_type":"Force","location":{"latitude":"51.355484","street":{"id":925704,"name":"On or near Turpin Way"},"longitude":"-0.150269"},"context":"","outcome_status":{"category":"Status update unavailable","date":"2019-09"},"persistent_id":"30604f2cb07824617e5fce5b188d65b3f0cab0f78741210b00edf68e37992c0e","id":74329585,"location_subtype":"","month":"2019-05"},{"category":"burglary","location_type":"Force","location":{"latitude":"51.366582","street":{"id":926983,"name":"On or near Danbury Mews"},"longitude":"-0.152609"},"context":"","outcome_status":{"category":"Status update unavailable","date":"2019-09"},"persistent_id":"7d1959cc887613be14a0c8ad84785cf39c40ffc90f1402bd1b355e2b55925e75","id":74327633,"location_subtype":"","month":"2019-05"},{"category":"burglary","location_type":"Force","location":{"latitude":"51.359499","street":{"id":925732,"name":"On or near Clarendon Road"},"longitude":"-0.147709"},"context":"","outcome_status":{"category":"Status update unavailable","date":"2019-09"},"persistent_id":"ff0683d192cff308b0da09230d968c6089424115828c999fcd50fd7efa6d3576","id":74326927,"location_subtype":"","month":"2019-05"},{"category":"burglary","location_type":"Force","location":{"latitude":"51.366052","street":{"id":926923,"name":"On or near Southway"},"longitude":"-0.142991"},"context":"","outcome_status":{"category":"Status update unavailable","date":"2019-09"},"persistent_id":"380b0703c3242090485b824e2faec0865577f26cfb76ae467867530fb1a01d1e","id":74292823,"location_subtype":"","month":"2019-05"},{"category":"criminal-damage-arson","location_type":"Force","location":{"latitude":"51.366052","street":{"id":926923,"name":"On or near Southway"},"longitude":"-0.142991"},"context":"","outcome_status":{"category":"Status update unavailable","date":"2019-09"},"persistent_id":"67704b55d0123edfd2916dc371db47da6f902e1ff15d8ca3dfad9bc9264c3e42","id":74368424,"location_subtype":"","month":"2019-05"},{"category":"criminal-damage-arson","location_type":"Force","location":{"latitude":"51.368606","street":{"id":926938,"name":"On or near Hallowell Avenue"},"longitude":"-0.132256"},"context":"","outcome_status":{"category":"Court result unavailable","date":"2019-12"},"persistent_id":"6b47a355523323aa4e64e56d43fe2010decb85cdad5b999da963f2d68daa9ded","id":74353945,"location_subtype":"","month":"2019-05"},{"category":"criminal-damage-arson","location_type":"Force","location":{"latitude":"51.356907","street":{"id":925669,"name":"On or near Hospital"},"longitude":"-0.128926"},"context":"","outcome_status":{"category":"Status update unavailable","date":"2019-09"},"persistent_id":"a54fe05a06788bebaf80d9ead31e6dbb79ae3591cd34c64e3173feeccb790de7","id":74371024,"location_subtype":"","month":"2019-05"},{"category":"criminal-damage-arson","location_type":"BTP","location":{"latitude":"51.368600","street":{"id":1488372,"name":"Carshalton (station)"},"longitude":"-0.166433"},"context":"","outcome_status":{"category":"Status update unavailable","date":"2019-09"},"persistent_id":"","id":88717401,"location_subtype":"STATION","month":"2019-05"},{"category":"criminal-damage-arson","location_type":"Force","location":{"latitude":"51.369246","street":{"id":926949,"name":"On or near Croydon Road"},"longitude":"-0.135190"},"context":"","outcome_status":{"category":"Status update unavailable","date":"2019-09"},"persistent_id":"382514f9a0176e6f283bbce48fc8d41460efa713fb144f1b47d41e4f0f9d87de","id":74344979,"location_subtype":"","month":"2019-05"},{"category":"criminal-damage-arson","location_type":"Force","location":{"latitude":"51.353502","street":{"id":925774,"name":"On or near Barnard Close"},"longitude":"-0.136461"},"context":"","outcome_status":{"category":"Status update unavailable","date":"2019-09"},"persistent_id":"47b28e0b5f4455c2da87ab57b3d665cc4c99803ee11165432f521e57cc657a63","id":74308201,"location_subtype":"","month":"2019-05"},{"category":"criminal-damage-arson","location_type":"Force","location":{"latitude":"51.366582","street":{"id":926983,"name":"On or near Danbury Mews"},"longitude":"-0.152609"},"context":"","outcome_status":{"category":"Status update unavailable","date":"2019-09"},"persistent_id":"561b15228d890671c6e99dc1f9163c40f9a7f5f568ec533d57616e2fac3efd2a","id":74353730,"location_subtype":"","month":"2019-05"},{"category":"criminal-damage-arson","location_type":"Force","location":{"latitude":"51.360219","street":{"id":925726,"name":"On or near Ross Parade"},"longitude":"-0.148886"},"context":"","outcome_status":{"category":"Status update unavailable","date":"2019-09"},"persistent_id":"1396da2056f2a3b724ae1ad9558c03bb9143a3825285ccbd8d194fd3987637de","id":74329450,"location_subtype":"","month":"2019-05"},{"category":"criminal-damage-arson","location_type":"Force","location":{"latitude":"51.367139","street":{"id":926967,"name":"On or near Clifford Avenue"},"longitude":"-0.144599"},"context":"","outcome_status":{"category":"Status update unavailable","date":"2019-09"},"persistent_id":"33692887a1ad89b50995df895ee47b250e36404e06f89ec1ed5dec8c64763606","id":74314231,"location_subtype":"","month":"2019-05"},{"category":"criminal-damage-arson","location_type":"Force","location":{"latitude":"51.356032","street":{"id":925656,"name":"On or near Douglas Close"},"longitude":"-0.129306"},"context":"","outcome_status":{"category":"Status update unavailable","date":"2019-09"},"persistent_id":"0380d7e74559776967a712e73605f8fc4b9d50341f25218984ad026f9778a0e8","id":74303693,"location_subtype":"","month":"2019-05"},{"category":"criminal-damage-arson","location_type":"Force","location":{"latitude":"51.363965","street":{"id":926992,"name":"On or near Manor Road"},"longitude":"-0.151464"},"context":"","outcome_status":{"category":"Status update unavailable","date":"2019-09"},"persistent_id":"b68fd4c9e246875e2fb3199c8caac4b6fdccb1e257f45f314f7b22ead9fa1e09","id":74303946,"location_subtype":"","month":"2019-05"},{"category":"criminal-damage-arson","location_type":"Force","location":{"latitude":"51.358384","street":{"id":925713,"name":"On or near Parking Area"},"longitude":"-0.148831"},"context":"","outcome_status":{"category":"Status update unavailable","date":"2019-09"},"persistent_id":"4c2c3d5b58fa1242cd47bd181ae149dc302f0b5b8132e60ff27fd2965ee67f80","id":74342637,"location_subtype":"","month":"2019-05"},{"category":"criminal-damage-arson","location_type":"Force","location":{"latitude":"51.366420","street":{"id":926826,"name":"On or near Sports\/recreation Area"},"longitude":"-0.163476"},"context":"","outcome_status":{"category":"Status update unavailable","date":"2019-09"},"persistent_id":"fe1ae06d03519b277b8cee405e64c1d89a7319d2e001cc9e5e789eef7862259f","id":74361361,"location_subtype":"","month":"2019-05"},{"category":"criminal-damage-arson","location_type":"Force","location":{"latitude":"51.352974","street":{"id":925829,"name":"On or near Gaynesford Road"},"longitude":"-0.167389"},"context":"","outcome_status":{"category":"Status update unavailable","date":"2019-09"},"persistent_id":"ec75d35821f03f1bf500e727318ceab83b079b11607b92cc15026494649551b7","id":74362538,"location_subtype":"","month":"2019-05"},{"category":"criminal-damage-arson","location_type":"Force","location":{"latitude":"51.365423","street":{"id":926904,"name":"On or near Parking Area"},"longitude":"-0.161246"},"context":"","outcome_status":{"category":"Status update unavailable","date":"2019-09"},"persistent_id":"7f59af1588f22fddac9a46d227fa78a8ae757b5945c661f3bfd62d62a97dc54d","id":74352418,"location_subtype":"","month":"2019-05"},{"category":"criminal-damage-arson","location_type":"Force","location":{"latitude":"51.350254","street":{"id":925905,"name":"On or near Dingwall Road"},"longitude":"-0.166535"},"context":"","outcome_status":{"category":"Status update unavailable","date":"2019-09"},"persistent_id":"4113980c4b670421ca9d0046c7c56869752d47a597a49106f59f3e2eafbf4638","id":74367868,"location_subtype":"","month":"2019-05"},{"category":"criminal-damage-arson","location_type":"Force","location":{"latitude":"51.370768","street":{"id":926820,"name":"On or near Butter Hill"},"longitude":"-0.159768"},"context":"","outcome_status":{"category":"Status update unavailable","date":"2019-09"},"persistent_id":"7ec6098318c9067c802b80694c62b0b19331fa549e3e506f3d5ac7f775c4773d","id":74371012,"location_subtype":"","month":"2019-05"},{"category":"criminal-damage-arson","location_type":"Force","location":{"latitude":"51.363815","street":{"id":926877,"name":"On or near Doral Way"},"longitude":"-0.165361"},"context":"","outcome_status":{"category":"Investigation complete; no suspect identified","date":"2020-03"},"persistent_id":"b2990d3fe549745e5ef8785157a17f4181b7b1eb352fc54f96424aece79f4cc9","id":74305300,"location_subtype":"","month":"2019-05"},{"category":"criminal-damage-arson","location_type":"Force","location":{"latitude":"51.355155","street":{"id":925660,"name":"On or near Brackley Close"},"longitude":"-0.129543"},"context":"","outcome_status":{"category":"Status update unavailable","date":"2019-09"},"persistent_id":"801fc566bff25f6d1e564379cf7c2bbb494b6eb6db777a913d591ab8afb62531","id":74306767,"location_subtype":"","month":"2019-05"},{"category":"criminal-damage-arson","location_type":"Force","location":{"latitude":"51.355484","street":{"id":925704,"name":"On or near Turpin Way"},"longitude":"-0.150269"},"context":"","outcome_status":{"category":"Investigation complete; no suspect identified","date":"2020-03"},"persistent_id":"8a9d8b5cf27c7f178a339102c87e007466c1cdd2f2747457c3fc90faecd21567","id":74351777,"location_subtype":"","month":"2019-05"},{"category":"criminal-damage-arson","location_type":"Force","location":{"latitude":"51.372747","street":{"id":926787,"name":"On or near Strawberry Lane"},"longitude":"-0.161527"},"context":"","outcome_status":{"category":"Offender given community sentence","date":"2019-05"},"persistent_id":"a76345714cf5ea3c6d1cd89243eff1af07a3908038864676dbec082bfb97f29b","id":74314788,"location_subtype":"","month":"2019-05"},{"category":"criminal-damage-arson","location_type":"Force","location":{"latitude":"51.352266","street":{"id":925806,"name":"On or near Marchmont Road"},"longitude":"-0.145257"},"context":"","outcome_status":{"category":"Status update unavailable","date":"2019-09"},"persistent_id":"6b0e650e773bdfb6134e8850e76736a35ca3e028a2dfbcb6d7fe65a84415e97f","id":74326887,"location_subtype":"","month":"2019-05"},{"category":"criminal-damage-arson","location_type":"Force","location":{"latitude":"51.369391","street":{"id":926810,"name":"On or near Gurney Road"},"longitude":"-0.161949"},"context":"","outcome_status":{"category":"Status update unavailable","date":"2019-09"},"persistent_id":"35b64c95c13053390f681aac1d06c8f2b26061a4cfe8e91b720762cee816d96a","id":74349807,"location_subtype":"","month":"2019-05"},{"category":"criminal-damage-arson","location_type":"Force","location":{"latitude":"51.356415","street":{"id":925867,"name":"On or near Anglesey Gardens"},"longitude":"-0.160889"},"context":"","outcome_status":{"category":"Status update unavailable","date":"2019-09"},"persistent_id":"a5e2670fa0421bbdce1258b04827db83e455218caf86119e4dd09527ca9d49c4","id":74333812,"location_subtype":"","month":"2019-05"},{"category":"criminal-damage-arson","location_type":"Force","location":{"latitude":"51.367635","street":{"id":926853,"name":"On or near Colston Avenue"},"longitude":"-0.170438"},"context":"","outcome_status":{"category":"Status update unavailable","date":"2019-09"},"persistent_id":"f53ea4965c27ec160e72ff9a37fae56e8058806b26afbb47b06fb5152e06ad2f","id":74309415,"location_subtype":"","month":"2019-05"},{"category":"criminal-damage-arson","location_type":"Force","location":{"latitude":"51.361610","street":{"id":926986,"name":"On or near Parking Area"},"longitude":"-0.149836"},"context":"","outcome_status":{"category":"Investigation complete; no suspect identified","date":"2020-04"},"persistent_id":"50ac2adaedde7d12acde3eee143874fe29c5ff72d0f82711faea2968ded1341f","id":74337388,"location_subtype":"","month":"2019-05"},{"category":"criminal-damage-arson","location_type":"Force","location":{"latitude":"51.373240","street":{"id":926978,"name":"On or near Regal Crescent"},"longitude":"-0.151694"},"context":"","outcome_status":{"category":"Status update unavailable","date":"2019-09"},"persistent_id":"9254643c82e4d334fc302244bd7ea34933de24d79be626270098f7e26dbd01c9","id":74321498,"location_subtype":"","month":"2019-05"},{"category":"drugs","location_type":"Force","location":{"latitude":"51.354741","street":{"id":925728,"name":"On or near Grosvenor Gardens"},"longitude":"-0.145919"},"context":"","outcome_status":{"category":"Local resolution","date":"2020-03"},"persistent_id":"6be4d7350afbb5197cf17e2bc0abcb2ae7e6e0ea880d51b9fd3c8f5444b47591","id":74351672,"location_subtype":"","month":"2019-05"},{"category":"drugs","location_type":"Force","location":{"latitude":"51.364660","street":{"id":927027,"name":"On or near Plough Lane Close"},"longitude":"-0.132905"},"context":"","outcome_status":{"category":"Local resolution","date":"2019-05"},"persistent_id":"0f06210b6e1fa3a02f54ca5c0a0834df7a743c41c4c645940343e2d560c66076","id":74363584,"location_subtype":"","month":"2019-05"},{"category":"drugs","location_type":"Force","location":{"latitude":"51.361610","street":{"id":926986,"name":"On or near Parking Area"},"longitude":"-0.149836"},"context":"","outcome_status":{"category":"Local resolution","date":"2019-05"},"persistent_id":"46096083d602760978bb502ad342d7a926d75be81d59f2ec04258f65642c5d3b","id":74356429,"location_subtype":"","month":"2019-05"},{"category":"drugs","location_type":"Force","location":{"latitude":"51.353723","street":{"id":925848,"name":"On or near Windborough Road"},"longitude":"-0.160106"},"context":"","outcome_status":{"category":"Local resolution","date":"2019-06"},"persistent_id":"d44c2976d17e4488bbf4c7988aa718adfedb54fa34a658e84b1121afacd2831c","id":74354917,"location_subtype":"","month":"2019-05"},{"category":"drugs","location_type":"Force","location":{"latitude":"51.364297","street":{"id":926882,"name":"On or near Alma Road"},"longitude":"-0.172036"},"context":"","outcome_status":{"category":"Local resolution","date":"2019-05"},"persistent_id":"8d772fdf4f73e554ef287d07ae385bf71de5169e67328f4799ca24925daad09f","id":74356433,"location_subtype":"","month":"2019-05"},{"category":"drugs","location_type":"Force","location":{"latitude":"51.352254","street":{"id":925765,"name":"On or near De Vere Close"},"longitude":"-0.132605"},"context":"","outcome_status":{"category":"Local resolution","date":"2019-05"},"persistent_id":"0c83213371451f6857b55e5cd27860670a3026643c9ded6fc6d5f64b49c7f567","id":74351888,"location_subtype":"","month":"2019-05"},{"category":"drugs","location_type":"Force","location":{"latitude":"51.367635","street":{"id":926853,"name":"On or near Colston Avenue"},"longitude":"-0.170438"},"context":"","outcome_status":{"category":"Offender given penalty notice","date":"2019-05"},"persistent_id":"b5ce7e793d3cb83f8201b9e850a49b1d28e689557d57bce22863554b61431f46","id":74356758,"location_subtype":"","month":"2019-05"},{"category":"drugs","location_type":"Force","location":{"latitude":"51.362859","street":{"id":926869,"name":"On or near Wallace Crescent"},"longitude":"-0.166376"},"context":"","outcome_status":{"category":"Court result unavailable","date":"2019-11"},"persistent_id":"7e432df8e505a5f6c65846836e0fba28a2075ff7afc2e0dcdbab7f8235386f39","id":74291611,"location_subtype":"","month":"2019-05"},{"category":"drugs","location_type":"Force","location":{"latitude":"51.368981","street":{"id":926965,"name":"On or near Croydon Road"},"longitude":"-0.147355"},"context":"","outcome_status":{"category":"Local resolution","date":"2019-06"},"persistent_id":"45340a790d622b64f22c07ed50f9ce51df453e3655b921fb6708d9ae180f39a3","id":74330200,"location_subtype":"","month":"2019-05"},{"category":"drugs","location_type":"Force","location":{"latitude":"51.357302","street":{"id":925866,"name":"On or near Boundary Road"},"longitude":"-0.155496"},"context":"","outcome_status":{"category":"Local resolution","date":"2019-05"},"persistent_id":"aca2fdd81616c76524e0dbc4e603dab608980093d66995e3e8f9146e45faf86d","id":74366546,"location_subtype":"","month":"2019-05"},{"category":"drugs","location_type":"Force","location":{"latitude":"51.360100","street":{"id":925776,"name":"On or near Bandon Rise"},"longitude":"-0.138549"},"context":"","outcome_status":{"category":"Local resolution","date":"2019-06"},"persistent_id":"2633b08387164d4c5fbf074ec2a7a87f0369c23768549e37c4cc281723e49bba","id":74313638,"location_subtype":"","month":"2019-05"},{"category":"drugs","location_type":"Force","location":{"latitude":"51.357990","street":{"id":925733,"name":"On or near Charlotte Road"},"longitude":"-0.144423"},"context":"","outcome_status":{"category":"Local resolution","date":"2019-06"},"persistent_id":"29093f842b26b1936410f280c0007a517f722393053b12fcf82b09d91cf4e2b1","id":74336233,"location_subtype":"","month":"2019-05"},{"category":"drugs","location_type":"Force","location":{"latitude":"51.372361","street":{"id":926984,"name":"On or near Caraway Place"},"longitude":"-0.152405"},"context":"","outcome_status":{"category":"Offender given penalty notice","date":"2019-05"},"persistent_id":"e85f113638f8de029a1a16733c188c53f1af0df7545214a98550088b55ae4d63","id":74369661,"location_subtype":"","month":"2019-05"},{"category":"other-theft","location_type":"Force","location":{"latitude":"51.353784","street":{"id":925727,"name":"On or near Onslow Gardens"},"longitude":"-0.146833"},"context":"","outcome_status":{"category":"Investigation complete; no suspect identified","date":"2020-05"},"persistent_id":"661948f54aaac3afe960d2c9a855016f0bc54a93cc65f70d6d8b9b20786a4687","id":74363666,"location_subtype":"","month":"2019-05"},{"category":"other-theft","location_type":"Force","location":{"latitude":"51.350166","street":{"id":925881,"name":"On or near Pine Ridge"},"longitude":"-0.159789"},"context":"","outcome_status":{"category":"Status update unavailable","date":"2019-09"},"persistent_id":"fa6968fc7f8736f05ed7d82ff560ee7e594d5a9d86e2c890bac59b8cf189984f","id":74306270,"location_subtype":"","month":"2019-05"},{"category":"other-theft","location_type":"Force","location":{"latitude":"51.362917","street":{"id":926883,"name":"On or near Petrol Station"},"longitude":"-0.172379"},"context":"","outcome_status":{"category":"Status update unavailable","date":"2019-09"},"persistent_id":"4198505368beff562a595906ae459f4bacaf1e983571a61fd18e903d0e5168d7","id":74365211,"location_subtype":"","month":"2019-05"},{"category":"other-theft","location_type":"Force","location":{"latitude":"51.358622","street":{"id":925711,"name":"On or near Supermarket"},"longitude":"-0.150229"},"context":"","outcome_status":{"category":"Status update unavailable","date":"2019-09"},"persistent_id":"a5aab689cbd1de8e330fa752ec65f58a8532934ace88c0bf9539d4494e8fb698","id":74290350,"location_subtype":"","month":"2019-05"},{"category":"other-theft","location_type":"Force","location":{"latitude":"51.358384","street":{"id":925713,"name":"On or near Parking Area"},"longitude":"-0.148831"},"context":"","outcome_status":{"category":"Status update unavailable","date":"2019-09"},"persistent_id":"3cf2cf190c68aa844676611f3538731c782df312962b9fc80f9cc20088bf0b41","id":74300980,"location_subtype":"","month":"2019-05"},{"category":"other-theft","location_type":"Force","location":{"latitude":"51.355155","street":{"id":925660,"name":"On or near Brackley Close"},"longitude":"-0.129543"},"context":"","outcome_status":{"category":"Status update unavailable","date":"2019-09"},"persistent_id":"5cfde6d678aa1db8416d6e6378cfcb10038082c03b83fe25f2af6ecd2454adc6","id":74302480,"location_subtype":"","month":"2019-05"},{"category":"other-theft","location_type":"Force","location":{"latitude":"51.358999","street":{"id":925813,"name":"On or near Link Lane"},"longitude":"-0.133782"},"context":"","outcome_status":{"category":"Status update unavailable","date":"2019-09"},"persistent_id":"78b52b3891b93a0035fa4799ed81b1e4907f67e46280933458ee505117e4fbf7","id":74307832,"location_subtype":"","month":"2019-05"},{"category":"other-theft","location_type":"Force","location":{"latitude":"51.348468","street":{"id":925803,"name":"On or near Woodcote Green"},"longitude":"-0.146746"},"context":"","outcome_status":{"category":"Status update unavailable","date":"2019-09"},"persistent_id":"4650eff623611c0e0ae910a2b38742ebf1ed8fad3dc485e3cacf9d97d0c22d1b","id":74308827,"location_subtype":"","month":"2019-05"},{"category":"other-theft","location_type":"Force","location":{"latitude":"51.368178","street":{"id":926792,"name":"On or near Rochester Road"},"longitude":"-0.163765"},"context":"","outcome_status":{"category":"Status update unavailable","date":"2019-09"},"persistent_id":"bb1e068d78835b9859bddbda8d7229bf57d86a95e479b7fcdc9cef991504bd40","id":74323612,"location_subtype":"","month":"2019-05"},{"category":"other-theft","location_type":"Force","location":{"latitude":"51.368981","street":{"id":926965,"name":"On or near Croydon Road"},"longitude":"-0.147355"},"context":"","outcome_status":{"category":"Status update unavailable","date":"2019-09"},"persistent_id":"09a7d5c4a5e667cf8ad692172cbe48f6d281525c68177139c6a2f79e58e7c329","id":74325208,"location_subtype":"","month":"2019-05"},{"category":"other-theft","location_type":"Force","location":{"latitude":"51.365809","street":{"id":926827,"name":"On or near Theatre\/concert Hall"},"longitude":"-0.159507"},"context":"","outcome_status":{"category":"Status update unavailable","date":"2019-09"},"persistent_id":"d926c1a906b9127e15c40b82be894fe59327ef56e0f55316d9e9e521799d335b","id":74313665,"location_subtype":"","month":"2019-05"},{"category":"other-theft","location_type":"Force","location":{"latitude":"51.361870","street":{"id":926994,"name":"On or near Petrol Station"},"longitude":"-0.150917"},"context":"","outcome_status":{"category":"Investigation complete; no suspect identified","date":"2020-03"},"persistent_id":"d88f4bbb0e79f4f1fffb2e009e97f9f8eedb0b04b18345787c736aeb5ebc7836","id":74316741,"location_subtype":"","month":"2019-05"},{"category":"other-theft","location_type":"Force","location":{"latitude":"51.357454","street":{"id":925737,"name":"On or near Supermarket"},"longitude":"-0.148064"},"context":"","outcome_status":{"category":"Status update unavailable","date":"2019-09"},"persistent_id":"c52ce68edc446c14bd5a4599469871b525c05606ced900b79c098054062974c4","id":74314047,"location_subtype":"","month":"2019-05"},{"category":"other-theft","location_type":"Force","location":{"latitude":"51.357454","street":{"id":925737,"name":"On or near Supermarket"},"longitude":"-0.148064"},"context":"","outcome_status":{"category":"Status update unavailable","date":"2019-09"},"persistent_id":"500834b72cf2170a094bf1118813240bfd25fad21000b9cb0ae28ff728f38cb9","id":74328800,"location_subtype":"","month":"2019-05"},{"category":"other-theft","location_type":"Force","location":{"latitude":"51.361610","street":{"id":926986,"name":"On or near Parking Area"},"longitude":"-0.149836"},"context":"","outcome_status":{"category":"Court result unavailable","date":"2020-03"},"persistent_id":"4dd011646bfc7e31e28bc32392501c15aaa3d82f83ba72656b711f8c53864944","id":74338802,"location_subtype":"","month":"2019-05"},{"category":"other-theft","location_type":"Force","location":{"latitude":"51.369000","street":{"id":926798,"name":"On or near Papermill Close"},"longitude":"-0.160543"},"context":"","outcome_status":{"category":"Status update unavailable","date":"2019-09"},"persistent_id":"291df55f1f2492cab81097b60d438e0083bc80fef92fa5eeebb8d93efed9cfa5","id":74339036,"location_subtype":"","month":"2019-05"},{"category":"other-theft","location_type":"Force","location":{"latitude":"51.355155","street":{"id":925660,"name":"On or near Brackley Close"},"longitude":"-0.129543"},"context":"","outcome_status":{"category":"Status update unavailable","date":"2019-09"},"persistent_id":"04deaa4c2ec3c0dc73b9a7557677d2bfb2a89d04fbce52c0cbe938c2e38a2713","id":74339599,"location_subtype":"","month":"2019-05"},{"category":"other-theft","location_type":"Force","location":{"latitude":"51.364711","street":{"id":926906,"name":"On or near Rotherfield Road"},"longitude":"-0.158287"},"context":"","outcome_status":{"category":"Investigation complete; no suspect identified","date":"2020-04"},"persistent_id":"f51c30734fb11d7f32a89139d2300e29bb6e8ba147c8f25fef502a9d1d0f79c8","id":74339598,"location_subtype":"","month":"2019-05"},{"category":"other-theft","location_type":"Force","location":{"latitude":"51.372361","street":{"id":926984,"name":"On or near Caraway Place"},"longitude":"-0.152405"},"context":"","outcome_status":{"category":"Status update unavailable","date":"2019-09"},"persistent_id":"dbfd293c5847f3f67bacce2b6d371d2718ecb2d5c2312465337e5d44be90db7c","id":74353773,"location_subtype":"","month":"2019-05"},{"category":"other-theft","location_type":"Force","location":{"latitude":"51.367089","street":{"id":926931,"name":"On or near Northway"},"longitude":"-0.143179"},"context":"","outcome_status":{"category":"Status update unavailable","date":"2019-09"},"persistent_id":"a8a13e996cfbe86c7c353c540572320bed3d396b01bcb6b82636b99dbe0e8381","id":74353828,"location_subtype":"","month":"2019-05"},{"category":"other-theft","location_type":"Force","location":{"latitude":"51.368981","street":{"id":926965,"name":"On or near Croydon Road"},"longitude":"-0.147355"},"context":"","outcome_status":{"category":"Status update unavailable","date":"2019-09"},"persistent_id":"2e2ee3b3bcdc36c46c03c71027bde395ce401f2f80a616c8b5b00a93cd568226","id":74351980,"location_subtype":"","month":"2019-05"},{"category":"other-theft","location_type":"Force","location":{"latitude":"51.368981","street":{"id":926965,"name":"On or near Croydon Road"},"longitude":"-0.147355"},"context":"","outcome_status":{"category":"Local resolution","date":"2019-05"},"persistent_id":"0bb2e390df2f9a3ff76064613b6e1d7a867f402390cf39f7d9530eccdb30d2af","id":74290388,"location_subtype":"","month":"2019-05"},{"category":"other-theft","location_type":"Force","location":{"latitude":"51.361655","street":{"id":926870,"name":"On or near Wales Avenue"},"longitude":"-0.171050"},"context":"","outcome_status":{"category":"Status update unavailable","date":"2019-09"},"persistent_id":"f40f81284f1f64a10a86b7748ceb0c20fc1c4985cc14225ab21171db6c24435c","id":74355731,"location_subtype":"","month":"2019-05"},{"category":"other-theft","location_type":"Force","location":{"latitude":"51.346961","street":{"id":924862,"name":"On or near Woodmansterne Lane"},"longitude":"-0.148702"},"context":"","outcome_status":{"category":"Status update unavailable","date":"2019-09"},"persistent_id":"4fab330d8bc6afdabfa4a9052a2e5e778d2136350a468fe205da20d34ed5e9c1","id":74366349,"location_subtype":"","month":"2019-05"},{"category":"other-theft","location_type":"Force","location":{"latitude":"51.370504","street":{"id":926942,"name":"On or near Gisbourne Close"},"longitude":"-0.136259"},"context":"","outcome_status":{"category":"Status update unavailable","date":"2019-09"},"persistent_id":"652e48fcc277794428dcbb85d600925c11cd646976acca4f0ca0d48db1ab81aa","id":74366532,"location_subtype":"","month":"2019-05"},{"category":"other-theft","location_type":"Force","location":{"latitude":"51.353718","street":{"id":925719,"name":"On or near Woodbourne Gardens"},"longitude":"-0.149507"},"context":"","outcome_status":{"category":"Investigation complete; no suspect identified","date":"2020-09"},"persistent_id":"7c07ed68d504a8b25dce6446796379826dc3ff1c4a8079193cc652301a932387","id":74301908,"location_subtype":"","month":"2019-05"},{"category":"other-theft","location_type":"Force","location":{"latitude":"51.361870","street":{"id":926994,"name":"On or near Petrol Station"},"longitude":"-0.150917"},"context":"","outcome_status":{"category":"Investigation complete; no suspect identified","date":"2020-03"},"persistent_id":"821f90d31e5aef9085fba7e31e932103b2c684d2f6934992f1f5ab47e5de4d04","id":74318559,"location_subtype":"","month":"2019-05"},{"category":"other-theft","location_type":"Force","location":{"latitude":"51.359983","street":{"id":925708,"name":"On or near Manor Road"},"longitude":"-0.149872"},"context":"","outcome_status":{"category":"Investigation complete; no suspect identified","date":"2020-03"},"persistent_id":"86dc293b6a9f4f736bcff35d6f401e6035bb9ce89673998d7cea515a2483ecaa","id":74370172,"location_subtype":"","month":"2019-05"},{"category":"other-theft","location_type":"Force","location":{"latitude":"51.365310","street":{"id":926911,"name":"On or near High Street"},"longitude":"-0.160935"},"context":"","outcome_status":{"category":"Investigation complete; no suspect identified","date":"2020-03"},"persistent_id":"9679534bb790d730f79b74956faa9df4a0bfa1d29ed7cfcc2c21c8dabfd94021","id":74337746,"location_subtype":"","month":"2019-05"},{"category":"other-theft","location_type":"Force","location":{"latitude":"51.368570","street":{"id":926947,"name":"On or near Dell Close"},"longitude":"-0.140734"},"context":"","outcome_status":{"category":"Investigation complete; no suspect identified","date":"2020-03"},"persistent_id":"f59138638be6262f67d3745983b51eab09960f9e8a894f6dc92f441351c533cc","id":74324157,"location_subtype":"","month":"2019-05"},{"category":"other-theft","location_type":"Force","location":{"latitude":"51.371401","street":{"id":926862,"name":"On or near Further\/higher Educational Building"},"longitude":"-0.165130"},"context":"","outcome_status":{"category":"Investigation complete; no suspect identified","date":"2020-03"},"persistent_id":"71dfaedecd54a116a5f364cc746ce56bed3d50b7bd6707819057b2ce8e6bcfa0","id":74305019,"location_subtype":"","month":"2019-05"},{"category":"possession-of-weapons","location_type":"Force","location":{"latitude":"51.353760","street":{"id":925773,"name":"On or near Brown Close"},"longitude":"-0.133406"},"context":"","outcome_status":{"category":"Status update unavailable","date":"2019-09"},"persistent_id":"a09a66592fb1a0f786c100536e2826f755f6c6fb9d2b6bb3130eb711e6cbce18","id":74290708,"location_subtype":"","month":"2019-05"},{"category":"public-order","location_type":"Force","location":{"latitude":"51.355111","street":{"id":925853,"name":"On or near Park View Close"},"longitude":"-0.162593"},"context":"","outcome_status":{"category":"Status update unavailable","date":"2019-09"},"persistent_id":"7f67dc6f800d685ecee3bfa0a071b39d84a08100e6f594fd47c7344b4cdba8d2","id":74337613,"location_subtype":"","month":"2019-05"},{"category":"public-order","location_type":"Force","location":{"latitude":"51.368666","street":{"id":926969,"name":"On or near Bond Gardens"},"longitude":"-0.143934"},"context":"","outcome_status":{"category":"Status update unavailable","date":"2019-09"},"persistent_id":"9988302061cd859c3b769739f86ec38330d071818754a4b1223d68d0c98b4a13","id":74324873,"location_subtype":"","month":"2019-05"},{"category":"public-order","location_type":"Force","location":{"latitude":"51.369391","street":{"id":926810,"name":"On or near Gurney Road"},"longitude":"-0.161949"},"context":"","outcome_status":{"category":"Investigation complete; no suspect identified","date":"2020-03"},"persistent_id":"539ebc2d9e2d471546dc9d895dc3acaf6eda14e38ba8ed2fb717b51b9bfc0883","id":74300833,"location_subtype":"","month":"2019-05"},{"category":"public-order","location_type":"Force","location":{"latitude":"51.357427","street":{"id":925712,"name":"On or near Hospital"},"longitude":"-0.150320"},"context":"","outcome_status":{"category":"Court result unavailable","date":"2019-11"},"persistent_id":"6662372c5df17c29fd83d0639110ad6e7ef3200f83c06a5b22556a60487fa346","id":74372677,"location_subtype":"","month":"2019-05"},{"category":"public-order","location_type":"Force","location":{"latitude":"51.358622","street":{"id":925711,"name":"On or near Supermarket"},"longitude":"-0.150229"},"context":"","outcome_status":{"category":"Status update unavailable","date":"2019-09"},"persistent_id":"c47b78830b8f498ff98e7660d25c8f46820c3dfd25ae2ffcc466bd770fea15b9","id":74305622,"location_subtype":"","month":"2019-05"},{"category":"public-order","location_type":"Force","location":{"latitude":"51.366582","street":{"id":926983,"name":"On or near Danbury Mews"},"longitude":"-0.152609"},"context":"","outcome_status":{"category":"Status update unavailable","date":"2019-09"},"persistent_id":"42bec76552f64f8401c0945ab5d48118a941c62fbf876d2278994f13f45b50e0","id":74353939,"location_subtype":"","month":"2019-05"},{"category":"public-order","location_type":"Force","location":{"latitude":"51.372361","street":{"id":926984,"name":"On or near Caraway Place"},"longitude":"-0.152405"},"context":"","outcome_status":{"category":"Investigation complete; no suspect identified","date":"2020-03"},"persistent_id":"d83365e4ca480e78c43acad198f2e4953b4734ae8cec67b873b267de7949bd05","id":74339863,"location_subtype":"","month":"2019-05"},{"category":"public-order","location_type":"Force","location":{"latitude":"51.364297","street":{"id":926882,"name":"On or near Alma Road"},"longitude":"-0.172036"},"context":"","outcome_status":{"category":"Status update unavailable","date":"2019-09"},"persistent_id":"73e955b384cf32d91bb584f12a9de40c181c1ec52dfb87bed4df5c327da44fc3","id":74368146,"location_subtype":"","month":"2019-05"},{"category":"public-order","location_type":"Force","location":{"latitude":"51.364660","street":{"id":927027,"name":"On or near Plough Lane Close"},"longitude":"-0.132905"},"context":"","outcome_status":{"category":"Status update unavailable","date":"2019-09"},"persistent_id":"3f4934f8aef8ece720cf4f89b59bd5944b9f094f44915c71fcde5cbbc34a1ce2","id":74302501,"location_subtype":"","month":"2019-05"},{"category":"public-order","location_type":"Force","location":{"latitude":"51.369805","street":{"id":926786,"name":"On or near Vellum Drive"},"longitude":"-0.159117"},"context":"","outcome_status":{"category":"Status update unavailable","date":"2019-09"},"persistent_id":"3d15e38a8142456be7a688fb30b7d52cc744f8e15883b7b385e5367c9062a8bb","id":74354140,"location_subtype":"","month":"2019-05"},{"category":"public-order","location_type":"Force","location":{"latitude":"51.369277","street":{"id":926855,"name":"On or near Camden Road"},"longitude":"-0.166738"},"context":"","outcome_status":{"category":"Status update unavailable","date":"2019-09"},"persistent_id":"9316cde13064fe16adae7522b35614e5db56d9e26446ecb3adb6a0e7751c2ec5","id":74327878,"location_subtype":"","month":"2019-05"},{"category":"public-order","location_type":"Force","location":{"latitude":"51.361024","street":{"id":926999,"name":"On or near Ross Road"},"longitude":"-0.144042"},"context":"","outcome_status":{"category":"Status update unavailable","date":"2019-09"},"persistent_id":"e94c859278844cd1da23b0ec1dbc6280560d30efe3970d00390c65c62b4fe583","id":74323924,"location_subtype":"","month":"2019-05"},{"category":"public-order","location_type":"Force","location":{"latitude":"51.367877","street":{"id":926803,"name":"On or near Manor Road North"},"longitude":"-0.154324"},"context":"","outcome_status":{"category":"Investigation complete; no suspect identified","date":"2020-03"},"persistent_id":"0fe851677c40e6ddb584341d75f6182b369d70ea2a54d61f54b4d609e3903961","id":74329557,"location_subtype":"","month":"2019-05"},{"category":"public-order","location_type":"Force","location":{"latitude":"51.365182","street":{"id":926915,"name":"On or near Supermarket"},"longitude":"-0.160796"},"context":"","outcome_status":{"category":"Status update unavailable","date":"2019-09"},"persistent_id":"a21b4694a95e12a4b563a34483a6d16b9dedd5e0aaa1879d60f5822e90587fc6","id":74349637,"location_subtype":"","month":"2019-05"},{"category":"public-order","location_type":"Force","location":{"latitude":"51.356211","street":{"id":925642,"name":"On or near Mollison Drive"},"longitude":"-0.128653"},"context":"","outcome_status":{"category":"Status update unavailable","date":"2019-09"},"persistent_id":"098b4ebf71178c1367056d3a122f8e11f6dc8b81387919e92c1ce1b6cdbc69c7","id":74371401,"location_subtype":"","month":"2019-05"},{"category":"public-order","location_type":"Force","location":{"latitude":"51.372361","street":{"id":926984,"name":"On or near Caraway Place"},"longitude":"-0.152405"},"context":"","outcome_status":{"category":"Status update unavailable","date":"2019-09"},"persistent_id":"d83365e4ca480e78c43acad198f2e4953b4734ae8cec67b873b267de7949bd05","id":74339862,"location_subtype":"","month":"2019-05"},{"category":"public-order","location_type":"Force","location":{"latitude":"51.370504","street":{"id":926942,"name":"On or near Gisbourne Close"},"longitude":"-0.136259"},"context":"","outcome_status":{"category":"Status update unavailable","date":"2019-09"},"persistent_id":"5a642c69730912cd0727907821aef8108f3678b8c6ebafaf27eb41063ef4e372","id":74290275,"location_subtype":"","month":"2019-05"},{"category":"public-order","location_type":"Force","location":{"latitude":"51.356907","street":{"id":925669,"name":"On or near Hospital"},"longitude":"-0.128926"},"context":"","outcome_status":{"category":"Status update unavailable","date":"2019-09"},"persistent_id":"03435d7cf2d6ba56c2c2df7082bd0c277dcdf360383d8139970974713c749d95","id":74350791,"location_subtype":"","month":"2019-05"},{"category":"public-order","location_type":"Force","location":{"latitude":"51.357427","street":{"id":925712,"name":"On or near Hospital"},"longitude":"-0.150320"},"context":"","outcome_status":{"category":"Status update unavailable","date":"2019-09"},"persistent_id":"fd48757b37a4bbb60841790f32fcf5a95ff878f9c050bdc6270a1e67bbef9aa3","id":74328449,"location_subtype":"","month":"2019-05"},{"category":"public-order","location_type":"Force","location":{"latitude":"51.360833","street":{"id":926989,"name":"On or near Railway Approach"},"longitude":"-0.150729"},"context":"","outcome_status":{"category":"Investigation complete; no suspect identified","date":"2020-03"},"persistent_id":"086b02bd8a357708a09531ae413a5d81bef432b0d3e04e6cf187e68450c33c55","id":74312764,"location_subtype":"","month":"2019-05"},{"category":"public-order","location_type":"Force","location":{"latitude":"51.351407","street":{"id":925791,"name":"On or near Ingleby Way"},"longitude":"-0.139863"},"context":"","outcome_status":{"category":"Investigation complete; no suspect identified","date":"2020-03"},"persistent_id":"6e0d7ae15ea719d12039681c49a0cafa59e57192075791f97852379c4c3559ea","id":74305627,"location_subtype":"","month":"2019-05"},{"category":"public-order","location_type":"Force","location":{"latitude":"51.358384","street":{"id":925713,"name":"On or near Parking Area"},"longitude":"-0.148831"},"context":"","outcome_status":{"category":"Status update unavailable","date":"2019-09"},"persistent_id":"357157c2c3d5eb2511e3dc848adfccfe689814c17ef2312cec11c61b09f59c7d","id":74365284,"location_subtype":"","month":"2019-05"},{"category":"public-order","location_type":"Force","location":{"latitude":"51.351728","street":{"id":925811,"name":"On or near Avenue Road"},"longitude":"-0.146514"},"context":"","outcome_status":{"category":"Status update unavailable","date":"2019-09"},"persistent_id":"9c4cfb1da731f91fbc497c0eadfa7397aa1a419457c9be4e879b6b013a2357fd","id":74337508,"location_subtype":"","month":"2019-05"},{"category":"public-order","location_type":"Force","location":{"latitude":"51.357990","street":{"id":925733,"name":"On or near Charlotte Road"},"longitude":"-0.144423"},"context":"","outcome_status":{"category":"Investigation complete; no suspect identified","date":"2020-04"},"persistent_id":"f32bc55db3f8b7244a10b70de4000d8811b7a148da45d2e6dd7f30fbd59e36b4","id":74336962,"location_subtype":"","month":"2019-05"},{"category":"public-order","location_type":"Force","location":{"latitude":"51.353523","street":{"id":925643,"name":"On or near Meteor Way"},"longitude":"-0.132109"},"context":"","outcome_status":{"category":"Status update unavailable","date":"2019-09"},"persistent_id":"7ef9abef551593a74772e3108e5f5857b70714ab7b370ef9490bc3c41fe76779","id":74337868,"location_subtype":"","month":"2019-05"},{"category":"public-order","location_type":"Force","location":{"latitude":"51.360496","street":{"id":927112,"name":"On or near Haslemere Close"},"longitude":"-0.130072"},"context":"","outcome_status":{"category":"Status update unavailable","date":"2019-09"},"persistent_id":"cc2350daaa31aeedadc28538253a29454528cadcf081cd0dc302aa92f9ee5535","id":74348968,"location_subtype":"","month":"2019-05"},{"category":"public-order","location_type":"Force","location":{"latitude":"51.357302","street":{"id":925866,"name":"On or near Boundary Road"},"longitude":"-0.155496"},"context":"","outcome_status":{"category":"Status update unavailable","date":"2019-09"},"persistent_id":"6726879ff9bcf9a801f0f607c92684bc21716db1711ae5b210c55865bc89c81c","id":74329857,"location_subtype":"","month":"2019-05"},{"category":"public-order","location_type":"Force","location":{"latitude":"51.353760","street":{"id":925773,"name":"On or near Brown Close"},"longitude":"-0.133406"},"context":"","outcome_status":{"category":"Status update unavailable","date":"2019-09"},"persistent_id":"7faf31d32858e4b61a719fd05612c20ae329b2208891429bc44ee7ca61ce0da2","id":74330064,"location_subtype":"","month":"2019-05"},{"category":"public-order","location_type":"Force","location":{"latitude":"51.364676","street":{"id":926871,"name":"On or near Shorts Road"},"longitude":"-0.170973"},"context":"","outcome_status":{"category":"Status update unavailable","date":"2019-09"},"persistent_id":"93a4263ee5670222fd2551a93d0764a50aa6205855e6525c3bdcbf2ede3c1acf","id":74304103,"location_subtype":"","month":"2019-05"},{"category":"robbery","location_type":"Force","location":{"latitude":"51.365182","street":{"id":926915,"name":"On or near Supermarket"},"longitude":"-0.160796"},"context":"","outcome_status":{"category":"Status update unavailable","date":"2019-09"},"persistent_id":"208361c31087ef9a8f1290deb18ac16a8a32a00c336a7fe813e82606cbe4dd5c","id":74328632,"location_subtype":"","month":"2019-05"},{"category":"robbery","location_type":"Force","location":{"latitude":"51.371401","street":{"id":926862,"name":"On or near Further\/higher Educational Building"},"longitude":"-0.165130"},"context":"","outcome_status":{"category":"Investigation complete; no suspect identified","date":"2020-03"},"persistent_id":"81f62ae3db5b2f300d34f0549bb89bdcb799fc39d2db03feabcaa4d8e7acb9bc","id":74326470,"location_subtype":"","month":"2019-05"},{"category":"robbery","location_type":"Force","location":{"latitude":"51.369561","street":{"id":926819,"name":"On or near Butter Hill"},"longitude":"-0.157359"},"context":"","outcome_status":{"category":"Status update unavailable","date":"2019-09"},"persistent_id":"dff2af3c915c672143eea4fbe5e50d94950cf0303b67295f5833924024d9e962","id":74350201,"location_subtype":"","month":"2019-05"},{"category":"robbery","location_type":"Force","location":{"latitude":"51.358622","street":{"id":925711,"name":"On or near Supermarket"},"longitude":"-0.150229"},"context":"","outcome_status":{"category":"Status update unavailable","date":"2019-09"},"persistent_id":"a857b4ac7980205406cb1a93767f9ba6b5ae0d228ad7bdd9b7c191e5692e1808","id":74325615,"location_subtype":"","month":"2019-05"},{"category":"robbery","location_type":"Force","location":{"latitude":"51.365182","street":{"id":926915,"name":"On or near Supermarket"},"longitude":"-0.160796"},"context":"","outcome_status":{"category":"Status update unavailable","date":"2019-09"},"persistent_id":"208361c31087ef9a8f1290deb18ac16a8a32a00c336a7fe813e82606cbe4dd5c","id":74328633,"location_subtype":"","month":"2019-05"},{"category":"robbery","location_type":"Force","location":{"latitude":"51.351728","street":{"id":925811,"name":"On or near Avenue Road"},"longitude":"-0.146514"},"context":"","outcome_status":{"category":"Investigation complete; no suspect identified","date":"2020-03"},"persistent_id":"285845cb9e8c8996e581c9b3b4c20355dd846f4b975057d256958207353386eb","id":74316057,"location_subtype":"","month":"2019-05"},{"category":"robbery","location_type":"Force","location":{"latitude":"51.355679","street":{"id":925768,"name":"On or near Cosdach Avenue"},"longitude":"-0.140423"},"context":"","outcome_status":{"category":"Status update unavailable","date":"2019-09"},"persistent_id":"5c4df5bd4776366a5163fbce6d021e7e9db1aead09e4a2cf5bbd5a1b0fdfa554","id":74368121,"location_subtype":"","month":"2019-05"},{"category":"robbery","location_type":"Force","location":{"latitude":"51.368430","street":{"id":926828,"name":"On or near Parking Area"},"longitude":"-0.166082"},"context":"","outcome_status":{"category":"Status update unavailable","date":"2019-09"},"persistent_id":"cc2d754a8d18ec4c1ef30358eb6f97b945f05e48e70fa8d35f9cdd9971e40294","id":74368148,"location_subtype":"","month":"2019-05"},{"category":"shoplifting","location_type":"Force","location":{"latitude":"51.358384","street":{"id":925713,"name":"On or near Parking Area"},"longitude":"-0.148831"},"context":"","outcome_status":{"category":"Status update unavailable","date":"2019-09"},"persistent_id":"0457363e262978dda6d29b992477210aa902db21bf611c8ac6e898c99a8df525","id":74345978,"location_subtype":"","month":"2019-05"},{"category":"shoplifting","location_type":"Force","location":{"latitude":"51.362917","street":{"id":926883,"name":"On or near Petrol Station"},"longitude":"-0.172379"},"context":"","outcome_status":{"category":"Status update unavailable","date":"2019-09"},"persistent_id":"b1c6fc7839ee8c30c9bd119d5de1530a4f6723e4094d52d314d42cd0abe601b9","id":74357676,"location_subtype":"","month":"2019-05"},{"category":"shoplifting","location_type":"Force","location":{"latitude":"51.365423","street":{"id":926904,"name":"On or near Parking Area"},"longitude":"-0.161246"},"context":"","outcome_status":{"category":"Status update unavailable","date":"2019-09"},"persistent_id":"684d3bcf51357fc6ce4cf71cdec15e0b84f91792f44f4aa5866804156c370fd8","id":74307752,"location_subtype":"","month":"2019-05"},{"category":"shoplifting","location_type":"Force","location":{"latitude":"51.357454","street":{"id":925737,"name":"On or near Supermarket"},"longitude":"-0.148064"},"context":"","outcome_status":{"category":"Court result unavailable","date":"2019-12"},"persistent_id":"bfa4314c5b9914a0a8e719872a0905418e3f2dfc35279bb5ac8e26944ca4837c","id":74306485,"location_subtype":"","month":"2019-05"},{"category":"shoplifting","location_type":"Force","location":{"latitude":"51.368606","street":{"id":926938,"name":"On or near Hallowell Avenue"},"longitude":"-0.132256"},"context":"","outcome_status":{"category":"Status update unavailable","date":"2019-09"},"persistent_id":"8dc61f6da1565f93bfb62bdc0523b770b8a7b3af569afef45da60b0936cc81d2","id":74307879,"location_subtype":"","month":"2019-05"},{"category":"shoplifting","location_type":"Force","location":{"latitude":"51.366582","street":{"id":926983,"name":"On or near Danbury Mews"},"longitude":"-0.152609"},"context":"","outcome_status":{"category":"Status update unavailable","date":"2019-09"},"persistent_id":"02919c39266ed3d27c744dd4b7f36c51470c52b233411f31b1dff264503fd9bc","id":74318956,"location_subtype":"","month":"2019-05"},{"category":"shoplifting","location_type":"Force","location":{"latitude":"51.365182","street":{"id":926915,"name":"On or near Supermarket"},"longitude":"-0.160796"},"context":"","outcome_status":{"category":"Status update unavailable","date":"2019-09"},"persistent_id":"4e422fb2fbee53bea032fefeafee01c6645940716c865a212700cd64dd72e58c","id":74332448,"location_subtype":"","month":"2019-05"},{"category":"shoplifting","location_type":"Force","location":{"latitude":"51.365182","street":{"id":926915,"name":"On or near Supermarket"},"longitude":"-0.160796"},"context":"","outcome_status":{"category":"Status update unavailable","date":"2019-09"},"persistent_id":"a21b4694a95e12a4b563a34483a6d16b9dedd5e0aaa1879d60f5822e90587fc6","id":74351981,"location_subtype":"","month":"2019-05"},{"category":"shoplifting","location_type":"Force","location":{"latitude":"51.358384","street":{"id":925713,"name":"On or near Parking Area"},"longitude":"-0.148831"},"context":"","outcome_status":{"category":"Status update unavailable","date":"2019-09"},"persistent_id":"7a63de290719d455ab1b6b10eb6451b7cd01a234269b5914e0fb29c4937b104d","id":74369462,"location_subtype":"","month":"2019-05"},{"category":"shoplifting","location_type":"Force","location":{"latitude":"51.358384","street":{"id":925713,"name":"On or near Parking Area"},"longitude":"-0.148831"},"context":"","outcome_status":{"category":"Investigation complete; no suspect identified","date":"2020-03"},"persistent_id":"8f3b3fb40730969e9027936297c0162b28f7a9992fdade239cfd34c8e18a34d5","id":74336564,"location_subtype":"","month":"2019-05"},{"category":"shoplifting","location_type":"Force","location":{"latitude":"51.358384","street":{"id":925713,"name":"On or near Parking Area"},"longitude":"-0.148831"},"context":"","outcome_status":{"category":"Status update unavailable","date":"2019-09"},"persistent_id":"8ae5f62fa5b09e692599a35e37b08981ad9766acf3458545aefe55a803da9046","id":74346828,"location_subtype":"","month":"2019-05"},{"category":"shoplifting","location_type":"Force","location":{"latitude":"51.358699","street":{"id":925722,"name":"On or near Stafford Road"},"longitude":"-0.143748"},"context":"","outcome_status":{"category":"Status update unavailable","date":"2019-09"},"persistent_id":"d38306f24ef31818b8327e039d295f2cc7cad97f100781c1667fac694220cdf1","id":74337357,"location_subtype":"","month":"2019-05"},{"category":"shoplifting","location_type":"Force","location":{"latitude":"51.360833","street":{"id":926989,"name":"On or near Railway Approach"},"longitude":"-0.150729"},"context":"","outcome_status":{"category":"Status update unavailable","date":"2019-09"},"persistent_id":"a1c030dfef3ec7fa7cf4c3048dfdcc9da8bd5b981085b418a60f3626c851a11a","id":74324808,"location_subtype":"","month":"2019-05"},{"category":"shoplifting","location_type":"Force","location":{"latitude":"51.365182","street":{"id":926915,"name":"On or near Supermarket"},"longitude":"-0.160796"},"context":"","outcome_status":{"category":"Status update unavailable","date":"2019-09"},"persistent_id":"b55e1734d8b2788e8963692572973e6597380a713c2ac8ecad9aea5a714891b6","id":74293699,"location_subtype":"","month":"2019-05"},{"category":"shoplifting","location_type":"Force","location":{"latitude":"51.365182","street":{"id":926915,"name":"On or near Supermarket"},"longitude":"-0.160796"},"context":"","outcome_status":{"category":"Status update unavailable","date":"2019-09"},"persistent_id":"66ba1ca39c9d463bf633d5adc3840223603a9c9d25f0ac5b37effad4c04c6cc1","id":74290515,"location_subtype":"","month":"2019-05"},{"category":"shoplifting","location_type":"Force","location":{"latitude":"51.358384","street":{"id":925713,"name":"On or near Parking Area"},"longitude":"-0.148831"},"context":"","outcome_status":{"category":"Status update unavailable","date":"2019-09"},"persistent_id":"d8eab8ac3486f56dd8f97b08e06db83ea5eaed726c9650ef8d525b4cf25b7ebe","id":74348925,"location_subtype":"","month":"2019-05"},{"category":"shoplifting","location_type":"Force","location":{"latitude":"51.359983","street":{"id":925708,"name":"On or near Manor Road"},"longitude":"-0.149872"},"context":"","outcome_status":{"category":"Status update unavailable","date":"2019-09"},"persistent_id":"8e45f724c9410418cdd6fad7a884b467a1dc17e141b0962d2c287b2352d0cc4b","id":74308126,"location_subtype":"","month":"2019-05"},{"category":"shoplifting","location_type":"Force","location":{"latitude":"51.358384","street":{"id":925713,"name":"On or near Parking Area"},"longitude":"-0.148831"},"context":"","outcome_status":{"category":"Status update unavailable","date":"2019-09"},"persistent_id":"2e53b4f8bd7af6d4509b0bc0be5ce8be91e002a760a988e35677432d77841ea8","id":74349298,"location_subtype":"","month":"2019-05"},{"category":"shoplifting","location_type":"Force","location":{"latitude":"51.359983","street":{"id":925708,"name":"On or near Manor Road"},"longitude":"-0.149872"},"context":"","outcome_status":{"category":"Status update unavailable","date":"2019-09"},"persistent_id":"37642ec3fa20877ca8193a9906b1249a09ef372b937cbd55dc8d3bd9f1217ffa","id":74328877,"location_subtype":"","month":"2019-05"},{"category":"shoplifting","location_type":"Force","location":{"latitude":"51.359983","street":{"id":925708,"name":"On or near Manor Road"},"longitude":"-0.149872"},"context":"","outcome_status":{"category":"Status update unavailable","date":"2019-09"},"persistent_id":"8162af7ba2a25409b2eaea14dfd6fccaed77df1383b68f88fad0fe1d1d4ecb8e","id":74353774,"location_subtype":"","month":"2019-05"},{"category":"shoplifting","location_type":"Force","location":{"latitude":"51.365809","street":{"id":926827,"name":"On or near Theatre\/concert Hall"},"longitude":"-0.159507"},"context":"","outcome_status":{"category":"Investigation complete; no suspect identified","date":"2020-03"},"persistent_id":"70106f7e46b51fd2ea9f3e53597e1b20065fcb7696f173ae7efdf2f9e354ab9b","id":74354404,"location_subtype":"","month":"2019-05"},{"category":"shoplifting","location_type":"Force","location":{"latitude":"51.365182","street":{"id":926915,"name":"On or near Supermarket"},"longitude":"-0.160796"},"context":"","outcome_status":{"category":"Status update unavailable","date":"2019-09"},"persistent_id":"c56db3a02dcb346aa7bb8cd0d1b5d3fc5cccd26bda53d4789f3bace61239a191","id":74353829,"location_subtype":"","month":"2019-05"},{"category":"shoplifting","location_type":"Force","location":{"latitude":"51.358622","street":{"id":925711,"name":"On or near Supermarket"},"longitude":"-0.150229"},"context":"","outcome_status":{"category":"Status update unavailable","date":"2019-09"},"persistent_id":"20bd912b1a8480017daa62c6297bc3d7cfb4f56e2e74ad8a4246ff4582b76b37","id":74331065,"location_subtype":"","month":"2019-05"},{"category":"shoplifting","location_type":"Force","location":{"latitude":"51.362917","street":{"id":926883,"name":"On or near Petrol Station"},"longitude":"-0.172379"},"context":"","outcome_status":{"category":"Status update unavailable","date":"2019-09"},"persistent_id":"b3fe186df0f2ba65c77ae4bb90b19f37078c8bc351524824c086b0cb8bfc0a2e","id":74331051,"location_subtype":"","month":"2019-05"},{"category":"shoplifting","location_type":"Force","location":{"latitude":"51.358384","street":{"id":925713,"name":"On or near Parking Area"},"longitude":"-0.148831"},"context":"","outcome_status":{"category":"Status update unavailable","date":"2019-09"},"persistent_id":"9f0c8003693a4ad5bbbf1ef1ae82b864d2fb66e34e79f79771c463cfa480adf7","id":74300767,"location_subtype":"","month":"2019-05"},{"category":"theft-from-the-person","location_type":"Force","location":{"latitude":"51.358622","street":{"id":925711,"name":"On or near Supermarket"},"longitude":"-0.150229"},"context":"","outcome_status":{"category":"Status update unavailable","date":"2019-09"},"persistent_id":"cd1741531c143be4ff24100ba52c1839a83d61ef270f411144d27e3a55993b0b","id":74318219,"location_subtype":"","month":"2019-05"},{"category":"vehicle-crime","location_type":"Force","location":{"latitude":"51.364427","street":{"id":926991,"name":"On or near Queen's Close"},"longitude":"-0.152825"},"context":"","outcome_status":{"category":"Status update unavailable","date":"2019-09"},"persistent_id":"634dfca3e09f24ba2225d0d7305f1136edc5a6310f7d61ccd9c8074970240669","id":74329452,"location_subtype":"","month":"2019-05"},{"category":"vehicle-crime","location_type":"Force","location":{"latitude":"51.365809","street":{"id":926827,"name":"On or near Theatre\/concert Hall"},"longitude":"-0.159507"},"context":"","outcome_status":{"category":"Status update unavailable","date":"2019-09"},"persistent_id":"07b15806c4f14b5d81f69426e0f14add0bdf65889bf2109e6a0d943cb6ba8242","id":74344443,"location_subtype":"","month":"2019-05"},{"category":"vehicle-crime","location_type":"Force","location":{"latitude":"51.369991","street":{"id":926805,"name":"On or near Leechcroft Road"},"longitude":"-0.156638"},"context":"","outcome_status":{"category":"Status update unavailable","date":"2019-09"},"persistent_id":"a34f6dfc69b7595259730d21261da5295ba2643fbc645047d15492b97bf02720","id":74350917,"location_subtype":"","month":"2019-05"},{"category":"vehicle-crime","location_type":"Force","location":{"latitude":"51.354553","street":{"id":925862,"name":"On or near Hawthorne Avenue"},"longitude":"-0.157401"},"context":"","outcome_status":{"category":"Status update unavailable","date":"2019-09"},"persistent_id":"e17349924521c1a1c0f162a7984d6c4af700785b78ed15c35f12dfcb7ff9f6b9","id":74351008,"location_subtype":"","month":"2019-05"},{"category":"vehicle-crime","location_type":"Force","location":{"latitude":"51.364660","street":{"id":927027,"name":"On or near Plough Lane Close"},"longitude":"-0.132905"},"context":"","outcome_status":{"category":"Court result unavailable","date":"2020-06"},"persistent_id":"a4aa6c9df5e4d1e9d0770d42364777ddd7f5fea19094d3b4a6619e3c76232a47","id":74297893,"location_subtype":"","month":"2019-05"},{"category":"vehicle-crime","location_type":"Force","location":{"latitude":"51.361612","street":{"id":926998,"name":"On or near Spring Gardens"},"longitude":"-0.145986"},"context":"","outcome_status":{"category":"Status update unavailable","date":"2019-09"},"persistent_id":"c4ce5a7ee4576d3bec49ef3775f6b2e5a66d3ab95152b7fa0f2823c48ab6100d","id":74372844,"location_subtype":"","month":"2019-05"},{"category":"vehicle-crime","location_type":"Force","location":{"latitude":"51.360132","street":{"id":925823,"name":"On or near Park Hill"},"longitude":"-0.169660"},"context":"","outcome_status":{"category":"Status update unavailable","date":"2019-09"},"persistent_id":"03edbe43d9c75bd2f11959ce91cf950f8776bd5db9e945fd31bb41c8bce4936b","id":74297565,"location_subtype":"","month":"2019-05"},{"category":"vehicle-crime","location_type":"Force","location":{"latitude":"51.368430","street":{"id":926828,"name":"On or near Parking Area"},"longitude":"-0.166082"},"context":"","outcome_status":{"category":"Status update unavailable","date":"2019-09"},"persistent_id":"157ae833dda1f2a733f4c3e6830842e72493abb3d85a107ffb1210519a0d6cf9","id":74327498,"location_subtype":"","month":"2019-05"},{"category":"vehicle-crime","location_type":"Force","location":{"latitude":"51.357454","street":{"id":925737,"name":"On or near Supermarket"},"longitude":"-0.148064"},"context":"","outcome_status":{"category":"Status update unavailable","date":"2019-09"},"persistent_id":"08eec3d0a413be68e3a67a35a3e6a06ac3a98e2aef65bc9faa5217c112c2c825","id":74327684,"location_subtype":"","month":"2019-05"},{"category":"vehicle-crime","location_type":"Force","location":{"latitude":"51.354430","street":{"id":925658,"name":"On or near Daimler Way"},"longitude":"-0.130880"},"context":"","outcome_status":{"category":"Status update unavailable","date":"2019-09"},"persistent_id":"b6a2656ed206fa381d0668ee54799eecb4f56d1b5c5efa4f436fea317af34154","id":74359337,"location_subtype":"","month":"2019-05"},{"category":"vehicle-crime","location_type":"Force","location":{"latitude":"51.356415","street":{"id":925867,"name":"On or near Anglesey Gardens"},"longitude":"-0.160889"},"context":"","outcome_status":{"category":"Status update unavailable","date":"2019-09"},"persistent_id":"71ed4fbdc64b59da2aa9800cf7b69c7c2cbd6c3b9a590e88a17c590b59e2f42e","id":74358191,"location_subtype":"","month":"2019-05"},{"category":"vehicle-crime","location_type":"Force","location":{"latitude":"51.360219","street":{"id":925726,"name":"On or near Ross Parade"},"longitude":"-0.148886"},"context":"","outcome_status":{"category":"Status update unavailable","date":"2019-09"},"persistent_id":"e396eaaad2c39b0eef69c245fe502f6e0f5dffc732e9792b6a512cb5d3be1591","id":74339951,"location_subtype":"","month":"2019-05"},{"category":"vehicle-crime","location_type":"Force","location":{"latitude":"51.355013","street":{"id":925740,"name":"On or near Pedestrian Subway"},"longitude":"-0.132508"},"context":"","outcome_status":{"category":"Status update unavailable","date":"2019-09"},"persistent_id":"adcdea2c0e54a7100e7832fd591765498830c3e388ce6e5a063389f7f74a2aea","id":74340131,"location_subtype":"","month":"2019-05"},{"category":"vehicle-crime","location_type":"Force","location":{"latitude":"51.355322","street":{"id":925837,"name":"On or near Beeches Avenue"},"longitude":"-0.170900"},"context":"","outcome_status":{"category":"Status update unavailable","date":"2019-09"},"persistent_id":"3d7c6f81a61f4da217212f9ecd1e4e3249805f023efb64517c2b00cf29f5020b","id":74364973,"location_subtype":"","month":"2019-05"},{"category":"vehicle-crime","location_type":"Force","location":{"latitude":"51.366308","street":{"id":926979,"name":"On or near Harcourt Road"},"longitude":"-0.150652"},"context":"","outcome_status":{"category":"Status update unavailable","date":"2019-09"},"persistent_id":"83c5f91fd5636e90f859b8ec2b34e7f0b55e37b1b6fd12bcc8f2e27fa2aea73b","id":74303392,"location_subtype":"","month":"2019-05"},{"category":"vehicle-crime","location_type":"Force","location":{"latitude":"51.361430","street":{"id":926899,"name":"On or near Park Lane"},"longitude":"-0.156120"},"context":"","outcome_status":{"category":"Status update unavailable","date":"2019-09"},"persistent_id":"a265b2a1d0221c03419213359f44b7c9f9b016cd51081e2ced42965b643dc76d","id":74352314,"location_subtype":"","month":"2019-05"},{"category":"vehicle-crime","location_type":"Force","location":{"latitude":"51.370793","street":{"id":926815,"name":"On or near Denmark Road"},"longitude":"-0.163057"},"context":"","outcome_status":{"category":"Investigation complete; no suspect identified","date":"2020-03"},"persistent_id":"8c782dda66edba9396dc8d76176bd1a5d3ae2e0a24b0e9369f7c2be26401bbed","id":74362574,"location_subtype":"","month":"2019-05"},{"category":"vehicle-crime","location_type":"Force","location":{"latitude":"51.370314","street":{"id":926821,"name":"On or near Burleigh Avenue"},"longitude":"-0.155476"},"context":"","outcome_status":{"category":"Status update unavailable","date":"2019-09"},"persistent_id":"5aa0753e6b906b40cb29246a52e7b0ff2e02f9819b2d99c3c2fe885164010072","id":74366486,"location_subtype":"","month":"2019-05"},{"category":"vehicle-crime","location_type":"Force","location":{"latitude":"51.368938","street":{"id":926982,"name":"On or near Derek Avenue"},"longitude":"-0.152054"},"context":"","outcome_status":{"category":"Status update unavailable","date":"2019-09"},"persistent_id":"c055f225b0610df9902d87b779e678b0ea41241fbf2119991a8817be60dd25a8","id":74303157,"location_subtype":"","month":"2019-05"},{"category":"vehicle-crime","location_type":"Force","location":{"latitude":"51.371565","street":{"id":926816,"name":"On or near Denmark Gardens"},"longitude":"-0.163012"},"context":"","outcome_status":{"category":"Status update unavailable","date":"2019-09"},"persistent_id":"307ae942fb1de711c8d6cf075b1c14c4f19f35c85fedba6d8b0f2ddc8f70f376","id":74315184,"location_subtype":"","month":"2019-05"},